[
  {
    "geonameId": 1474164,
    "name": "‘Abbās Ghar",
    "latitude": 34.89766,
    "longitude": 70.96439,
    "category": "Mountain",
    "subcategory": "Mountain",
    "featured": false,
    "priority": 50
  },
  {
    "geonameId": 1469345,
    "name": "‘Abd ur Raḩīmzī Ghar",
    "latitude": 34.26831,
    "longitude": 69.27665,
    "category": "Mountain",
    "subcategory": "Mountain",
    "featured": false,
    "priority": 50
  },
  {
    "geonameId": 1480643,
    "name": "‘Abdulī Band",
    "latitude": 32.24443,
    "longitude": 68.0672,
    "category": "Mountain",
    "subcategory": "Mountain Pass",
    "featured": false,
    "priority": 50
  },
  {
    "geonameId": 1456802,
    "name": "‘Abdullāh",
    "latitude": 34.95318,
    "longitude": 66.19504,
    "category": "Mountain",
    "subcategory": "Mountain",
    "featured": false,
    "priority": 50
  },
  {
    "geonameId": 1448895,
    "name": "‘Abdur Kushtah",
    "latitude": 33.36864,
    "longitude": 67.76937,
    "category": "Mountain",
    "subcategory": "Mountain",
    "featured": false,
    "priority": 50
  },
  {
    "geonameId": 1442507,
    "name": "‘Ādilē Gharbī Ghar",
    "latitude": 33.0806,
    "longitude": 66.71397,
    "category": "Mountain",
    "subcategory": "Mountain",
    "featured": false,
    "priority": 50
  },
  {
    "geonameId": 1442521,
    "name": "‘Ādilē Sharqī Ghar",
    "latitude": 33.12017,
    "longitude": 66.73803,
    "category": "Mountain",
    "subcategory": "Mountain",
    "featured": false,
    "priority": 50
  },
  {
    "geonameId": 1149078,
    "name": "‘Alam Ghar",
    "latitude": 32.95691,
    "longitude": 67.63405,
    "category": "Mountain",
    "subcategory": "Mountain",
    "featured": false,
    "priority": 50
  },
  {
    "geonameId": 1433992,
    "name": "‘Alamah Baghōray",
    "latitude": 32.76548,
    "longitude": 69.21695,
    "category": "Mountain",
    "subcategory": "Mountain",
    "featured": false,
    "priority": 50
  },
  {
    "geonameId": 1461093,
    "name": "‘Alamchōy",
    "latitude": 34.45531,
    "longitude": 64.02323,
    "category": "Mountain",
    "subcategory": "Mountain",
    "featured": false,
    "priority": 50
  },
  {
    "geonameId": 1149084,
    "name": "‘Alamchū",
    "latitude": 34.21057,
    "longitude": 64.38027,
    "category": "Mountain",
    "subcategory": "Mountain",
    "featured": false,
    "priority": 50
  },
  {
    "geonameId": 1148114,
    "name": "‘Alāqahdārī Aṯghar",
    "latitude": 31.73506,
    "longitude": 67.3574,
    "category": "City",
    "subcategory": "County Seat",
    "featured": false,
    "priority": 50
  },
  {
    "geonameId": 1149052,
    "name": "‘Alāqahdārī Dīshū",
    "latitude": 30.43206,
    "longitude": 63.29802,
    "category": "City",
    "subcategory": "County Seat",
    "featured": false,
    "priority": 50
  },
  {
    "geonameId": 1140919,
    "name": "‘Alāqahdārī Gēlān",
    "latitude": 32.72692,
    "longitude": 67.63696,
    "category": "City",
    "subcategory": "County Seat",
    "featured": false,
    "priority": 50
  },
  {
    "geonameId": 1434016,
    "name": "‘Alāqahdārī Saṟōbī",
    "latitude": 32.79331,
    "longitude": 69.0866,
    "category": "City",
    "subcategory": "County Seat",
    "featured": false,
    "priority": 50
  },
  {
    "geonameId": 1125962,
    "name": "‘Alāqahdārī Shāh Jōy",
    "latitude": 32.52154,
    "longitude": 67.41315,
    "category": "City",
    "subcategory": "County Seat",
    "featured": false,
    "priority": 50
  },
  {
    "geonameId": 1149049,
    "name": "‘Alāqahdārī Yōsuf Khēl",
    "latitude": 33.05195,
    "longitude": 68.65,
    "category": "City",
    "subcategory": "County Seat",
    "featured": false,
    "priority": 50
  },
  {
    "geonameId": 1148863,
    "name": "‘Alāqahdārī-ye Almār",
    "latitude": 35.84616,
    "longitude": 64.53074,
    "category": "City",
    "subcategory": "County Seat",
    "featured": false,
    "priority": 50
  },
  {
    "geonameId": 1473011,
    "name": "‘Alī Bōkay",
    "latitude": 34.67203,
    "longitude": 69.90499,
    "category": "Mountain",
    "subcategory": "Mountain",
    "featured": false,
    "priority": 50
  },
  {
    "geonameId": 1469528,
    "name": "‘Alī Chakan Sar",
    "latitude": 34.32899,
    "longitude": 70.94952,
    "category": "Mountain",
    "subcategory": "Mountain",
    "featured": false,
    "priority": 50
  },
  {
    "geonameId": 1443313,
    "name": "‘Alī Dād Ghar",
    "latitude": 32.90554,
    "longitude": 67.07688,
    "category": "Mountain",
    "subcategory": "Mountain",
    "featured": false,
    "priority": 50
  },
  {
    "geonameId": 1148959,
    "name": "‘Alī Ganjī Ghar",
    "latitude": 31.76206,
    "longitude": 63.28978,
    "category": "Mountain",
    "subcategory": "Mountain",
    "featured": false,
    "priority": 50
  },
  {
    "geonameId": 1148952,
    "name": "‘Alī Jān Ghar",
    "latitude": 32.01248,
    "longitude": 66.93736,
    "category": "Mountain",
    "subcategory": "Mountain",
    "featured": false,
    "priority": 50
  },
  {
    "geonameId": 1148939,
    "name": "‘Alī Khēl",
    "latitude": 33.94253,
    "longitude": 69.71908,
    "category": "City",
    "subcategory": "County Seat",
    "featured": false,
    "priority": 50
  },
  {
    "geonameId": 1434120,
    "name": "‘Alī Khēl Ghar",
    "latitude": 32.90661,
    "longitude": 69.07593,
    "category": "Mountain",
    "subcategory": "Mountain",
    "featured": false,
    "priority": 50
  },
  {
    "geonameId": 7571082,
    "name": "‘Alī Khēlō Kanḏow",
    "latitude": 34.58882,
    "longitude": 69.39303,
    "category": "Mountain",
    "subcategory": "Mountain Pass",
    "featured": false,
    "priority": 50
  },
  {
    "geonameId": 1148930,
    "name": "‘Alī Kōh",
    "latitude": 36.55026,
    "longitude": 67.11046,
    "category": "Mountain",
    "subcategory": "Mountain",
    "featured": false,
    "priority": 50
  },
  {
    "geonameId": 1471046,
    "name": "‘Alī Muḩammad Kushtagī",
    "latitude": 34.59584,
    "longitude": 64.27453,
    "category": "Mountain",
    "subcategory": "Mountain",
    "featured": false,
    "priority": 50
  },
  {
    "geonameId": 1148905,
    "name": "‘Alī Sar",
    "latitude": 36.51839,
    "longitude": 67.64966,
    "category": "Mountain",
    "subcategory": "Peak",
    "featured": false,
    "priority": 50
  },
  {
    "geonameId": 1477130,
    "name": "‘Alī Sayyid Band",
    "latitude": 32.84189,
    "longitude": 64.52927,
    "category": "Mountain",
    "subcategory": "Mountain",
    "featured": false,
    "priority": 50
  },
  {
    "geonameId": 1148900,
    "name": "‘Alī Shang",
    "latitude": 34.11163,
    "longitude": 68.54275,
    "category": "Mountain",
    "subcategory": "Mountain",
    "featured": false,
    "priority": 50
  },
  {
    "geonameId": 1461517,
    "name": "‘Alī Shānī Ghar",
    "latitude": 33.16403,
    "longitude": 64.93571,
    "category": "Mountain",
    "subcategory": "Mountain",
    "featured": false,
    "priority": 50
  },
  {
    "geonameId": 1148893,
    "name": "‘Alī Shēr ‘Alāqahdārī",
    "latitude": 33.4362,
    "longitude": 70.06711,
    "category": "City",
    "subcategory": "County Seat",
    "featured": false,
    "priority": 50
  },
  {
    "geonameId": 1467976,
    "name": "‘Alīābād",
    "latitude": 36.52115,
    "longitude": 68.89985,
    "category": "City",
    "subcategory": "County Seat",
    "featured": false,
    "priority": 50
  },
  {
    "geonameId": 1148963,
    "name": "‘Alīêstō Ghar",
    "latitude": 32.96527,
    "longitude": 66.38394,
    "category": "Mountain",
    "subcategory": "Mountain",
    "featured": false,
    "priority": 50
  },
  {
    "geonameId": 1148478,
    "name": "‘Arab Shāh Ghar",
    "latitude": 32.62785,
    "longitude": 63.56494,
    "category": "Mountain",
    "subcategory": "Mountain",
    "featured": false,
    "priority": 50
  },
  {
    "geonameId": 1148236,
    "name": "‘Āshuq Nāw",
    "latitude": 35.99672,
    "longitude": 68.49203,
    "category": "Mountain",
    "subcategory": "Mountain",
    "featured": false,
    "priority": 50
  },
  {
    "geonameId": 1147909,
    "name": "‘Aynak Ghar",
    "latitude": 29.68805,
    "longitude": 63.58277,
    "category": "Mountain",
    "subcategory": "Mountain",
    "featured": false,
    "priority": 50
  },
  {
    "geonameId": 7064053,
    "name": "‘Azātak",
    "latitude": 31.99954,
    "longitude": 66.74596,
    "category": "Mountain",
    "subcategory": "Mountain",
    "featured": false,
    "priority": 50
  },
  {
    "geonameId": 1469738,
    "name": "‘Azīz Khān",
    "latitude": 34.10216,
    "longitude": 70.71728,
    "category": "Mountain",
    "subcategory": "Mountain",
    "featured": false,
    "priority": 50
  },
  {
    "geonameId": 1473108,
    "name": "‘Azīz Khān Kats",
    "latitude": 34.47851,
    "longitude": 70.30157,
    "category": "Mountain",
    "subcategory": "Mountain",
    "featured": false,
    "priority": 50
  },
  {
    "geonameId": 1474045,
    "name": "‘Azīz Tsêlaī",
    "latitude": 34.9435,
    "longitude": 70.7318,
    "category": "Mountain",
    "subcategory": "Mountain",
    "featured": false,
    "priority": 50
  },
  {
    "geonameId": 1434117,
    "name": "‘Īdī Ghunḏêy",
    "latitude": 32.87416,
    "longitude": 69.03581,
    "category": "Mountain",
    "subcategory": "Mountain",
    "featured": false,
    "priority": 50
  },
  {
    "geonameId": 1433973,
    "name": "‘Isá Ghar",
    "latitude": 32.71167,
    "longitude": 69.38333,
    "category": "Mountain",
    "subcategory": "Mountain",
    "featured": false,
    "priority": 50
  },
  {
    "geonameId": 7564127,
    "name": "‘Īsá Ghunḏêy",
    "latitude": 34.65942,
    "longitude": 70.29507,
    "category": "Mountain",
    "subcategory": "Mountain",
    "featured": false,
    "priority": 50
  },
  {
    "geonameId": 1439042,
    "name": "‘Īsá Khān",
    "latitude": 33.39528,
    "longitude": 68.0475,
    "category": "Mountain",
    "subcategory": "Mountain",
    "featured": false,
    "priority": 50
  },
  {
    "geonameId": 1131538,
    "name": "‘Ulyā Ghar",
    "latitude": 33.16035,
    "longitude": 64.50709,
    "category": "Mountain",
    "subcategory": "Mountain",
    "featured": false,
    "priority": 50
  },
  {
    "geonameId": 1450580,
    "name": "‘Ulyāt",
    "latitude": 33.25028,
    "longitude": 67.48583,
    "category": "Mountain",
    "subcategory": "Mountain",
    "featured": false,
    "priority": 50
  },
  {
    "geonameId": 1148695,
    "name": "’Unābah",
    "latitude": 35.23251,
    "longitude": 69.37719,
    "category": "City",
    "subcategory": "County Seat",
    "featured": false,
    "priority": 50
  },
  {
    "geonameId": 1338304,
    "name": "‘Us̄mānī Ghar",
    "latitude": 32.00833,
    "longitude": 69.01695,
    "category": "Mountain",
    "subcategory": "Mountain",
    "featured": false,
    "priority": 50
  },
  {
    "geonameId": 6284773,
    "name": "`Alishānī Ghar",
    "latitude": 33.15,
    "longitude": 64.91667,
    "category": "Mountain",
    "subcategory": "Mountain",
    "featured": false,
    "priority": 50
  },
  {
    "geonameId": 1149094,
    "name": "A‘lá Kōh",
    "latitude": 33.72376,
    "longitude": 67.22377,
    "category": "Mountain",
    "subcategory": "Mountain",
    "featured": false,
    "priority": 50
  },
  {
    "geonameId": 1464765,
    "name": "Āb Barāmad",
    "latitude": 35.86854,
    "longitude": 69.42408,
    "category": "Mountain",
    "subcategory": "Mountain",
    "featured": false,
    "priority": 50
  },
  {
    "geonameId": 1149660,
    "name": "Āb Chinār Ghar",
    "latitude": 32.56935,
    "longitude": 65.55707,
    "category": "Mountain",
    "subcategory": "Mountain",
    "featured": false,
    "priority": 50
  },
  {
    "geonameId": 1467145,
    "name": "Āb Dōkā",
    "latitude": 36.38321,
    "longitude": 71.00662,
    "category": "Mountain",
    "subcategory": "Mountain",
    "featured": false,
    "priority": 50
  },
  {
    "geonameId": 1435581,
    "name": "Āb Khānah",
    "latitude": 32.90238,
    "longitude": 67.72047,
    "category": "Mountain",
    "subcategory": "Mountain",
    "featured": false,
    "priority": 50
  },
  {
    "geonameId": 1469360,
    "name": "Āb Qalāt",
    "latitude": 36.03079,
    "longitude": 70.10442,
    "category": "Lake",
    "subcategory": "Lake",
    "featured": false,
    "priority": 50
  },
  {
    "geonameId": 1455740,
    "name": "Āb Zānū",
    "latitude": 34.55626,
    "longitude": 68.2162,
    "category": "Mountain",
    "subcategory": "Mountain",
    "featured": false,
    "priority": 50
  },
  {
    "geonameId": 1146952,
    "name": "Āb-e Bārīk",
    "latitude": 35.72968,
    "longitude": 69.04354,
    "category": "Mountain",
    "subcategory": "Mountain",
    "featured": false,
    "priority": 50
  },
  {
    "geonameId": 1149550,
    "name": "Āb-e Kamarī",
    "latitude": 35.08796,
    "longitude": 63.0678,
    "category": "City",
    "subcategory": "County Seat",
    "featured": false,
    "priority": 50
  },
  {
    "geonameId": 1398968,
    "name": "Ab-i-Duzd Narai",
    "latitude": 29.95124,
    "longitude": 66.35129,
    "category": "Mountain",
    "subcategory": "Mountain Pass",
    "featured": false,
    "priority": 50
  },
  {
    "geonameId": 1455724,
    "name": "Abak",
    "latitude": 34.52309,
    "longitude": 68.13035,
    "category": "Mountain",
    "subcategory": "Mountain",
    "featured": false,
    "priority": 50
  },
  {
    "geonameId": 1456997,
    "name": "Ābāsh Ghar",
    "latitude": 34.23928,
    "longitude": 68.59554,
    "category": "Mountain",
    "subcategory": "Mountain",
    "featured": false,
    "priority": 50
  },
  {
    "geonameId": 1450662,
    "name": "Abday",
    "latitude": 33.07408,
    "longitude": 67.2627,
    "category": "Mountain",
    "subcategory": "Mountain",
    "featured": false,
    "priority": 50
  },
  {
    "geonameId": 1476513,
    "name": "Abilak Gul",
    "latitude": 35.53895,
    "longitude": 70.97189,
    "category": "Mountain",
    "subcategory": "Peak",
    "featured": false,
    "priority": 50
  },
  {
    "geonameId": 1438604,
    "name": "Ābjōsh Ghar",
    "latitude": 33.83661,
    "longitude": 68.90154,
    "category": "Mountain",
    "subcategory": "Mountain",
    "featured": false,
    "priority": 50
  },
  {
    "geonameId": 1438602,
    "name": "Ābjōsh Nāwêr",
    "latitude": 33.82679,
    "longitude": 68.86233,
    "category": "Mountain",
    "subcategory": "Mountain Pass",
    "featured": false,
    "priority": 50
  },
  {
    "geonameId": 1427837,
    "name": "Ablaq Sar",
    "latitude": 32.35023,
    "longitude": 66.29844,
    "category": "Mountain",
    "subcategory": "Peak",
    "featured": false,
    "priority": 50
  },
  {
    "geonameId": 1457205,
    "name": "Ablaqah",
    "latitude": 34.27258,
    "longitude": 68.57311,
    "category": "Mountain",
    "subcategory": "Mountain",
    "featured": false,
    "priority": 50
  },
  {
    "geonameId": 1424051,
    "name": "Ābrin Ghar",
    "latitude": 35.19878,
    "longitude": 71.11143,
    "category": "Mountain",
    "subcategory": "Mountain",
    "featured": false,
    "priority": 50
  },
  {
    "geonameId": 1423940,
    "name": "Ābrō Ghar",
    "latitude": 35.26996,
    "longitude": 71.07798,
    "category": "Mountain",
    "subcategory": "Mountain",
    "featured": false,
    "priority": 50
  },
  {
    "geonameId": 1149470,
    "name": "Abrunā Ghar",
    "latitude": 35.22011,
    "longitude": 71.13111,
    "category": "Mountain",
    "subcategory": "Mountain",
    "featured": false,
    "priority": 50
  },
  {
    "geonameId": 1459538,
    "name": "Abshan",
    "latitude": 33.67056,
    "longitude": 63.0575,
    "category": "Mountain",
    "subcategory": "Mountain Pass",
    "featured": false,
    "priority": 50
  },
  {
    "geonameId": 1474964,
    "name": "Ābshārah",
    "latitude": 34.04999,
    "longitude": 63.92999,
    "category": "Mountain",
    "subcategory": "Mountain",
    "featured": false,
    "priority": 50
  },
  {
    "geonameId": 1439137,
    "name": "Ābtū",
    "latitude": 33.49852,
    "longitude": 68.18967,
    "category": "Mountain",
    "subcategory": "Mountain",
    "featured": false,
    "priority": 50
  },
  {
    "geonameId": 1457642,
    "name": "Ābzī Khudā’ī",
    "latitude": 34.89051,
    "longitude": 63.06461,
    "category": "Lake",
    "subcategory": "Reservoir",
    "featured": false,
    "priority": 50
  },
  {
    "geonameId": 1149439,
    "name": "Achah",
    "latitude": 34.70618,
    "longitude": 65.10885,
    "category": "Mountain",
    "subcategory": "Mountain",
    "featured": false,
    "priority": 50
  },
  {
    "geonameId": 1470823,
    "name": "Achah-ye Sowz",
    "latitude": 34.77756,
    "longitude": 64.75225,
    "category": "Mountain",
    "subcategory": "Mountain",
    "featured": false,
    "priority": 50
  },
  {
    "geonameId": 1428893,
    "name": "Achahnū Ghar",
    "latitude": 35.10617,
    "longitude": 70.65585,
    "category": "Mountain",
    "subcategory": "Mountain",
    "featured": false,
    "priority": 50
  },
  {
    "geonameId": 1429025,
    "name": "Achalak Ghar",
    "latitude": 35.15829,
    "longitude": 70.89764,
    "category": "Mountain",
    "subcategory": "Mountain",
    "featured": false,
    "priority": 50
  },
  {
    "geonameId": 1458155,
    "name": "Āchamazār",
    "latitude": 34.09167,
    "longitude": 66.85618,
    "category": "Mountain",
    "subcategory": "Mountain",
    "featured": false,
    "priority": 50
  },
  {
    "geonameId": 1450729,
    "name": "Ādam ‘Alī",
    "latitude": 33.02122,
    "longitude": 67.47096,
    "category": "Mountain",
    "subcategory": "Mountain",
    "featured": false,
    "priority": 50
  },
  {
    "geonameId": 1345680,
    "name": "Ādam Khān Sakarah",
    "latitude": 33.43363,
    "longitude": 70.20134,
    "category": "Mountain",
    "subcategory": "Mountain",
    "featured": false,
    "priority": 50
  },
  {
    "geonameId": 1438556,
    "name": "Aḏawar Ghar",
    "latitude": 33.77861,
    "longitude": 68.87417,
    "category": "Mountain",
    "subcategory": "Mountain",
    "featured": false,
    "priority": 50
  },
  {
    "geonameId": 1434263,
    "name": "Adghalah Ghar",
    "latitude": 33.02106,
    "longitude": 69.43143,
    "category": "Mountain",
    "subcategory": "Mountain",
    "featured": false,
    "priority": 50
  },
  {
    "geonameId": 1149379,
    "name": "Adraskan",
    "latitude": 33.64573,
    "longitude": 62.26959,
    "category": "City",
    "subcategory": "County Seat",
    "featured": false,
    "priority": 50
  },
  {
    "geonameId": 7571108,
    "name": "Aḏyow Sar",
    "latitude": 34.58395,
    "longitude": 69.47837,
    "category": "Mountain",
    "subcategory": "Peak",
    "featured": false,
    "priority": 50
  },
  {
    "geonameId": 1149371,
    "name": "Āfāqī",
    "latitude": 36.66172,
    "longitude": 69.35095,
    "category": "City",
    "subcategory": "County Seat",
    "featured": false,
    "priority": 50
  },
  {
    "geonameId": 10990455,
    "name": "Afghan Koh",
    "latitude": 29.39097,
    "longitude": 64.15779,
    "category": "Mountain",
    "subcategory": "Mountain",
    "featured": false,
    "priority": 50
  },
  {
    "geonameId": 1148009,
    "name": "Afghānī Ghar",
    "latitude": 31.93054,
    "longitude": 64.88791,
    "category": "Mountain",
    "subcategory": "Mountain",
    "featured": false,
    "priority": 50
  },
  {
    "geonameId": 1472939,
    "name": "Afshār Ghar",
    "latitude": 34.68225,
    "longitude": 69.83574,
    "category": "Mountain",
    "subcategory": "Mountain",
    "featured": false,
    "priority": 50
  },
  {
    "geonameId": 1452292,
    "name": "Afẕalī Ghar",
    "latitude": 33.6845,
    "longitude": 70.07867,
    "category": "Mountain",
    "subcategory": "Mountain",
    "featured": false,
    "priority": 50
  },
  {
    "geonameId": 1344815,
    "name": "Agani Pass",
    "latitude": 33.98856,
    "longitude": 70.18861,
    "category": "Mountain",
    "subcategory": "Mountain Pass",
    "featured": false,
    "priority": 50
  },
  {
    "geonameId": 1423309,
    "name": "Āghā Jān Ghar",
    "latitude": 35.06184,
    "longitude": 69.02987,
    "category": "Mountain",
    "subcategory": "Mountain",
    "featured": false,
    "priority": 50
  },
  {
    "geonameId": 1149338,
    "name": "Āghar",
    "latitude": 34.07824,
    "longitude": 68.80992,
    "category": "Mountain",
    "subcategory": "Mountain",
    "featured": false,
    "priority": 50
  },
  {
    "geonameId": 1428596,
    "name": "Āghayl Sang",
    "latitude": 35.28499,
    "longitude": 66.26169,
    "category": "Mountain",
    "subcategory": "Mountain",
    "featured": false,
    "priority": 50
  },
  {
    "geonameId": 1149329,
    "name": "Āghayl-e Sang",
    "latitude": 35.07883,
    "longitude": 66.46353,
    "category": "Mountain",
    "subcategory": "Mountain",
    "featured": false,
    "priority": 50
  },
  {
    "geonameId": 1437883,
    "name": "Āghil Sang",
    "latitude": 33.94629,
    "longitude": 66.68802,
    "category": "Mountain",
    "subcategory": "Mountain",
    "featured": false,
    "priority": 50
  },
  {
    "geonameId": 1469318,
    "name": "Aghzayō Tsapêrō Sar",
    "latitude": 34.1815,
    "longitude": 69.44435,
    "category": "Mountain",
    "subcategory": "Mountain",
    "featured": false,
    "priority": 50
  },
  {
    "geonameId": 1423885,
    "name": "Agōkhī Ghar",
    "latitude": 35.48647,
    "longitude": 71.33734,
    "category": "Mountain",
    "subcategory": "Mountain",
    "featured": false,
    "priority": 50
  },
  {
    "geonameId": 1149315,
    "name": "Agram An",
    "latitude": 36.30784,
    "longitude": 71.51289,
    "category": "Mountain",
    "subcategory": "Mountain Pass",
    "featured": false,
    "priority": 50
  },
  {
    "geonameId": 1149314,
    "name": "Agrō Ghar",
    "latitude": 35.41295,
    "longitude": 71.27462,
    "category": "Mountain",
    "subcategory": "Mountain",
    "featured": false,
    "priority": 50
  },
  {
    "geonameId": 1438935,
    "name": "Aḩad Band",
    "latitude": 33.02833,
    "longitude": 68.36722,
    "category": "Mountain",
    "subcategory": "Mountain",
    "featured": false,
    "priority": 50
  },
  {
    "geonameId": 1149288,
    "name": "Āhangarī",
    "latitude": 35.0767,
    "longitude": 67.56698,
    "category": "Mountain",
    "subcategory": "Mountain",
    "featured": false,
    "priority": 50
  },
  {
    "geonameId": 1149290,
    "name": "Āhingar Ghar",
    "latitude": 34.06578,
    "longitude": 69.38702,
    "category": "Mountain",
    "subcategory": "Mountain",
    "featured": false,
    "priority": 50
  },
  {
    "geonameId": 1469307,
    "name": "Aḩmad Gaṟang",
    "latitude": 34.34477,
    "longitude": 69.29577,
    "category": "Mountain",
    "subcategory": "Mountain",
    "featured": false,
    "priority": 50
  },
  {
    "geonameId": 1464564,
    "name": "Aḩmad-e Bālā",
    "latitude": 36.572,
    "longitude": 67.26309,
    "category": "Mountain",
    "subcategory": "Mountain Pass",
    "featured": false,
    "priority": 50
  },
  {
    "geonameId": 1455898,
    "name": "Āhū Sang",
    "latitude": 34.84703,
    "longitude": 68.08339,
    "category": "Mountain",
    "subcategory": "Mountain",
    "featured": false,
    "priority": 50
  },
  {
    "geonameId": 1127768,
    "name": "Aībak",
    "latitude": 36.26468,
    "longitude": 68.01551,
    "category": "City",
    "subcategory": "Regional Capital",
    "featured": false,
    "priority": 50
  },
  {
    "geonameId": 1444050,
    "name": "Ajrigh",
    "latitude": 32.95463,
    "longitude": 65.06091,
    "category": "Mountain",
    "subcategory": "Mountain",
    "featured": false,
    "priority": 50
  },
  {
    "geonameId": 1456085,
    "name": "Akbandī",
    "latitude": 35.8136,
    "longitude": 70.15201,
    "category": "Mountain",
    "subcategory": "Mountain",
    "featured": false,
    "priority": 50
  },
  {
    "geonameId": 1149213,
    "name": "Akchūrī Ghar",
    "latitude": 35.3546,
    "longitude": 71.03386,
    "category": "Mountain",
    "subcategory": "Mountain",
    "featured": false,
    "priority": 50
  },
  {
    "geonameId": 1149212,
    "name": "Akdaro Kanḏaw",
    "latitude": 33.6645,
    "longitude": 69.00634,
    "category": "Mountain",
    "subcategory": "Mountain Pass",
    "featured": false,
    "priority": 50
  },
  {
    "geonameId": 1464701,
    "name": "Akhnaz̧ar",
    "latitude": 35.98364,
    "longitude": 69.48171,
    "category": "Mountain",
    "subcategory": "Mountain",
    "featured": false,
    "priority": 50
  },
  {
    "geonameId": 1442565,
    "name": "Akhpūṯī Ghar",
    "latitude": 33.07416,
    "longitude": 66.89872,
    "category": "Mountain",
    "subcategory": "Mountain",
    "featured": false,
    "priority": 50
  },
  {
    "geonameId": 1468682,
    "name": "Akhrakham",
    "latitude": 36.62117,
    "longitude": 70.80934,
    "category": "Mountain",
    "subcategory": "Mountain",
    "featured": false,
    "priority": 50
  },
  {
    "geonameId": 1471382,
    "name": "Akhtāsh",
    "latitude": 34.27574,
    "longitude": 63.52468,
    "category": "Mountain",
    "subcategory": "Mountain",
    "featured": false,
    "priority": 50
  },
  {
    "geonameId": 1466364,
    "name": "Ākhūnd Şāḩib Ghar",
    "latitude": 31.45787,
    "longitude": 65.41022,
    "category": "Mountain",
    "subcategory": "Mountain",
    "featured": false,
    "priority": 50
  },
  {
    "geonameId": 1149211,
    "name": "Akirnēk Ghar",
    "latitude": 35.1299,
    "longitude": 71.2707,
    "category": "Mountain",
    "subcategory": "Mountain",
    "featured": false,
    "priority": 50
  },
  {
    "geonameId": 6310867,
    "name": "Akōzilē Ghar",
    "latitude": 30.31771,
    "longitude": 66.26934,
    "category": "Mountain",
    "subcategory": "Mountain",
    "featured": false,
    "priority": 50
  },
  {
    "geonameId": 1452665,
    "name": "Alabezay",
    "latitude": 33.15917,
    "longitude": 70.03611,
    "category": "Mountain",
    "subcategory": "Mountain",
    "featured": false,
    "priority": 50
  },
  {
    "geonameId": 1428608,
    "name": "Alabīrdī",
    "latitude": 35.3896,
    "longitude": 66.36644,
    "category": "Mountain",
    "subcategory": "Mountain",
    "featured": false,
    "priority": 50
  },
  {
    "geonameId": 1456980,
    "name": "Alagay",
    "latitude": 34.10795,
    "longitude": 68.81133,
    "category": "Mountain",
    "subcategory": "Mountain",
    "featured": false,
    "priority": 50
  },
  {
    "geonameId": 1447380,
    "name": "Ālagay",
    "latitude": 33.77655,
    "longitude": 68.18437,
    "category": "Mountain",
    "subcategory": "Mountain",
    "featured": false,
    "priority": 50
  },
  {
    "geonameId": 1480422,
    "name": "Ālah",
    "latitude": 32.24648,
    "longitude": 66.46771,
    "category": "Mountain",
    "subcategory": "Mountain",
    "featured": false,
    "priority": 50
  },
  {
    "geonameId": 1462058,
    "name": "Alah Kōh",
    "latitude": 34.11081,
    "longitude": 67.40494,
    "category": "Mountain",
    "subcategory": "Mountain",
    "featured": false,
    "priority": 50
  },
  {
    "geonameId": 1149107,
    "name": "Alah Sāy",
    "latitude": 34.8965,
    "longitude": 69.72049,
    "category": "City",
    "subcategory": "County Seat",
    "featured": false,
    "priority": 50
  },
  {
    "geonameId": 1149100,
    "name": "Alakamar",
    "latitude": 35.70495,
    "longitude": 68.944,
    "category": "Mountain",
    "subcategory": "Mountain",
    "featured": false,
    "priority": 50
  },
  {
    "geonameId": 1449017,
    "name": "Alākū",
    "latitude": 33.96349,
    "longitude": 66.44714,
    "category": "Mountain",
    "subcategory": "Mountain",
    "featured": false,
    "priority": 50
  },
  {
    "geonameId": 1149055,
    "name": "Alānzay Ghar",
    "latitude": 35.06476,
    "longitude": 70.77178,
    "category": "Mountain",
    "subcategory": "Mountain",
    "featured": false,
    "priority": 50
  },
  {
    "geonameId": 1423931,
    "name": "Alapan Ghar",
    "latitude": 35.33432,
    "longitude": 71.01886,
    "category": "Mountain",
    "subcategory": "Mountain",
    "featured": false,
    "priority": 50
  },
  {
    "geonameId": 8594029,
    "name": "Alāpanḏak",
    "latitude": 32.46215,
    "longitude": 66.79298,
    "category": "Mountain",
    "subcategory": "Mountain Pass",
    "featured": false,
    "priority": 50
  },
  {
    "geonameId": 1423182,
    "name": "Alasang Sar",
    "latitude": 35.20759,
    "longitude": 69.02052,
    "category": "Mountain",
    "subcategory": "Peak",
    "featured": false,
    "priority": 50
  },
  {
    "geonameId": 1450625,
    "name": "Ālay",
    "latitude": 33.12004,
    "longitude": 67.49754,
    "category": "Mountain",
    "subcategory": "Mountain",
    "featured": false,
    "priority": 50
  },
  {
    "geonameId": 7571202,
    "name": "Alīān Sar",
    "latitude": 34.6399,
    "longitude": 69.43031,
    "category": "Mountain",
    "subcategory": "Peak",
    "featured": false,
    "priority": 50
  },
  {
    "geonameId": 7571200,
    "name": "Alīān Tsūkah",
    "latitude": 34.64871,
    "longitude": 69.445,
    "category": "Mountain",
    "subcategory": "Peak",
    "featured": false,
    "priority": 50
  },
  {
    "geonameId": 1423927,
    "name": "Aligal Ghar",
    "latitude": 35.36885,
    "longitude": 71.18472,
    "category": "Mountain",
    "subcategory": "Mountain",
    "featured": false,
    "priority": 50
  },
  {
    "geonameId": 1443950,
    "name": "Alikuwak",
    "latitude": 32.87656,
    "longitude": 63.87048,
    "category": "Mountain",
    "subcategory": "Mountain",
    "featured": false,
    "priority": 50
  },
  {
    "geonameId": 1149006,
    "name": "Alinjak",
    "latitude": 34.89021,
    "longitude": 65.42214,
    "category": "Mountain",
    "subcategory": "Mountain",
    "featured": false,
    "priority": 50
  },
  {
    "geonameId": 1148843,
    "name": "Ālinjistūn",
    "latitude": 34.72662,
    "longitude": 65.1631,
    "category": "Mountain",
    "subcategory": "Mountain",
    "featured": false,
    "priority": 50
  },
  {
    "geonameId": 1456799,
    "name": "Alkhatū",
    "latitude": 34.97934,
    "longitude": 66.17747,
    "category": "Mountain",
    "subcategory": "Mountain",
    "featured": false,
    "priority": 50
  },
  {
    "geonameId": 1455645,
    "name": "Allāh Bēg",
    "latitude": 34.66594,
    "longitude": 68.1385,
    "category": "Mountain",
    "subcategory": "Mountain",
    "featured": false,
    "priority": 50
  },
  {
    "geonameId": 1149095,
    "name": "Allāh Kōh",
    "latitude": 33.6942,
    "longitude": 68.315,
    "category": "Mountain",
    "subcategory": "Mountain",
    "featured": false,
    "priority": 50
  },
  {
    "geonameId": 1456968,
    "name": "Allāh Sang Ghar",
    "latitude": 34.23795,
    "longitude": 68.76401,
    "category": "Mountain",
    "subcategory": "Mountain",
    "featured": false,
    "priority": 50
  },
  {
    "geonameId": 1422596,
    "name": "Allāh Shukūr",
    "latitude": 35.73778,
    "longitude": 67.62757,
    "category": "Mountain",
    "subcategory": "Mountain",
    "featured": false,
    "priority": 50
  },
  {
    "geonameId": 1148857,
    "name": "Almāsay Ghar",
    "latitude": 33.33065,
    "longitude": 69.46838,
    "category": "Mountain",
    "subcategory": "Mountain",
    "featured": false,
    "priority": 50
  },
  {
    "geonameId": 1410044,
    "name": "Almāszadah",
    "latitude": 36.15341,
    "longitude": 69.33075,
    "category": "Mountain",
    "subcategory": "Mountain",
    "featured": false,
    "priority": 50
  },
  {
    "geonameId": 1424929,
    "name": "Almēsh Tūrē",
    "latitude": 32.01901,
    "longitude": 65.83803,
    "category": "Mountain",
    "subcategory": "Mountain",
    "featured": false,
    "priority": 50
  },
  {
    "geonameId": 7511405,
    "name": "Almurtak",
    "latitude": 36.02608,
    "longitude": 67.01437,
    "category": "Mountain",
    "subcategory": "Mountain",
    "featured": false,
    "priority": 50
  },
  {
    "geonameId": 1429035,
    "name": "Ālōr Ghar",
    "latitude": 35.12262,
    "longitude": 70.85872,
    "category": "Mountain",
    "subcategory": "Mountain",
    "featured": false,
    "priority": 50
  },
  {
    "geonameId": 1462483,
    "name": "Altar Ghanagak",
    "latitude": 34.3433,
    "longitude": 67.18793,
    "category": "Mountain",
    "subcategory": "Mountain",
    "featured": false,
    "priority": 50
  },
  {
    "geonameId": 1455608,
    "name": "Altar Ghūzār",
    "latitude": 34.55538,
    "longitude": 68.37008,
    "category": "Mountain",
    "subcategory": "Mountain",
    "featured": false,
    "priority": 50
  },
  {
    "geonameId": 1460916,
    "name": "Alūnjī",
    "latitude": 34.22426,
    "longitude": 64.03356,
    "category": "Mountain",
    "subcategory": "Mountain",
    "featured": false,
    "priority": 50
  },
  {
    "geonameId": 1148801,
    "name": "Amān Ghar",
    "latitude": 32.1938,
    "longitude": 65.18006,
    "category": "Mountain",
    "subcategory": "Mountain",
    "featured": false,
    "priority": 50
  },
  {
    "geonameId": 1471940,
    "name": "Amān Kōṯ",
    "latitude": 34.2436,
    "longitude": 69.61136,
    "category": "Mountain",
    "subcategory": "Peak",
    "featured": false,
    "priority": 50
  },
  {
    "geonameId": 1148795,
    "name": "Amān Kōṯ Ghar",
    "latitude": 34.1658,
    "longitude": 70.94664,
    "category": "Mountain",
    "subcategory": "Mountain",
    "featured": false,
    "priority": 50
  },
  {
    "geonameId": 1469492,
    "name": "Amānī Ghar",
    "latitude": 34.46535,
    "longitude": 70.79255,
    "category": "Mountain",
    "subcategory": "Mountain",
    "featured": false,
    "priority": 50
  },
  {
    "geonameId": 1148792,
    "name": "Amānzī",
    "latitude": 30.21144,
    "longitude": 66.04765,
    "category": "City",
    "subcategory": "County Seat",
    "featured": false,
    "priority": 50
  },
  {
    "geonameId": 1429019,
    "name": "Amardah Ghar",
    "latitude": 35.20615,
    "longitude": 70.99895,
    "category": "Mountain",
    "subcategory": "Mountain",
    "featured": false,
    "priority": 50
  },
  {
    "geonameId": 1477493,
    "name": "Amatak Ghar",
    "latitude": 33.19177,
    "longitude": 65.44465,
    "category": "Mountain",
    "subcategory": "Mountain",
    "featured": false,
    "priority": 50
  },
  {
    "geonameId": 1467149,
    "name": "Ambadēwāl",
    "latitude": 36.42402,
    "longitude": 70.96273,
    "category": "Mountain",
    "subcategory": "Mountain",
    "featured": false,
    "priority": 50
  },
  {
    "geonameId": 1476278,
    "name": "Ambālē Ghar",
    "latitude": 34.80276,
    "longitude": 71.0377,
    "category": "Mountain",
    "subcategory": "Mountain",
    "featured": false,
    "priority": 50
  },
  {
    "geonameId": 1470067,
    "name": "Ambār Kōh",
    "latitude": 35.89939,
    "longitude": 68.89328,
    "category": "Mountain",
    "subcategory": "Mountain",
    "featured": false,
    "priority": 50
  },
  {
    "geonameId": 1447812,
    "name": "Ambargay",
    "latitude": 32.37358,
    "longitude": 66.87084,
    "category": "Mountain",
    "subcategory": "Mountain",
    "featured": false,
    "priority": 50
  },
  {
    "geonameId": 1480994,
    "name": "Ambārgay",
    "latitude": 32.19653,
    "longitude": 68.01463,
    "category": "Mountain",
    "subcategory": "Mountain",
    "featured": false,
    "priority": 50
  },
  {
    "geonameId": 1480915,
    "name": "Ambārgay Ghar",
    "latitude": 32.02384,
    "longitude": 68.21682,
    "category": "Mountain",
    "subcategory": "Mountain",
    "featured": false,
    "priority": 50
  },
  {
    "geonameId": 1424927,
    "name": "Ambārgī Tūrah",
    "latitude": 32.03522,
    "longitude": 65.87413,
    "category": "Mountain",
    "subcategory": "Mountain",
    "featured": false,
    "priority": 50
  },
  {
    "geonameId": 1474000,
    "name": "Ambarīnā Ghar",
    "latitude": 34.69758,
    "longitude": 70.59476,
    "category": "Mountain",
    "subcategory": "Mountain",
    "featured": false,
    "priority": 50
  },
  {
    "geonameId": 1427473,
    "name": "Ambōrt",
    "latitude": 35.70873,
    "longitude": 67.39353,
    "category": "Mountain",
    "subcategory": "Mountain",
    "featured": false,
    "priority": 50
  },
  {
    "geonameId": 11959480,
    "name": "Amir Koh",
    "latitude": 29.52204,
    "longitude": 64.26773,
    "category": "Mountain",
    "subcategory": "Mountain",
    "featured": false,
    "priority": 50
  },
  {
    "geonameId": 1148748,
    "name": "Amīr Parwī Şāḩib Ghar",
    "latitude": 31.78641,
    "longitude": 63.33595,
    "category": "Mountain",
    "subcategory": "Mountain",
    "featured": false,
    "priority": 50
  },
  {
    "geonameId": 1471460,
    "name": "Amrōtak",
    "latitude": 34.45455,
    "longitude": 65.00887,
    "category": "Mountain",
    "subcategory": "Mountain Pass",
    "featured": false,
    "priority": 50
  },
  {
    "geonameId": 1424053,
    "name": "Amrudak Ghar",
    "latitude": 35.22601,
    "longitude": 71.01499,
    "category": "Mountain",
    "subcategory": "Mountain",
    "featured": false,
    "priority": 50
  },
  {
    "geonameId": 1476384,
    "name": "Anā Ōbō Sar",
    "latitude": 34.36691,
    "longitude": 71.03302,
    "category": "Mountain",
    "subcategory": "Peak",
    "featured": false,
    "priority": 50
  },
  {
    "geonameId": 1148709,
    "name": "Anār Darah",
    "latitude": 32.7587,
    "longitude": 61.65397,
    "category": "City",
    "subcategory": "County Seat",
    "featured": false,
    "priority": 50
  },
  {
    "geonameId": 1447901,
    "name": "Anār Ghar",
    "latitude": 32.04785,
    "longitude": 66.60012,
    "category": "Mountain",
    "subcategory": "Mountain",
    "featured": false,
    "priority": 50
  },
  {
    "geonameId": 1437001,
    "name": "Anārak",
    "latitude": 31.98581,
    "longitude": 66.46767,
    "category": "Mountain",
    "subcategory": "Mountain",
    "featured": false,
    "priority": 50
  },
  {
    "geonameId": 1444148,
    "name": "Anārak Ghar",
    "latitude": 32.70602,
    "longitude": 65.2556,
    "category": "Mountain",
    "subcategory": "Mountain",
    "featured": false,
    "priority": 50
  },
  {
    "geonameId": 1424813,
    "name": "Anārak Sar",
    "latitude": 32.31436,
    "longitude": 65.99527,
    "category": "Mountain",
    "subcategory": "Peak",
    "featured": false,
    "priority": 50
  },
  {
    "geonameId": 1477511,
    "name": "Anārakē Pus̲h̲tah",
    "latitude": 33.0101,
    "longitude": 65.45031,
    "category": "Mountain",
    "subcategory": "Mountain",
    "featured": false,
    "priority": 50
  },
  {
    "geonameId": 1429009,
    "name": "Anāsh Ghar",
    "latitude": 35.26156,
    "longitude": 70.98046,
    "category": "Mountain",
    "subcategory": "Mountain",
    "featured": false,
    "priority": 50
  },
  {
    "geonameId": 1424019,
    "name": "Anāṯay Sar",
    "latitude": 35.11577,
    "longitude": 71.42868,
    "category": "Mountain",
    "subcategory": "Peak",
    "featured": false,
    "priority": 50
  },
  {
    "geonameId": 1423960,
    "name": "Anchagal Ghar",
    "latitude": 35.2433,
    "longitude": 71.46951,
    "category": "Mountain",
    "subcategory": "Mountain",
    "featured": false,
    "priority": 50
  },
  {
    "geonameId": 1464598,
    "name": "Andah Chowl",
    "latitude": 36.59436,
    "longitude": 67.30489,
    "category": "Mountain",
    "subcategory": "Mountain",
    "featured": false,
    "priority": 50
  },
  {
    "geonameId": 1477419,
    "name": "Andaṟ Darah",
    "latitude": 32.88692,
    "longitude": 64.31878,
    "category": "Mountain",
    "subcategory": "Mountain",
    "featured": false,
    "priority": 50
  },
  {
    "geonameId": 1433829,
    "name": "Anday Sar",
    "latitude": 32.45822,
    "longitude": 68.70965,
    "category": "Mountain",
    "subcategory": "Mountain",
    "featured": false,
    "priority": 50
  },
  {
    "geonameId": 1148658,
    "name": "Andkhoy",
    "latitude": 36.95293,
    "longitude": 65.12376,
    "category": "City",
    "subcategory": "County Seat",
    "featured": false,
    "priority": 50
  },
  {
    "geonameId": 1148652,
    "name": "Angārz̄am",
    "latitude": 35.3713,
    "longitude": 69.74289,
    "category": "Mountain",
    "subcategory": "Mountain",
    "featured": false,
    "priority": 50
  },
  {
    "geonameId": 1474182,
    "name": "Angūr Bāgh",
    "latitude": 34.83951,
    "longitude": 70.93766,
    "category": "Mountain",
    "subcategory": "Mountain",
    "featured": false,
    "priority": 50
  },
  {
    "geonameId": 1473044,
    "name": "Angūr Tāk Ghar",
    "latitude": 34.6018,
    "longitude": 69.81342,
    "category": "Mountain",
    "subcategory": "Mountain",
    "featured": false,
    "priority": 50
  },
  {
    "geonameId": 1428073,
    "name": "Angūrak Ghar",
    "latitude": 32.52727,
    "longitude": 66.10089,
    "category": "Mountain",
    "subcategory": "Mountain",
    "featured": false,
    "priority": 50
  },
  {
    "geonameId": 1475392,
    "name": "Angut",
    "latitude": 36.21014,
    "longitude": 66.0268,
    "category": "Mountain",
    "subcategory": "Mountain",
    "featured": false,
    "priority": 50
  },
  {
    "geonameId": 1472768,
    "name": "Anī Zhawêr",
    "latitude": 34.72399,
    "longitude": 69.8717,
    "category": "Mountain",
    "subcategory": "Mountain",
    "featured": false,
    "priority": 50
  },
  {
    "geonameId": 1461258,
    "name": "Aningī Ghar",
    "latitude": 32.37096,
    "longitude": 63.49239,
    "category": "Mountain",
    "subcategory": "Mountain",
    "featured": false,
    "priority": 50
  },
  {
    "geonameId": 1148627,
    "name": "Anjijagh",
    "latitude": 33.27924,
    "longitude": 66.47932,
    "category": "Mountain",
    "subcategory": "Mountain",
    "featured": false,
    "priority": 50
  },
  {
    "geonameId": 7582701,
    "name": "Anjīr Tālah",
    "latitude": 34.533,
    "longitude": 69.69807,
    "category": "Mountain",
    "subcategory": "Mountain",
    "featured": false,
    "priority": 50
  },
  {
    "geonameId": 1148619,
    "name": "Anjīrak Ghar",
    "latitude": 29.68585,
    "longitude": 63.43046,
    "category": "Mountain",
    "subcategory": "Mountain",
    "featured": false,
    "priority": 50
  },
  {
    "geonameId": 1426957,
    "name": "Anjīrak-e Kōh-e Now",
    "latitude": 35.84291,
    "longitude": 66.06508,
    "category": "Mountain",
    "subcategory": "Mountain",
    "featured": false,
    "priority": 50
  },
  {
    "geonameId": 1148616,
    "name": "Anjīrān",
    "latitude": 32.22865,
    "longitude": 62.29129,
    "category": "Mountain",
    "subcategory": "Mountain",
    "featured": false,
    "priority": 50
  },
  {
    "geonameId": 1472875,
    "name": "Anjīrān Ghar",
    "latitude": 34.69432,
    "longitude": 69.74331,
    "category": "Mountain",
    "subcategory": "Mountain",
    "featured": false,
    "priority": 50
  },
  {
    "geonameId": 1424612,
    "name": "Anjīristān",
    "latitude": 35.28309,
    "longitude": 64.62506,
    "category": "Mountain",
    "subcategory": "Mountain",
    "featured": false,
    "priority": 50
  },
  {
    "geonameId": 1148599,
    "name": "Anoshah Pass",
    "latitude": 36.8147,
    "longitude": 72.55072,
    "category": "Mountain",
    "subcategory": "Mountain Pass",
    "featured": false,
    "priority": 50
  },
  {
    "geonameId": 1474091,
    "name": "Antar Manā",
    "latitude": 34.8889,
    "longitude": 70.85023,
    "category": "Mountain",
    "subcategory": "Mountain",
    "featured": false,
    "priority": 50
  },
  {
    "geonameId": 1435588,
    "name": "Aparān Ghar",
    "latitude": 32.91352,
    "longitude": 67.77261,
    "category": "Mountain",
    "subcategory": "Mountain",
    "featured": false,
    "priority": 50
  },
  {
    "geonameId": 1148586,
    "name": "Apō",
    "latitude": 31.98585,
    "longitude": 66.42067,
    "category": "Mountain",
    "subcategory": "Mountain",
    "featured": false,
    "priority": 50
  },
  {
    "geonameId": 1435582,
    "name": "Aprān Ghar",
    "latitude": 32.93651,
    "longitude": 67.73437,
    "category": "Mountain",
    "subcategory": "Mountain",
    "featured": false,
    "priority": 50
  },
  {
    "geonameId": 1427969,
    "name": "Apu Band",
    "latitude": 32.01056,
    "longitude": 66.39861,
    "category": "Mountain",
    "subcategory": "Mountain",
    "featured": false,
    "priority": 50
  },
  {
    "geonameId": 1148536,
    "name": "Āq Kōtal",
    "latitude": 36.27947,
    "longitude": 67.65918,
    "category": "Mountain",
    "subcategory": "Mountain Pass",
    "featured": false,
    "priority": 50
  },
  {
    "geonameId": 1120501,
    "name": "Āq Kupruk",
    "latitude": 36.08352,
    "longitude": 66.84029,
    "category": "City",
    "subcategory": "County Seat",
    "featured": false,
    "priority": 50
  },
  {
    "geonameId": 1148560,
    "name": "Aqcha",
    "latitude": 36.905,
    "longitude": 66.18341,
    "category": "City",
    "subcategory": "County Seat",
    "featured": false,
    "priority": 50
  },
  {
    "geonameId": 1439358,
    "name": "Aragī",
    "latitude": 29.68308,
    "longitude": 64.56278,
    "category": "Mountain",
    "subcategory": "Mountain",
    "featured": false,
    "priority": 50
  },
  {
    "geonameId": 1428363,
    "name": "Arah Kōh",
    "latitude": 32.2595,
    "longitude": 62.25729,
    "category": "Mountain",
    "subcategory": "Mountain",
    "featured": false,
    "priority": 50
  },
  {
    "geonameId": 7496587,
    "name": "Arah Sang-e Saybdālak",
    "latitude": 34.27065,
    "longitude": 63.83117,
    "category": "Mountain",
    "subcategory": "Mountain",
    "featured": false,
    "priority": 50
  },
  {
    "geonameId": 1452145,
    "name": "Arakashō Sar",
    "latitude": 34.91331,
    "longitude": 71.34895,
    "category": "Mountain",
    "subcategory": "Peak",
    "featured": false,
    "priority": 50
  },
  {
    "geonameId": 1443131,
    "name": "Arākū Ghar",
    "latitude": 32.51877,
    "longitude": 67.07928,
    "category": "Mountain",
    "subcategory": "Mountain",
    "featured": false,
    "priority": 50
  },
  {
    "geonameId": 1424055,
    "name": "Aranas Ghar",
    "latitude": 35.14032,
    "longitude": 71.00469,
    "category": "Mountain",
    "subcategory": "Mountain",
    "featured": false,
    "priority": 50
  },
  {
    "geonameId": 1449822,
    "name": "Arbād Ghar",
    "latitude": 32.71648,
    "longitude": 65.66408,
    "category": "Mountain",
    "subcategory": "Mountain",
    "featured": false,
    "priority": 50
  },
  {
    "geonameId": 1464817,
    "name": "Arbishāh",
    "latitude": 35.6806,
    "longitude": 69.42955,
    "category": "Mountain",
    "subcategory": "Mountain",
    "featured": false,
    "priority": 50
  },
  {
    "geonameId": 1148445,
    "name": "Arbū Ghar",
    "latitude": 29.83382,
    "longitude": 63.9678,
    "category": "Mountain",
    "subcategory": "Mountain",
    "featured": false,
    "priority": 50
  },
  {
    "geonameId": 1442470,
    "name": "Archagak",
    "latitude": 33.18558,
    "longitude": 66.84567,
    "category": "Mountain",
    "subcategory": "Mountain",
    "featured": false,
    "priority": 50
  },
  {
    "geonameId": 1447607,
    "name": "Archah",
    "latitude": 33.32343,
    "longitude": 65.85475,
    "category": "Mountain",
    "subcategory": "Mountain",
    "featured": false,
    "priority": 50
  },
  {
    "geonameId": 1464573,
    "name": "Archah Damāgh",
    "latitude": 36.53082,
    "longitude": 67.33245,
    "category": "Mountain",
    "subcategory": "Mountain Pass",
    "featured": false,
    "priority": 50
  },
  {
    "geonameId": 1427819,
    "name": "Archah Ghar",
    "latitude": 32.43124,
    "longitude": 66.17122,
    "category": "Mountain",
    "subcategory": "Mountain",
    "featured": false,
    "priority": 50
  },
  {
    "geonameId": 1148433,
    "name": "Archah Kamar",
    "latitude": 35.42129,
    "longitude": 67.96462,
    "category": "Mountain",
    "subcategory": "Mountain",
    "featured": false,
    "priority": 50
  },
  {
    "geonameId": 1148431,
    "name": "Archah Kōtal",
    "latitude": 36.30286,
    "longitude": 67.78222,
    "category": "Mountain",
    "subcategory": "Mountain Pass",
    "featured": false,
    "priority": 50
  },
  {
    "geonameId": 1470736,
    "name": "Archah Yak",
    "latitude": 34.91155,
    "longitude": 64.51103,
    "category": "Mountain",
    "subcategory": "Mountain",
    "featured": false,
    "priority": 50
  },
  {
    "geonameId": 1469260,
    "name": "Archah-ye Shaykhak",
    "latitude": 35.6262,
    "longitude": 68.49295,
    "category": "Mountain",
    "subcategory": "Mountain",
    "featured": false,
    "priority": 50
  },
  {
    "geonameId": 1428588,
    "name": "Archahgak",
    "latitude": 35.20748,
    "longitude": 66.10021,
    "category": "Mountain",
    "subcategory": "Mountain",
    "featured": false,
    "priority": 50
  },
  {
    "geonameId": 1477368,
    "name": "Archē Pushtah",
    "latitude": 33.02899,
    "longitude": 65.28209,
    "category": "Mountain",
    "subcategory": "Mountain",
    "featured": false,
    "priority": 50
  },
  {
    "geonameId": 1148422,
    "name": "Archī Kōtal",
    "latitude": 35.65405,
    "longitude": 65.34605,
    "category": "Mountain",
    "subcategory": "Mountain Pass",
    "featured": false,
    "priority": 50
  },
  {
    "geonameId": 1457007,
    "name": "Archō Sar",
    "latitude": 34.24882,
    "longitude": 68.70167,
    "category": "Mountain",
    "subcategory": "Mountain",
    "featured": false,
    "priority": 50
  },
  {
    "geonameId": 1148410,
    "name": "Arg",
    "latitude": 33.12259,
    "longitude": 65.17222,
    "category": "Mountain",
    "subcategory": "Mountain",
    "featured": false,
    "priority": 50
  },
  {
    "geonameId": 1442891,
    "name": "Arg-e Rāẕī",
    "latitude": 33.49794,
    "longitude": 67.44142,
    "category": "Mountain",
    "subcategory": "Mountain",
    "featured": false,
    "priority": 50
  },
  {
    "geonameId": 1450356,
    "name": "Arg-e Rāẕī Kūh-e",
    "latitude": 33.49778,
    "longitude": 67.44167,
    "category": "Mountain",
    "subcategory": "Mountain",
    "featured": false,
    "priority": 50
  },
  {
    "geonameId": 1148399,
    "name": "Arghandāb Band",
    "latitude": 31.87845,
    "longitude": 65.91799,
    "category": "Lake",
    "subcategory": "Reservoir",
    "featured": false,
    "priority": 50
  },
  {
    "geonameId": 1447686,
    "name": "Arghōr Ghar",
    "latitude": 33.0284,
    "longitude": 65.86824,
    "category": "Mountain",
    "subcategory": "Mountain",
    "featured": false,
    "priority": 50
  },
  {
    "geonameId": 1451816,
    "name": "Arī",
    "latitude": 34.02323,
    "longitude": 70.64629,
    "category": "Mountain",
    "subcategory": "Mountain",
    "featured": false,
    "priority": 50
  },
  {
    "geonameId": 1148417,
    "name": "Aṟih Sar",
    "latitude": 35.28775,
    "longitude": 71.41746,
    "category": "Mountain",
    "subcategory": "Mountain",
    "featured": false,
    "priority": 50
  },
  {
    "geonameId": 1474014,
    "name": "Arīman Ghar",
    "latitude": 34.70908,
    "longitude": 70.67709,
    "category": "Mountain",
    "subcategory": "Mountain",
    "featured": false,
    "priority": 50
  },
  {
    "geonameId": 1423952,
    "name": "Aringshāh Sar",
    "latitude": 35.27464,
    "longitude": 71.35075,
    "category": "Mountain",
    "subcategory": "Mountain",
    "featured": false,
    "priority": 50
  },
  {
    "geonameId": 1148377,
    "name": "Arjamak",
    "latitude": 36.61861,
    "longitude": 67.97639,
    "category": "Mountain",
    "subcategory": "Mountain",
    "featured": false,
    "priority": 50
  },
  {
    "geonameId": 1435127,
    "name": "Armah",
    "latitude": 33.16096,
    "longitude": 68.98895,
    "category": "Mountain",
    "subcategory": "Mountain",
    "featured": false,
    "priority": 50
  },
  {
    "geonameId": 1148362,
    "name": "Armānābād",
    "latitude": 33.96558,
    "longitude": 65.01728,
    "category": "Mountain",
    "subcategory": "Mountain",
    "featured": false,
    "priority": 50
  },
  {
    "geonameId": 1477260,
    "name": "Arnī Ghar",
    "latitude": 33.20029,
    "longitude": 65.09105,
    "category": "Mountain",
    "subcategory": "Mountain",
    "featured": false,
    "priority": 50
  },
  {
    "geonameId": 1451830,
    "name": "Arō Sar",
    "latitude": 34.96653,
    "longitude": 71.21033,
    "category": "Mountain",
    "subcategory": "Mountain",
    "featured": false,
    "priority": 50
  },
  {
    "geonameId": 1148351,
    "name": "Arpatū Kowtal",
    "latitude": 36.05417,
    "longitude": 65.18806,
    "category": "Mountain",
    "subcategory": "Mountain Pass",
    "featured": false,
    "priority": 50
  },
  {
    "geonameId": 1148106,
    "name": "Ārt Khwājah",
    "latitude": 37.08571,
    "longitude": 69.47958,
    "category": "City",
    "subcategory": "City",
    "featured": false,
    "priority": 50
  },
  {
    "geonameId": 1450021,
    "name": "Artgwālī",
    "latitude": 32.53052,
    "longitude": 66.91785,
    "category": "Mountain",
    "subcategory": "Mountain",
    "featured": false,
    "priority": 50
  },
  {
    "geonameId": 1479503,
    "name": "Arzī",
    "latitude": 36.62106,
    "longitude": 67.43069,
    "category": "Mountain",
    "subcategory": "Mountain",
    "featured": false,
    "priority": 50
  },
  {
    "geonameId": 1442525,
    "name": "Ās Pus̲h̲tah",
    "latitude": 33.12334,
    "longitude": 66.77683,
    "category": "Mountain",
    "subcategory": "Mountain",
    "featured": false,
    "priority": 50
  },
  {
    "geonameId": 7032380,
    "name": "Ās Tangay",
    "latitude": 30.26579,
    "longitude": 66.15916,
    "category": "Mountain",
    "subcategory": "Mountain Pass",
    "featured": false,
    "priority": 50
  },
  {
    "geonameId": 1148311,
    "name": "Asadābād",
    "latitude": 34.87311,
    "longitude": 71.14697,
    "category": "City",
    "subcategory": "Regional Capital",
    "featured": false,
    "priority": 50
  },
  {
    "geonameId": 8355775,
    "name": "Āsāk",
    "latitude": 31.54244,
    "longitude": 61.78816,
    "category": "Island",
    "subcategory": "Island",
    "featured": false,
    "priority": 50
  },
  {
    "geonameId": 6310884,
    "name": "Asaṉay Ghar",
    "latitude": 30.28171,
    "longitude": 66.32565,
    "category": "Mountain",
    "subcategory": "Mountain",
    "featured": false,
    "priority": 50
  },
  {
    "geonameId": 1434675,
    "name": "Asaṟ Ghunḏêy",
    "latitude": 33.39377,
    "longitude": 69.82439,
    "category": "Mountain",
    "subcategory": "Mountain",
    "featured": false,
    "priority": 50
  },
  {
    "geonameId": 1148299,
    "name": "Āsār Kōh",
    "latitude": 32.46299,
    "longitude": 63.03035,
    "category": "Mountain",
    "subcategory": "Mountain",
    "featured": false,
    "priority": 50
  },
  {
    "geonameId": 1472262,
    "name": "As̄ār-e Kōlāw",
    "latitude": 34.14927,
    "longitude": 63.04723,
    "category": "Mountain",
    "subcategory": "Peak",
    "featured": false,
    "priority": 50
  },
  {
    "geonameId": 1453211,
    "name": "Aşḩāb Kanḏow",
    "latitude": 34.63222,
    "longitude": 70.07,
    "category": "Mountain",
    "subcategory": "Mountain Pass",
    "featured": false,
    "priority": 50
  },
  {
    "geonameId": 1424065,
    "name": "Ashadal Ghar",
    "latitude": 35.09346,
    "longitude": 71.11627,
    "category": "Mountain",
    "subcategory": "Mountain",
    "featured": false,
    "priority": 50
  },
  {
    "geonameId": 1424054,
    "name": "Ashīnlah Ghar",
    "latitude": 35.1808,
    "longitude": 71.0246,
    "category": "Mountain",
    "subcategory": "Mountain",
    "featured": false,
    "priority": 50
  },
  {
    "geonameId": 1148268,
    "name": "Ashkāsham",
    "latitude": 36.68333,
    "longitude": 71.53333,
    "category": "City",
    "subcategory": "City",
    "featured": false,
    "priority": 50
  },
  {
    "geonameId": 1148267,
    "name": "Ashkhār Ghar",
    "latitude": 34.21946,
    "longitude": 69.58583,
    "category": "Mountain",
    "subcategory": "Mountain",
    "featured": false,
    "priority": 50
  },
  {
    "geonameId": 1148248,
    "name": "Āshpazān Ghar",
    "latitude": 32.95298,
    "longitude": 65.28725,
    "category": "Mountain",
    "subcategory": "Mountain",
    "featured": false,
    "priority": 50
  },
  {
    "geonameId": 1423921,
    "name": "Ashpī Ghar",
    "latitude": 35.33018,
    "longitude": 71.39787,
    "category": "Mountain",
    "subcategory": "Mountain",
    "featured": false,
    "priority": 50
  },
  {
    "geonameId": 1447777,
    "name": "Āshūzō Band",
    "latitude": 32.4547,
    "longitude": 66.94971,
    "category": "Mountain",
    "subcategory": "Mountain Pass",
    "featured": false,
    "priority": 50
  },
  {
    "geonameId": 1471936,
    "name": "Asifirān",
    "latitude": 34.30244,
    "longitude": 69.56458,
    "category": "Mountain",
    "subcategory": "Mountain",
    "featured": false,
    "priority": 50
  },
  {
    "geonameId": 1148220,
    "name": "Āskān",
    "latitude": 29.55111,
    "longitude": 64.37389,
    "category": "Mountain",
    "subcategory": "Mountain",
    "featured": false,
    "priority": 50
  },
  {
    "geonameId": 1148210,
    "name": "Āsmān Kōtal",
    "latitude": 36.54967,
    "longitude": 68.04777,
    "category": "Mountain",
    "subcategory": "Mountain Pass",
    "featured": false,
    "priority": 50
  },
  {
    "geonameId": 1433979,
    "name": "Āsmān Pêngay",
    "latitude": 32.74649,
    "longitude": 69.38515,
    "category": "Mountain",
    "subcategory": "Mountain",
    "featured": false,
    "priority": 50
  },
  {
    "geonameId": 1148205,
    "name": "Āsmār",
    "latitude": 35.03333,
    "longitude": 71.35809,
    "category": "City",
    "subcategory": "County Seat",
    "featured": false,
    "priority": 50
  },
  {
    "geonameId": 1148230,
    "name": "Asōr Ghar",
    "latitude": 35.04545,
    "longitude": 71.02507,
    "category": "Mountain",
    "subcategory": "Mountain",
    "featured": false,
    "priority": 50
  },
  {
    "geonameId": 1437839,
    "name": "Asp Maīdān",
    "latitude": 33.85732,
    "longitude": 66.51704,
    "category": "Mountain",
    "subcategory": "Mountain",
    "featured": false,
    "priority": 50
  },
  {
    "geonameId": 1148186,
    "name": "Asp Rāh",
    "latitude": 35.19248,
    "longitude": 65.26063,
    "category": "Mountain",
    "subcategory": "Mountain",
    "featured": false,
    "priority": 50
  },
  {
    "geonameId": 1148191,
    "name": "Asp-e Kōr",
    "latitude": 33.41652,
    "longitude": 64.51523,
    "category": "Mountain",
    "subcategory": "Mountain",
    "featured": false,
    "priority": 50
  },
  {
    "geonameId": 1148196,
    "name": "Āsparah Ghar",
    "latitude": 32.43025,
    "longitude": 66.09614,
    "category": "Mountain",
    "subcategory": "Mountain",
    "featured": false,
    "priority": 50
  },
  {
    "geonameId": 1425592,
    "name": "Asprāh",
    "latitude": 35.16145,
    "longitude": 65.02538,
    "category": "Mountain",
    "subcategory": "Mountain",
    "featured": false,
    "priority": 50
  },
  {
    "geonameId": 1428966,
    "name": "Āsratāl",
    "latitude": 35.32358,
    "longitude": 70.7649,
    "category": "Mountain",
    "subcategory": "Mountain",
    "featured": false,
    "priority": 50
  },
  {
    "geonameId": 1109237,
    "name": "Astaghai Narai",
    "latitude": 32.91283,
    "longitude": 69.5089,
    "category": "Mountain",
    "subcategory": "Mountain Pass",
    "featured": false,
    "priority": 50
  },
  {
    "geonameId": 11961131,
    "name": "Astujan An",
    "latitude": 36.0966,
    "longitude": 71.23483,
    "category": "Mountain",
    "subcategory": "Mountain Pass",
    "featured": false,
    "priority": 50
  },
  {
    "geonameId": 1423848,
    "name": "Atahwāl",
    "latitude": 35.02958,
    "longitude": 70.3311,
    "category": "Mountain",
    "subcategory": "Mountain",
    "featured": false,
    "priority": 50
  },
  {
    "geonameId": 1435607,
    "name": "Aṯak Ghaṯē",
    "latitude": 32.99366,
    "longitude": 67.98443,
    "category": "Mountain",
    "subcategory": "Mountain",
    "featured": false,
    "priority": 50
  },
  {
    "geonameId": 1429525,
    "name": "Atāl",
    "latitude": 35.28645,
    "longitude": 69.82649,
    "category": "Mountain",
    "subcategory": "Peak",
    "featured": false,
    "priority": 50
  },
  {
    "geonameId": 1468744,
    "name": "Aṯal Ghar",
    "latitude": 34.43733,
    "longitude": 69.32119,
    "category": "Mountain",
    "subcategory": "Mountain",
    "featured": false,
    "priority": 50
  },
  {
    "geonameId": 1429045,
    "name": "Ataparām",
    "latitude": 35.09215,
    "longitude": 70.98975,
    "category": "Mountain",
    "subcategory": "Mountain",
    "featured": false,
    "priority": 50
  },
  {
    "geonameId": 1448218,
    "name": "Ātish Sangak",
    "latitude": 33.97586,
    "longitude": 65.22325,
    "category": "Mountain",
    "subcategory": "Mountain",
    "featured": false,
    "priority": 50
  },
  {
    "geonameId": 1405862,
    "name": "Aūghānak",
    "latitude": 36.52877,
    "longitude": 67.05928,
    "category": "Mountain",
    "subcategory": "Mountain",
    "featured": false,
    "priority": 50
  },
  {
    "geonameId": 1148052,
    "name": "Āw Chōkak",
    "latitude": 34.78293,
    "longitude": 65.52657,
    "category": "Mountain",
    "subcategory": "Mountain",
    "featured": false,
    "priority": 50
  },
  {
    "geonameId": 1148592,
    "name": "Āw Kōl",
    "latitude": 36.56739,
    "longitude": 67.69575,
    "category": "Mountain",
    "subcategory": "Mountain",
    "featured": false,
    "priority": 50
  },
  {
    "geonameId": 1428607,
    "name": "Āw-e Buzurg",
    "latitude": 35.38423,
    "longitude": 66.38294,
    "category": "Mountain",
    "subcategory": "Mountain",
    "featured": false,
    "priority": 50
  },
  {
    "geonameId": 1428672,
    "name": "Āw-e Dārū",
    "latitude": 35.42846,
    "longitude": 66.42752,
    "category": "Mountain",
    "subcategory": "Mountain",
    "featured": false,
    "priority": 50
  },
  {
    "geonameId": 1148076,
    "name": "Āwak",
    "latitude": 34.89808,
    "longitude": 65.38338,
    "category": "Mountain",
    "subcategory": "Mountain",
    "featured": false,
    "priority": 50
  },
  {
    "geonameId": 1459892,
    "name": "Awār-e Now",
    "latitude": 34.29634,
    "longitude": 64.87741,
    "category": "Mountain",
    "subcategory": "Mountain",
    "featured": false,
    "priority": 50
  },
  {
    "geonameId": 1459888,
    "name": "Awār-e Now-e Khāliqdādī",
    "latitude": 34.29748,
    "longitude": 64.80598,
    "category": "Mountain",
    "subcategory": "Mountain",
    "featured": false,
    "priority": 50
  },
  {
    "geonameId": 1428867,
    "name": "Āwār-e Ţabaqsar",
    "latitude": 35.43598,
    "longitude": 68.40717,
    "category": "Mountain",
    "subcategory": "Peak",
    "featured": false,
    "priority": 50
  },
  {
    "geonameId": 1428706,
    "name": "Awārī Monār",
    "latitude": 35.01954,
    "longitude": 68.09741,
    "category": "Mountain",
    "subcategory": "Mountain",
    "featured": false,
    "priority": 50
  },
  {
    "geonameId": 1428704,
    "name": "Awārī Nayk",
    "latitude": 35.02204,
    "longitude": 68.12209,
    "category": "Mountain",
    "subcategory": "Mountain",
    "featured": false,
    "priority": 50
  },
  {
    "geonameId": 1449244,
    "name": "Awarnīn",
    "latitude": 33.80646,
    "longitude": 66.32167,
    "category": "Mountain",
    "subcategory": "Mountain",
    "featured": false,
    "priority": 50
  },
  {
    "geonameId": 1450484,
    "name": "Āwchak",
    "latitude": 33.28976,
    "longitude": 67.1406,
    "category": "Mountain",
    "subcategory": "Mountain",
    "featured": false,
    "priority": 50
  },
  {
    "geonameId": 1450491,
    "name": "Āwchak-e Khārzār",
    "latitude": 33.28403,
    "longitude": 67.09847,
    "category": "Mountain",
    "subcategory": "Mountain",
    "featured": false,
    "priority": 50
  },
  {
    "geonameId": 1450732,
    "name": "Awchukrī",
    "latitude": 33.00246,
    "longitude": 67.45388,
    "category": "Mountain",
    "subcategory": "Mountain",
    "featured": false,
    "priority": 50
  },
  {
    "geonameId": 1433814,
    "name": "Awd Kī Khêṟah",
    "latitude": 32.41161,
    "longitude": 68.61238,
    "category": "Mountain",
    "subcategory": "Mountain",
    "featured": false,
    "priority": 50
  },
  {
    "geonameId": 1148049,
    "name": "Awdak",
    "latitude": 35.59309,
    "longitude": 66.21005,
    "category": "Mountain",
    "subcategory": "Mountain",
    "featured": false,
    "priority": 50
  },
  {
    "geonameId": 1471339,
    "name": "Āwdak",
    "latitude": 34.80488,
    "longitude": 65.45099,
    "category": "Mountain",
    "subcategory": "Mountain",
    "featured": false,
    "priority": 50
  },
  {
    "geonameId": 1148030,
    "name": "Awdak-e Jarnow",
    "latitude": 35.44557,
    "longitude": 69.94148,
    "category": "Mountain",
    "subcategory": "Mountain",
    "featured": false,
    "priority": 50
  },
  {
    "geonameId": 1148022,
    "name": "Awdak-e Now Āwdār",
    "latitude": 35.34788,
    "longitude": 69.93477,
    "category": "Mountain",
    "subcategory": "Mountain",
    "featured": false,
    "priority": 50
  },
  {
    "geonameId": 1148023,
    "name": "Awdakī Ghar",
    "latitude": 33.62849,
    "longitude": 68.76722,
    "category": "Mountain",
    "subcategory": "Mountain",
    "featured": false,
    "priority": 50
  },
  {
    "geonameId": 1473766,
    "name": "Awdāl Ghar",
    "latitude": 34.00209,
    "longitude": 70.8382,
    "category": "Mountain",
    "subcategory": "Mountain",
    "featured": false,
    "priority": 50
  },
  {
    "geonameId": 1469666,
    "name": "Awday",
    "latitude": 34.06925,
    "longitude": 70.6177,
    "category": "Mountain",
    "subcategory": "Mountain",
    "featured": false,
    "priority": 50
  },
  {
    "geonameId": 1428353,
    "name": "Āwdīk Tōrah Ghunḏêy",
    "latitude": 32.1927,
    "longitude": 62.49784,
    "category": "Mountain",
    "subcategory": "Mountain",
    "featured": false,
    "priority": 50
  },
  {
    "geonameId": 1470439,
    "name": "Awdikarkachah",
    "latitude": 35.73337,
    "longitude": 69.56808,
    "category": "Mountain",
    "subcategory": "Mountain",
    "featured": false,
    "priority": 50
  },
  {
    "geonameId": 1449355,
    "name": "Awgān",
    "latitude": 33.69885,
    "longitude": 66.4098,
    "category": "Mountain",
    "subcategory": "Mountain",
    "featured": false,
    "priority": 50
  },
  {
    "geonameId": 1147999,
    "name": "Āwī Tangay",
    "latitude": 33.59245,
    "longitude": 68.81747,
    "category": "Mountain",
    "subcategory": "Mountain",
    "featured": false,
    "priority": 50
  },
  {
    "geonameId": 1449197,
    "name": "Awj-e Falak",
    "latitude": 33.86787,
    "longitude": 66.03809,
    "category": "Mountain",
    "subcategory": "Mountain",
    "featured": false,
    "priority": 50
  },
  {
    "geonameId": 1434332,
    "name": "Awkal",
    "latitude": 33.10473,
    "longitude": 69.52788,
    "category": "Mountain",
    "subcategory": "Mountain",
    "featured": false,
    "priority": 50
  },
  {
    "geonameId": 1448136,
    "name": "Awlaḏū Ghar",
    "latitude": 33.13951,
    "longitude": 66.31127,
    "category": "Mountain",
    "subcategory": "Mountain",
    "featured": false,
    "priority": 50
  },
  {
    "geonameId": 1449794,
    "name": "Awlīā Ghar",
    "latitude": 32.77496,
    "longitude": 65.79384,
    "category": "Mountain",
    "subcategory": "Mountain",
    "featured": false,
    "priority": 50
  },
  {
    "geonameId": 1450451,
    "name": "Āwqāsh",
    "latitude": 33.30868,
    "longitude": 67.31011,
    "category": "Mountain",
    "subcategory": "Mountain",
    "featured": false,
    "priority": 50
  },
  {
    "geonameId": 8429502,
    "name": "Awqōl",
    "latitude": 33.87479,
    "longitude": 66.55003,
    "category": "Mountain",
    "subcategory": "Mountain",
    "featured": false,
    "priority": 50
  },
  {
    "geonameId": 1477316,
    "name": "Awrak",
    "latitude": 33.4772,
    "longitude": 65.18245,
    "category": "Mountain",
    "subcategory": "Mountain",
    "featured": false,
    "priority": 50
  },
  {
    "geonameId": 1423941,
    "name": "Awrām Ghar",
    "latitude": 35.31955,
    "longitude": 71.14381,
    "category": "Mountain",
    "subcategory": "Mountain",
    "featured": false,
    "priority": 50
  },
  {
    "geonameId": 1442427,
    "name": "Awrang Ghar",
    "latitude": 33.3508,
    "longitude": 66.55757,
    "category": "Mountain",
    "subcategory": "Mountain",
    "featured": false,
    "priority": 50
  },
  {
    "geonameId": 1428937,
    "name": "Āwrī Ghar",
    "latitude": 35.10594,
    "longitude": 70.81601,
    "category": "Mountain",
    "subcategory": "Mountain",
    "featured": false,
    "priority": 50
  },
  {
    "geonameId": 1423296,
    "name": "Āwshār Sar",
    "latitude": 35.14193,
    "longitude": 69.08084,
    "category": "Mountain",
    "subcategory": "Mountain",
    "featured": false,
    "priority": 50
  },
  {
    "geonameId": 1459325,
    "name": "Āwshārak",
    "latitude": 33.52499,
    "longitude": 64.01159,
    "category": "Mountain",
    "subcategory": "Mountain",
    "featured": false,
    "priority": 50
  },
  {
    "geonameId": 1428744,
    "name": "Awtak",
    "latitude": 35.22228,
    "longitude": 68.3709,
    "category": "Mountain",
    "subcategory": "Mountain",
    "featured": false,
    "priority": 50
  },
  {
    "geonameId": 1427986,
    "name": "Awtak Ghar",
    "latitude": 32.89727,
    "longitude": 66.25455,
    "category": "Mountain",
    "subcategory": "Mountain",
    "featured": false,
    "priority": 50
  },
  {
    "geonameId": 1451837,
    "name": "Awtāk Sar",
    "latitude": 34.98419,
    "longitude": 71.05401,
    "category": "Mountain",
    "subcategory": "Mountain",
    "featured": false,
    "priority": 50
  },
  {
    "geonameId": 1422698,
    "name": "Awtōgak",
    "latitude": 35.02531,
    "longitude": 67.78224,
    "category": "Mountain",
    "subcategory": "Mountain",
    "featured": false,
    "priority": 50
  },
  {
    "geonameId": 1147947,
    "name": "Āwud Ghar",
    "latitude": 33.41581,
    "longitude": 66.87138,
    "category": "Mountain",
    "subcategory": "Mountain",
    "featured": false,
    "priority": 50
  },
  {
    "geonameId": 1149254,
    "name": "Aylagh",
    "latitude": 36.31667,
    "longitude": 67.39727,
    "category": "Mountain",
    "subcategory": "Mountain",
    "featured": false,
    "priority": 50
  },
  {
    "geonameId": 1464669,
    "name": "Ayshmurād",
    "latitude": 35.98852,
    "longitude": 69.27164,
    "category": "Mountain",
    "subcategory": "Mountain",
    "featured": false,
    "priority": 50
  },
  {
    "geonameId": 1464665,
    "name": "Aytumak",
    "latitude": 35.88049,
    "longitude": 69.21622,
    "category": "Mountain",
    "subcategory": "Mountain",
    "featured": false,
    "priority": 50
  },
  {
    "geonameId": 1147889,
    "name": "Āzād Kōh",
    "latitude": 35.08148,
    "longitude": 66.66607,
    "category": "Mountain",
    "subcategory": "Mountain",
    "featured": false,
    "priority": 50
  },
  {
    "geonameId": 1456559,
    "name": "Āzād Kōhak",
    "latitude": 34.90888,
    "longitude": 66.39104,
    "category": "Mountain",
    "subcategory": "Mountain",
    "featured": false,
    "priority": 50
  },
  {
    "geonameId": 1437534,
    "name": "Azal Khēlō Ghunḏêy",
    "latitude": 32.95097,
    "longitude": 68.35547,
    "category": "Mountain",
    "subcategory": "Mountain",
    "featured": false,
    "priority": 50
  },
  {
    "geonameId": 1438147,
    "name": "Azghanah Ghar",
    "latitude": 33.52,
    "longitude": 69.24237,
    "category": "Mountain",
    "subcategory": "Mountain",
    "featured": false,
    "priority": 50
  },
  {
    "geonameId": 11972580,
    "name": "Aziz Bubhat An",
    "latitude": 35.96355,
    "longitude": 71.35135,
    "category": "Mountain",
    "subcategory": "Mountain Pass",
    "featured": false,
    "priority": 50
  },
  {
    "geonameId": 1442867,
    "name": "Bā’ī Ghar",
    "latitude": 33.6237,
    "longitude": 67.23255,
    "category": "Mountain",
    "subcategory": "Mountain",
    "featured": false,
    "priority": 50
  },
  {
    "geonameId": 1433720,
    "name": "Bā’ī Zāmah",
    "latitude": 32.13126,
    "longitude": 68.85052,
    "category": "Mountain",
    "subcategory": "Mountain",
    "featured": false,
    "priority": 50
  },
  {
    "geonameId": 1147844,
    "name": "Bābā Abdāl",
    "latitude": 33.6186,
    "longitude": 68.62754,
    "category": "Mountain",
    "subcategory": "Mountain",
    "featured": false,
    "priority": 50
  },
  {
    "geonameId": 1469513,
    "name": "Bābā Ḏūp",
    "latitude": 34.50091,
    "longitude": 70.98172,
    "category": "Mountain",
    "subcategory": "Mountain",
    "featured": false,
    "priority": 50
  },
  {
    "geonameId": 1470495,
    "name": "Bābā Khamsar",
    "latitude": 35.7187,
    "longitude": 70.00029,
    "category": "Mountain",
    "subcategory": "Mountain",
    "featured": false,
    "priority": 50
  },
  {
    "geonameId": 1349895,
    "name": "Bābā Qashkhār",
    "latitude": 34.68931,
    "longitude": 69.37138,
    "category": "Mountain",
    "subcategory": "Mountain",
    "featured": false,
    "priority": 50
  },
  {
    "geonameId": 1438408,
    "name": "Bābā Qōl",
    "latitude": 33.6575,
    "longitude": 67.90969,
    "category": "Mountain",
    "subcategory": "Mountain",
    "featured": false,
    "priority": 50
  },
  {
    "geonameId": 1453777,
    "name": "Bābā Şāḩib",
    "latitude": 31.66144,
    "longitude": 65.66098,
    "category": "City",
    "subcategory": "County Seat",
    "featured": false,
    "priority": 50
  },
  {
    "geonameId": 1453778,
    "name": "Bābā Şāḩib Ghar",
    "latitude": 31.65475,
    "longitude": 65.66005,
    "category": "Mountain",
    "subcategory": "Mountain",
    "featured": false,
    "priority": 50
  },
  {
    "geonameId": 12076681,
    "name": "Baba Tungi",
    "latitude": 36.87744,
    "longitude": 72.95881,
    "category": "Mountain",
    "subcategory": "Mountain",
    "featured": false,
    "priority": 50
  },
  {
    "geonameId": 1450048,
    "name": "Bābadal Spīn",
    "latitude": 32.67874,
    "longitude": 66.93381,
    "category": "Mountain",
    "subcategory": "Mountain",
    "featured": false,
    "priority": 50
  },
  {
    "geonameId": 9878745,
    "name": "Bābawarghaly Sar",
    "latitude": 34.04734,
    "longitude": 70.0026,
    "category": "Mountain",
    "subcategory": "Mountain",
    "featured": false,
    "priority": 50
  },
  {
    "geonameId": 1476342,
    "name": "Bābêkir Ghar",
    "latitude": 34.21277,
    "longitude": 71.03376,
    "category": "Mountain",
    "subcategory": "Mountain",
    "featured": false,
    "priority": 50
  },
  {
    "geonameId": 1424898,
    "name": "Bābū Nīkêh Ghar",
    "latitude": 32.10831,
    "longitude": 65.92785,
    "category": "Mountain",
    "subcategory": "Mountain",
    "featured": false,
    "priority": 50
  },
  {
    "geonameId": 1466359,
    "name": "Bachcheh Mordeh",
    "latitude": 36.48444,
    "longitude": 67.35306,
    "category": "Mountain",
    "subcategory": "Mountain",
    "featured": false,
    "priority": 50
  },
  {
    "geonameId": 1476298,
    "name": "Bachē Sar",
    "latitude": 34.8921,
    "longitude": 71.2291,
    "category": "Mountain",
    "subcategory": "Mountain",
    "featured": false,
    "priority": 50
  },
  {
    "geonameId": 1442419,
    "name": "Bāchūk",
    "latitude": 33.37089,
    "longitude": 66.73183,
    "category": "Mountain",
    "subcategory": "Mountain",
    "featured": false,
    "priority": 50
  },
  {
    "geonameId": 1439062,
    "name": "Bād Āsyā",
    "latitude": 33.41167,
    "longitude": 68.17042,
    "category": "Mountain",
    "subcategory": "Mountain",
    "featured": false,
    "priority": 50
  },
  {
    "geonameId": 1450184,
    "name": "Bād Āsyāb Ghar",
    "latitude": 32.89904,
    "longitude": 66.58205,
    "category": "Mountain",
    "subcategory": "Mountain",
    "featured": false,
    "priority": 50
  },
  {
    "geonameId": 7564040,
    "name": "Bād Khānī Ghar",
    "latitude": 34.57839,
    "longitude": 70.27409,
    "category": "Mountain",
    "subcategory": "Mountain",
    "featured": false,
    "priority": 50
  },
  {
    "geonameId": 1444185,
    "name": "Bād Kōh",
    "latitude": 32.66358,
    "longitude": 65.17316,
    "category": "Mountain",
    "subcategory": "Mountain",
    "featured": false,
    "priority": 50
  },
  {
    "geonameId": 1435782,
    "name": "Bad Makhē",
    "latitude": 32.70025,
    "longitude": 67.63896,
    "category": "Mountain",
    "subcategory": "Mountain",
    "featured": false,
    "priority": 50
  },
  {
    "geonameId": 1438581,
    "name": "Baḏagak Ghar",
    "latitude": 33.88426,
    "longitude": 68.53779,
    "category": "Mountain",
    "subcategory": "Mountain",
    "featured": false,
    "priority": 50
  },
  {
    "geonameId": 1438525,
    "name": "Bādah-ye Siyāh Ghar",
    "latitude": 33.68003,
    "longitude": 68.65114,
    "category": "Mountain",
    "subcategory": "Mountain",
    "featured": false,
    "priority": 50
  },
  {
    "geonameId": 1434672,
    "name": "Badal Ghar",
    "latitude": 33.40886,
    "longitude": 69.78828,
    "category": "Mountain",
    "subcategory": "Mountain",
    "featured": false,
    "priority": 50
  },
  {
    "geonameId": 1469609,
    "name": "Bādām",
    "latitude": 34.10001,
    "longitude": 70.5628,
    "category": "Mountain",
    "subcategory": "Mountain",
    "featured": false,
    "priority": 50
  },
  {
    "geonameId": 8594032,
    "name": "Bādām Band",
    "latitude": 32.14107,
    "longitude": 66.48614,
    "category": "Mountain",
    "subcategory": "Mountain Pass",
    "featured": false,
    "priority": 50
  },
  {
    "geonameId": 1465038,
    "name": "Bādāmak",
    "latitude": 35.59195,
    "longitude": 69.11172,
    "category": "Mountain",
    "subcategory": "Mountain",
    "featured": false,
    "priority": 50
  },
  {
    "geonameId": 1477325,
    "name": "Bādāmī",
    "latitude": 33.38131,
    "longitude": 65.20758,
    "category": "Mountain",
    "subcategory": "Mountain",
    "featured": false,
    "priority": 50
  },
  {
    "geonameId": 1147732,
    "name": "Bādāmistān Kōh",
    "latitude": 33.01415,
    "longitude": 65.8431,
    "category": "Mountain",
    "subcategory": "Mountain",
    "featured": false,
    "priority": 50
  },
  {
    "geonameId": 1469480,
    "name": "Bāday Sar",
    "latitude": 34.49071,
    "longitude": 70.81455,
    "category": "Mountain",
    "subcategory": "Peak",
    "featured": false,
    "priority": 50
  },
  {
    "geonameId": 1453189,
    "name": "Baḏay Sūraī",
    "latitude": 33.07552,
    "longitude": 69.20745,
    "category": "Mountain",
    "subcategory": "Mountain",
    "featured": false,
    "priority": 50
  },
  {
    "geonameId": 1474180,
    "name": "Bāḏayl Sar",
    "latitude": 34.83924,
    "longitude": 70.98853,
    "category": "Mountain",
    "subcategory": "Mountain",
    "featured": false,
    "priority": 50
  },
  {
    "geonameId": 1147709,
    "name": "Badghadah",
    "latitude": 31.93107,
    "longitude": 64.95046,
    "category": "Mountain",
    "subcategory": "Mountain",
    "featured": false,
    "priority": 50
  },
  {
    "geonameId": 1423910,
    "name": "Badigal Ghar",
    "latitude": 35.37947,
    "longitude": 71.49572,
    "category": "Mountain",
    "subcategory": "Mountain",
    "featured": false,
    "priority": 50
  },
  {
    "geonameId": 1349514,
    "name": "Badīn Chishtō Ghunḏêy",
    "latitude": 32.14056,
    "longitude": 69.185,
    "category": "Mountain",
    "subcategory": "Mountain",
    "featured": false,
    "priority": 50
  },
  {
    "geonameId": 1473879,
    "name": "Baḏiyālay Ghar",
    "latitude": 34.60428,
    "longitude": 70.62877,
    "category": "Mountain",
    "subcategory": "Mountain",
    "featured": false,
    "priority": 50
  },
  {
    "geonameId": 1439225,
    "name": "Bādkachah",
    "latitude": 32.37142,
    "longitude": 67.35978,
    "category": "Mountain",
    "subcategory": "Mountain",
    "featured": false,
    "priority": 50
  },
  {
    "geonameId": 1464796,
    "name": "Bādkah Zār",
    "latitude": 35.80175,
    "longitude": 69.26787,
    "category": "Mountain",
    "subcategory": "Mountain",
    "featured": false,
    "priority": 50
  },
  {
    "geonameId": 1428798,
    "name": "Bādkah-Kōtal",
    "latitude": 35.26094,
    "longitude": 68.40494,
    "category": "Mountain",
    "subcategory": "Mountain Pass",
    "featured": false,
    "priority": 50
  },
  {
    "geonameId": 1458432,
    "name": "Bādkhānak",
    "latitude": 33.96104,
    "longitude": 64.82985,
    "category": "Mountain",
    "subcategory": "Mountain",
    "featured": false,
    "priority": 50
  },
  {
    "geonameId": 1424149,
    "name": "Badō Ghar",
    "latitude": 35.37713,
    "longitude": 71.45508,
    "category": "Mountain",
    "subcategory": "Mountain",
    "featured": false,
    "priority": 50
  },
  {
    "geonameId": 1147687,
    "name": "Badpush Pass",
    "latitude": 34.63861,
    "longitude": 69.85361,
    "category": "Mountain",
    "subcategory": "Mountain Pass",
    "featured": false,
    "priority": 50
  },
  {
    "geonameId": 1437450,
    "name": "Badragī Ghunḏêy",
    "latitude": 32.77303,
    "longitude": 68.20359,
    "category": "Mountain",
    "subcategory": "Mountain",
    "featured": false,
    "priority": 50
  },
  {
    "geonameId": 1147674,
    "name": "Bādrowak",
    "latitude": 34.45472,
    "longitude": 64.365,
    "category": "Mountain",
    "subcategory": "Mountain",
    "featured": false,
    "priority": 50
  },
  {
    "geonameId": 1452162,
    "name": "Bādsamūr Kanḏow",
    "latitude": 34.90917,
    "longitude": 71.27174,
    "category": "Mountain",
    "subcategory": "Mountain Pass",
    "featured": false,
    "priority": 50
  },
  {
    "geonameId": 1424044,
    "name": "Badshiṟin",
    "latitude": 35.13689,
    "longitude": 71.25374,
    "category": "Mountain",
    "subcategory": "Mountain",
    "featured": false,
    "priority": 50
  },
  {
    "geonameId": 1452043,
    "name": "Badūngal Ghar",
    "latitude": 35.25983,
    "longitude": 71.59227,
    "category": "Mountain",
    "subcategory": "Mountain",
    "featured": false,
    "priority": 50
  },
  {
    "geonameId": 1147689,
    "name": "Bādūrāfī",
    "latitude": 29.67838,
    "longitude": 64.61795,
    "category": "Mountain",
    "subcategory": "Mountain",
    "featured": false,
    "priority": 50
  },
  {
    "geonameId": 1458837,
    "name": "Baduṟō Sūrkhay",
    "latitude": 34.19256,
    "longitude": 68.25807,
    "category": "Mountain",
    "subcategory": "Mountain",
    "featured": false,
    "priority": 50
  },
  {
    "geonameId": 1407241,
    "name": "Badwān Ghar",
    "latitude": 31.57741,
    "longitude": 65.49653,
    "category": "Mountain",
    "subcategory": "Mountain",
    "featured": false,
    "priority": 50
  },
  {
    "geonameId": 1470639,
    "name": "Bāfakān",
    "latitude": 35.99062,
    "longitude": 69.56837,
    "category": "Mountain",
    "subcategory": "Mountain",
    "featured": false,
    "priority": 50
  },
  {
    "geonameId": 1147654,
    "name": "Bagat Das̲h̲t",
    "latitude": 30.44988,
    "longitude": 63.92149,
    "category": "Desert",
    "subcategory": "Desert",
    "featured": false,
    "priority": 50
  },
  {
    "geonameId": 1147593,
    "name": "Bāgh Darē Ghar",
    "latitude": 34.87956,
    "longitude": 69.52014,
    "category": "Mountain",
    "subcategory": "Mountain",
    "featured": false,
    "priority": 50
  },
  {
    "geonameId": 1147546,
    "name": "Bāgh Ghar",
    "latitude": 31.86334,
    "longitude": 66.21896,
    "category": "Mountain",
    "subcategory": "Mountain",
    "featured": false,
    "priority": 50
  },
  {
    "geonameId": 1444034,
    "name": "Bāgh Guzarī Gardanah",
    "latitude": 32.99561,
    "longitude": 65.01127,
    "category": "Mountain",
    "subcategory": "Mountain Pass",
    "featured": false,
    "priority": 50
  },
  {
    "geonameId": 7098043,
    "name": "Bāgh-e Bābur",
    "latitude": 34.50265,
    "longitude": 69.1583,
    "category": "Park",
    "subcategory": "Park",
    "featured": false,
    "priority": 50
  },
  {
    "geonameId": 1444004,
    "name": "Bāgh-e Chak",
    "latitude": 32.53627,
    "longitude": 63.59089,
    "category": "Mountain",
    "subcategory": "Mountain",
    "featured": false,
    "priority": 50
  },
  {
    "geonameId": 1429414,
    "name": "Bāgh-e Chatī",
    "latitude": 35.36208,
    "longitude": 69.52128,
    "category": "Mountain",
    "subcategory": "Mountain",
    "featured": false,
    "priority": 50
  },
  {
    "geonameId": 1451598,
    "name": "Bāgh-e Chihil Sutūn",
    "latitude": 34.46943,
    "longitude": 69.1525,
    "category": "Park",
    "subcategory": "Park",
    "featured": false,
    "priority": 50
  },
  {
    "geonameId": 1423264,
    "name": "Bāgh-e Maīdān",
    "latitude": 35.22156,
    "longitude": 69.21397,
    "category": "City",
    "subcategory": "County Seat",
    "featured": false,
    "priority": 50
  },
  {
    "geonameId": 1470039,
    "name": "Bāgh-e Sabz",
    "latitude": 35.8053,
    "longitude": 68.85233,
    "category": "Mountain",
    "subcategory": "Mountain",
    "featured": false,
    "priority": 50
  },
  {
    "geonameId": 7098049,
    "name": "Bāgh-e Zanānah",
    "latitude": 34.53455,
    "longitude": 69.15137,
    "category": "Park",
    "subcategory": "Park",
    "featured": false,
    "priority": 50
  },
  {
    "geonameId": 1422755,
    "name": "Bāghak",
    "latitude": 35.13696,
    "longitude": 67.95463,
    "category": "Mountain",
    "subcategory": "Mountain",
    "featured": false,
    "priority": 50
  },
  {
    "geonameId": 1448073,
    "name": "Bāghak Ghar",
    "latitude": 33.41842,
    "longitude": 66.4333,
    "category": "Mountain",
    "subcategory": "Mountain",
    "featured": false,
    "priority": 50
  },
  {
    "geonameId": 1147626,
    "name": "Bāghak-e Ghar",
    "latitude": 33.07654,
    "longitude": 66.11074,
    "category": "Mountain",
    "subcategory": "Mountain",
    "featured": false,
    "priority": 50
  },
  {
    "geonameId": 1348433,
    "name": "Bāghakī Ghar",
    "latitude": 31.79564,
    "longitude": 68.7771,
    "category": "Mountain",
    "subcategory": "Mountain",
    "featured": false,
    "priority": 50
  },
  {
    "geonameId": 1438603,
    "name": "Baghal-e Mōkām",
    "latitude": 33.83354,
    "longitude": 68.87209,
    "category": "Mountain",
    "subcategory": "Mountain",
    "featured": false,
    "priority": 50
  },
  {
    "geonameId": 1427490,
    "name": "Baghalaganjah",
    "latitude": 35.62674,
    "longitude": 67.17521,
    "category": "Mountain",
    "subcategory": "Mountain",
    "featured": false,
    "priority": 50
  },
  {
    "geonameId": 1428572,
    "name": "Baghalak",
    "latitude": 35.1525,
    "longitude": 66.14639,
    "category": "Mountain",
    "subcategory": "Mountain",
    "featured": false,
    "priority": 50
  },
  {
    "geonameId": 1434212,
    "name": "Baghar Ghar",
    "latitude": 33.00075,
    "longitude": 69.07487,
    "category": "Mountain",
    "subcategory": "Mountain",
    "featured": false,
    "priority": 50
  },
  {
    "geonameId": 1473265,
    "name": "Baghatak Ghar",
    "latitude": 34.44239,
    "longitude": 70.17755,
    "category": "Mountain",
    "subcategory": "Mountain",
    "featured": false,
    "priority": 50
  },
  {
    "geonameId": 1437828,
    "name": "Baghay Rap",
    "latitude": 33.84894,
    "longitude": 66.60795,
    "category": "Mountain",
    "subcategory": "Mountain",
    "featured": false,
    "priority": 50
  },
  {
    "geonameId": 1469720,
    "name": "Bāghdarē Ghar",
    "latitude": 34.02937,
    "longitude": 70.72329,
    "category": "Mountain",
    "subcategory": "Mountain",
    "featured": false,
    "priority": 50
  },
  {
    "geonameId": 1437994,
    "name": "Bāghgī Pus̲h̲tē",
    "latitude": 33.98781,
    "longitude": 69.11618,
    "category": "Mountain",
    "subcategory": "Mountain",
    "featured": false,
    "priority": 50
  },
  {
    "geonameId": 1455609,
    "name": "Bāghir",
    "latitude": 34.53003,
    "longitude": 68.35116,
    "category": "Mountain",
    "subcategory": "Mountain",
    "featured": false,
    "priority": 50
  },
  {
    "geonameId": 1147540,
    "name": "Baghlān",
    "latitude": 36.13068,
    "longitude": 68.70829,
    "category": "City",
    "subcategory": "County Seat",
    "featured": false,
    "priority": 50
  },
  {
    "geonameId": 1147523,
    "name": "Baghrī Gaṯ",
    "latitude": 34.71637,
    "longitude": 70.81062,
    "category": "Mountain",
    "subcategory": "Mountain",
    "featured": false,
    "priority": 50
  },
  {
    "geonameId": 1448899,
    "name": "Baghuḏ Tōp",
    "latitude": 33.38385,
    "longitude": 67.79201,
    "category": "Mountain",
    "subcategory": "Mountain",
    "featured": false,
    "priority": 50
  },
  {
    "geonameId": 1427888,
    "name": "Baghūjī",
    "latitude": 32.17945,
    "longitude": 66.27987,
    "category": "Mountain",
    "subcategory": "Mountain",
    "featured": false,
    "priority": 50
  },
  {
    "geonameId": 1147527,
    "name": "Bāghūl Ghar",
    "latitude": 32.80012,
    "longitude": 65.79762,
    "category": "Mountain",
    "subcategory": "Mountain",
    "featured": false,
    "priority": 50
  },
  {
    "geonameId": 1428071,
    "name": "Bāghunḏak",
    "latitude": 32.517,
    "longitude": 66.03648,
    "category": "Mountain",
    "subcategory": "Mountain",
    "featured": false,
    "priority": 50
  },
  {
    "geonameId": 1464981,
    "name": "Bāghur",
    "latitude": 35.59518,
    "longitude": 69.23563,
    "category": "Mountain",
    "subcategory": "Mountain",
    "featured": false,
    "priority": 50
  },
  {
    "geonameId": 1147511,
    "name": "Bagrāmī",
    "latitude": 34.49376,
    "longitude": 69.27427,
    "category": "City",
    "subcategory": "County Seat",
    "featured": false,
    "priority": 50
  },
  {
    "geonameId": 1147510,
    "name": "Bagṟay Ghar",
    "latitude": 31.08737,
    "longitude": 66.19488,
    "category": "Mountain",
    "subcategory": "Mountain",
    "featured": false,
    "priority": 50
  },
  {
    "geonameId": 7582655,
    "name": "Bahādir Bāgh Ghar",
    "latitude": 34.59184,
    "longitude": 69.56476,
    "category": "Mountain",
    "subcategory": "Mountain",
    "featured": false,
    "priority": 50
  },
  {
    "geonameId": 1126590,
    "name": "Bahador",
    "latitude": 33.78571,
    "longitude": 67.66045,
    "category": "Mountain",
    "subcategory": "Mountain",
    "featured": false,
    "priority": 50
  },
  {
    "geonameId": 1147489,
    "name": "Bahārak",
    "latitude": 37.00254,
    "longitude": 70.90664,
    "category": "City",
    "subcategory": "County Seat",
    "featured": false,
    "priority": 50
  },
  {
    "geonameId": 1424729,
    "name": "Bahlōl Ghar",
    "latitude": 32.44783,
    "longitude": 65.54881,
    "category": "Mountain",
    "subcategory": "Mountain",
    "featured": false,
    "priority": 50
  },
  {
    "geonameId": 1465230,
    "name": "Bai Bachcheh Kamar",
    "latitude": 36.2,
    "longitude": 66.93389,
    "category": "Mountain",
    "subcategory": "Mountain",
    "featured": false,
    "priority": 50
  },
  {
    "geonameId": 1146701,
    "name": "Baizarak",
    "latitude": 36.58,
    "longitude": 67.35,
    "category": "Mountain",
    "subcategory": "Mountain Pass",
    "featured": false,
    "priority": 50
  },
  {
    "geonameId": 1450040,
    "name": "Bakaray Ghar",
    "latitude": 32.67917,
    "longitude": 66.98863,
    "category": "Mountain",
    "subcategory": "Mountain",
    "featured": false,
    "priority": 50
  },
  {
    "geonameId": 1345653,
    "name": "Bakarī",
    "latitude": 33.21263,
    "longitude": 70.10273,
    "category": "Mountain",
    "subcategory": "Mountain",
    "featured": false,
    "priority": 50
  },
  {
    "geonameId": 1474158,
    "name": "Bakarō Ghar",
    "latitude": 34.91583,
    "longitude": 70.97386,
    "category": "Mountain",
    "subcategory": "Mountain",
    "featured": false,
    "priority": 50
  },
  {
    "geonameId": 1147426,
    "name": "Bakhīl Dāgh",
    "latitude": 31.44722,
    "longitude": 63.11833,
    "category": "Mountain",
    "subcategory": "Mountain",
    "featured": false,
    "priority": 50
  },
  {
    "geonameId": 1147418,
    "name": "Bākhōr Ghar",
    "latitude": 32.49185,
    "longitude": 65.89234,
    "category": "Mountain",
    "subcategory": "Mountain",
    "featured": false,
    "priority": 50
  },
  {
    "geonameId": 1472751,
    "name": "Bākhōst Ghar",
    "latitude": 34.75708,
    "longitude": 69.92892,
    "category": "Mountain",
    "subcategory": "Mountain",
    "featured": false,
    "priority": 50
  },
  {
    "geonameId": 1477115,
    "name": "Bakhtū Ghar",
    "latitude": 32.96245,
    "longitude": 64.83773,
    "category": "Mountain",
    "subcategory": "Mountain",
    "featured": false,
    "priority": 50
  },
  {
    "geonameId": 1480912,
    "name": "Bakhtyār Ghar",
    "latitude": 32.01452,
    "longitude": 68.20498,
    "category": "Mountain",
    "subcategory": "Mountain",
    "featured": false,
    "priority": 50
  },
  {
    "geonameId": 1433270,
    "name": "Bākī Ghrūnah",
    "latitude": 32.54977,
    "longitude": 68.65763,
    "category": "Mountain",
    "subcategory": "Mountain",
    "featured": false,
    "priority": 50
  },
  {
    "geonameId": 1443207,
    "name": "Bakray Ghrūnah",
    "latitude": 32.66341,
    "longitude": 67.02306,
    "category": "Mountain",
    "subcategory": "Mountain",
    "featured": false,
    "priority": 50
  },
  {
    "geonameId": 1146576,
    "name": "Bal Chirāgh",
    "latitude": 35.84026,
    "longitude": 65.2309,
    "category": "City",
    "subcategory": "County Seat",
    "featured": false,
    "priority": 50
  },
  {
    "geonameId": 6284777,
    "name": "Bal Targhatū Selseleh Ghr̲ūnah",
    "latitude": 33.13333,
    "longitude": 64.68333,
    "category": "Mountain",
    "subcategory": "Mountain",
    "featured": false,
    "priority": 50
  },
  {
    "geonameId": 1147368,
    "name": "Bālā Dasht",
    "latitude": 30.75,
    "longitude": 62.66667,
    "category": "Desert",
    "subcategory": "Desert",
    "featured": false,
    "priority": 50
  },
  {
    "geonameId": 1437442,
    "name": "Balā Dzāy Ghunḏêy",
    "latitude": 32.70582,
    "longitude": 68.06296,
    "category": "Mountain",
    "subcategory": "Mountain",
    "featured": false,
    "priority": 50
  },
  {
    "geonameId": 1147341,
    "name": "Bālā Kōh",
    "latitude": 33.82212,
    "longitude": 68.14138,
    "category": "Mountain",
    "subcategory": "Mountain",
    "featured": false,
    "priority": 50
  },
  {
    "geonameId": 1435541,
    "name": "Bālā Kūh",
    "latitude": 32.97389,
    "longitude": 67.50139,
    "category": "Mountain",
    "subcategory": "Mountain",
    "featured": false,
    "priority": 50
  },
  {
    "geonameId": 1132770,
    "name": "Bala Murghab",
    "latitude": 35.58408,
    "longitude": 63.32886,
    "category": "City",
    "subcategory": "County Seat",
    "featured": false,
    "priority": 50
  },
  {
    "geonameId": 1480667,
    "name": "Bālā Sar",
    "latitude": 32.32006,
    "longitude": 68.22526,
    "category": "Mountain",
    "subcategory": "Mountain",
    "featured": false,
    "priority": 50
  },
  {
    "geonameId": 1466227,
    "name": "Bālā Zhaṟ Ghar",
    "latitude": 31.35346,
    "longitude": 66.51513,
    "category": "Mountain",
    "subcategory": "Mountain",
    "featured": false,
    "priority": 50
  },
  {
    "geonameId": 1458397,
    "name": "Bālā-ye Kōh",
    "latitude": 34.29298,
    "longitude": 66.63228,
    "category": "Mountain",
    "subcategory": "Mountain",
    "featured": false,
    "priority": 50
  },
  {
    "geonameId": 1448123,
    "name": "Bālāchōy Ghar",
    "latitude": 33.15325,
    "longitude": 66.49476,
    "category": "Mountain",
    "subcategory": "Mountain",
    "featured": false,
    "priority": 50
  },
  {
    "geonameId": 1438933,
    "name": "Balakī",
    "latitude": 33.02217,
    "longitude": 68.33601,
    "category": "Mountain",
    "subcategory": "Mountain",
    "featured": false,
    "priority": 50
  },
  {
    "geonameId": 1448737,
    "name": "Bālānah Bowrī",
    "latitude": 33.09231,
    "longitude": 67.71027,
    "category": "Mountain",
    "subcategory": "Mountain",
    "featured": false,
    "priority": 50
  },
  {
    "geonameId": 1460814,
    "name": "Balandarghūnī",
    "latitude": 34.25243,
    "longitude": 64.45083,
    "category": "Mountain",
    "subcategory": "Mountain",
    "featured": false,
    "priority": 50
  },
  {
    "geonameId": 1455101,
    "name": "Balanḏashtak",
    "latitude": 34.04362,
    "longitude": 65.75245,
    "category": "Mountain",
    "subcategory": "Mountain",
    "featured": false,
    "priority": 50
  },
  {
    "geonameId": 1433308,
    "name": "Balāwṟêy",
    "latitude": 32.65083,
    "longitude": 68.71899,
    "category": "Mountain",
    "subcategory": "Mountain",
    "featured": false,
    "priority": 50
  },
  {
    "geonameId": 1455556,
    "name": "Baldar Ghanak-e Tangī",
    "latitude": 34.69909,
    "longitude": 68.46026,
    "category": "Mountain",
    "subcategory": "Mountain",
    "featured": false,
    "priority": 50
  },
  {
    "geonameId": 1458067,
    "name": "Baldar Ghangak",
    "latitude": 34.3982,
    "longitude": 66.89843,
    "category": "Mountain",
    "subcategory": "Mountain",
    "featured": false,
    "priority": 50
  },
  {
    "geonameId": 1470498,
    "name": "Baldarghānak",
    "latitude": 35.72233,
    "longitude": 69.93384,
    "category": "Mountain",
    "subcategory": "Mountain",
    "featured": false,
    "priority": 50
  },
  {
    "geonameId": 1147305,
    "name": "Baldarghangak",
    "latitude": 35.32954,
    "longitude": 68.59842,
    "category": "Mountain",
    "subcategory": "Mountain",
    "featured": false,
    "priority": 50
  },
  {
    "geonameId": 1147303,
    "name": "Baldarghū",
    "latitude": 33.41012,
    "longitude": 67.57426,
    "category": "Mountain",
    "subcategory": "Mountain",
    "featured": false,
    "priority": 50
  },
  {
    "geonameId": 1147295,
    "name": "Bālī Kōh",
    "latitude": 33.54548,
    "longitude": 68.18246,
    "category": "Mountain",
    "subcategory": "Mountain",
    "featured": false,
    "priority": 50
  },
  {
    "geonameId": 7509901,
    "name": "Bāligardū",
    "latitude": 33.75989,
    "longitude": 66.38356,
    "category": "Mountain",
    "subcategory": "Mountain Pass",
    "featured": false,
    "priority": 50
  },
  {
    "geonameId": 1147290,
    "name": "Balkh",
    "latitude": 36.75635,
    "longitude": 66.8972,
    "category": "City",
    "subcategory": "County Seat",
    "featured": false,
    "priority": 50
  },
  {
    "geonameId": 1471830,
    "name": "Balōtak Ghar",
    "latitude": 34.41292,
    "longitude": 69.54625,
    "category": "Mountain",
    "subcategory": "Mountain",
    "featured": false,
    "priority": 50
  },
  {
    "geonameId": 1428001,
    "name": "Balū Pus̲h̲tah",
    "latitude": 32.79265,
    "longitude": 66.4913,
    "category": "Mountain",
    "subcategory": "Mountain",
    "featured": false,
    "priority": 50
  },