[
  {
    "geonameId": 662059,
    "name": "Abborrskär",
    "latitude": 60.14352,
    "longitude": 20.87383,
    "category": "Island",
    "subcategory": "Island",
    "featured": false,
    "priority": 50
  },
  {
    "geonameId": 846211,
    "name": "Ådgrunden",
    "latitude": 60.04183,
    "longitude": 20.93854,
    "category": "Island",
    "subcategory": "Island",
    "featured": false,
    "priority": 50
  },
  {
    "geonameId": 662049,
    "name": "Ådö",
    "latitude": 60.30988,
    "longitude": 20.43711,
    "category": "Island",
    "subcategory": "Island",
    "featured": false,
    "priority": 50
  },
  {
    "geonameId": 845804,
    "name": "Ådskär",
    "latitude": 60.05797,
    "longitude": 20.25499,
    "category": "Island",
    "subcategory": "Island",
    "featured": false,
    "priority": 50
  },
  {
    "geonameId": 846381,
    "name": "Ådskärs grundet",
    "latitude": 60.0346,
    "longitude": 20.28064,
    "category": "Island",
    "subcategory": "Island",
    "featured": false,
    "priority": 50
  },
  {
    "geonameId": 846427,
    "name": "Ägglupen",
    "latitude": 60.12839,
    "longitude": 20.49644,
    "category": "Island",
    "subcategory": "Island",
    "featured": false,
    "priority": 50
  },
  {
    "geonameId": 850171,
    "name": "Äggörarna",
    "latitude": 60.60746,
    "longitude": 20.87667,
    "category": "Island",
    "subcategory": "Island Group",
    "featured": false,
    "priority": 50
  },
  {
    "geonameId": 849781,
    "name": "Äggrundet",
    "latitude": 60.28217,
    "longitude": 20.54357,
    "category": "Island",
    "subcategory": "Island",
    "featured": false,
    "priority": 50
  },
  {
    "geonameId": 854379,
    "name": "Äggskär",
    "latitude": 60.57576,
    "longitude": 21.06283,
    "category": "Island",
    "subcategory": "Island",
    "featured": false,
    "priority": 50
  },
  {
    "geonameId": 661485,
    "name": "Åland",
    "latitude": 60.1786,
    "longitude": 19.9024,
    "category": "Island",
    "subcategory": "Island",
    "featured": false,
    "priority": 50
  },
  {
    "geonameId": 661883,
    "name": "Aland Islands",
    "latitude": 60.25,
    "longitude": 20,
    "category": "Island",
    "subcategory": "Island Group",
    "featured": false,
    "priority": 50
  },
  {
    "geonameId": 661348,
    "name": "Algersö",
    "latitude": 60.03436,
    "longitude": 20.63036,
    "category": "Island",
    "subcategory": "Island",
    "featured": false,
    "priority": 50
  },
  {
    "geonameId": 849942,
    "name": "Algesklobb",
    "latitude": 60.37149,
    "longitude": 20.81718,
    "category": "Island",
    "subcategory": "Island",
    "featured": false,
    "priority": 50
  },
  {
    "geonameId": 849849,
    "name": "Älgskär",
    "latitude": 60.36929,
    "longitude": 20.27711,
    "category": "Island",
    "subcategory": "Island",
    "featured": false,
    "priority": 50
  },
  {
    "geonameId": 849959,
    "name": "Alhäran",
    "latitude": 60.41516,
    "longitude": 20.83091,
    "category": "Island",
    "subcategory": "Island",
    "featured": false,
    "priority": 50
  },
  {
    "geonameId": 846279,
    "name": "Alkläpparna",
    "latitude": 60.06309,
    "longitude": 20.59543,
    "category": "Island",
    "subcategory": "Island",
    "featured": false,
    "priority": 50
  },
  {
    "geonameId": 849724,
    "name": "Alkskär",
    "latitude": 60.26929,
    "longitude": 20.83726,
    "category": "Island",
    "subcategory": "Island",
    "featured": false,
    "priority": 50
  },
  {
    "geonameId": 846656,
    "name": "Älmholm",
    "latitude": 60.19456,
    "longitude": 20.33494,
    "category": "Island",
    "subcategory": "Island",
    "featured": false,
    "priority": 50
  },
  {
    "geonameId": 846596,
    "name": "Älö",
    "latitude": 60.17503,
    "longitude": 20.70884,
    "category": "Island",
    "subcategory": "Island",
    "featured": false,
    "priority": 50
  },
  {
    "geonameId": 846614,
    "name": "Alörarna",
    "latitude": 60.20909,
    "longitude": 20.46523,
    "category": "Island",
    "subcategory": "Island",
    "featured": false,
    "priority": 50
  },
  {
    "geonameId": 846658,
    "name": "Alören",
    "latitude": 60.17561,
    "longitude": 20.30289,
    "category": "Island",
    "subcategory": "Island",
    "featured": false,
    "priority": 50
  },
  {
    "geonameId": 661281,
    "name": "Alskär",
    "latitude": 60.21442,
    "longitude": 20.97851,
    "category": "Island",
    "subcategory": "Island",
    "featured": false,
    "priority": 50
  },
  {
    "geonameId": 846159,
    "name": "Älskär",
    "latitude": 59.96351,
    "longitude": 20.59906,
    "category": "Island",
    "subcategory": "Island",
    "featured": false,
    "priority": 50
  },
  {
    "geonameId": 661280,
    "name": "Alskäret",
    "latitude": 60.33479,
    "longitude": 20.59076,
    "category": "Island",
    "subcategory": "Island",
    "featured": false,
    "priority": 50
  },
  {
    "geonameId": 12379184,
    "name": "Alskärshällarna",
    "latitude": 60.41551,
    "longitude": 20.10453,
    "category": "Island",
    "subcategory": "Island",
    "featured": false,
    "priority": 50
  },
  {
    "geonameId": 12379185,
    "name": "Alskärsklobben",
    "latitude": 60.41265,
    "longitude": 20.10596,
    "category": "Island",
    "subcategory": "Island",
    "featured": false,
    "priority": 50
  },
  {
    "geonameId": 846062,
    "name": "Amborsö",
    "latitude": 59.90565,
    "longitude": 20.94253,
    "category": "Island",
    "subcategory": "Island",
    "featured": false,
    "priority": 50
  },
  {
    "geonameId": 849772,
    "name": "Ämtholm",
    "latitude": 60.25296,
    "longitude": 20.74367,
    "category": "Island",
    "subcategory": "Island",
    "featured": false,
    "priority": 50
  },
  {
    "geonameId": 3041841,
    "name": "Andersö",
    "latitude": 60.35548,
    "longitude": 19.76098,
    "category": "Island",
    "subcategory": "Island",
    "featured": false,
    "priority": 50
  },
  {
    "geonameId": 661210,
    "name": "Ändör",
    "latitude": 59.90969,
    "longitude": 20.77361,
    "category": "Island",
    "subcategory": "Island",
    "featured": false,
    "priority": 50
  },
  {
    "geonameId": 3041840,
    "name": "Ängeskär",
    "latitude": 60.24686,
    "longitude": 19.39042,
    "category": "Island",
    "subcategory": "Island",
    "featured": false,
    "priority": 50
  },
  {
    "geonameId": 846331,
    "name": "Ängholm",
    "latitude": 60.07196,
    "longitude": 20.49471,
    "category": "Island",
    "subcategory": "Island",
    "featured": false,
    "priority": 50
  },
  {
    "geonameId": 661189,
    "name": "Ängholmen",
    "latitude": 60.07497,
    "longitude": 20.38921,
    "category": "Island",
    "subcategory": "Island",
    "featured": false,
    "priority": 50
  },
  {
    "geonameId": 661184,
    "name": "Ängö",
    "latitude": 60.37253,
    "longitude": 20.91593,
    "category": "Island",
    "subcategory": "Island",
    "featured": false,
    "priority": 50
  },
  {
    "geonameId": 3336325,
    "name": "Ängskär",
    "latitude": 60.00333,
    "longitude": 19.98472,
    "category": "Island",
    "subcategory": "Island",
    "featured": false,
    "priority": 50
  },
  {
    "geonameId": 846217,
    "name": "Antören",
    "latitude": 60.03339,
    "longitude": 20.88187,
    "category": "Island",
    "subcategory": "Island",
    "featured": false,
    "priority": 50
  },
  {
    "geonameId": 846366,
    "name": "Apelholm",
    "latitude": 60.00952,
    "longitude": 20.49802,
    "category": "Island",
    "subcategory": "Island",
    "featured": false,
    "priority": 50
  },
  {
    "geonameId": 3336656,
    "name": "Äppelholmen",
    "latitude": 60.25049,
    "longitude": 19.84632,
    "category": "Island",
    "subcategory": "Island",
    "featured": false,
    "priority": 50
  },
  {
    "geonameId": 3041839,
    "name": "Äppelö",
    "latitude": 60.36857,
    "longitude": 19.69953,
    "category": "Island",
    "subcategory": "Island",
    "featured": false,
    "priority": 50
  },
  {
    "geonameId": 849984,
    "name": "Appolskär",
    "latitude": 60.35761,
    "longitude": 20.9649,
    "category": "Island",
    "subcategory": "Island",
    "featured": false,
    "priority": 50
  },
  {
    "geonameId": 3336803,
    "name": "Arnholm",
    "latitude": 60.3756,
    "longitude": 19.74274,
    "category": "Island",
    "subcategory": "Island",
    "featured": false,
    "priority": 50
  },
  {
    "geonameId": 846240,
    "name": "Ärnklobba",
    "latitude": 60.06621,
    "longitude": 20.68581,
    "category": "Island",
    "subcategory": "Island",
    "featured": false,
    "priority": 50
  },
  {
    "geonameId": 3336333,
    "name": "Ärtskär",
    "latitude": 60.03339,
    "longitude": 19.90001,
    "category": "Island",
    "subcategory": "Island",
    "featured": false,
    "priority": 50
  },
  {
    "geonameId": 850238,
    "name": "Åsgårda träsk",
    "latitude": 60.30669,
    "longitude": 20.07083,
    "category": "Lake",
    "subcategory": "Lake",
    "featured": false,
    "priority": 50
  },
  {
    "geonameId": 850230,
    "name": "Askarträsk",
    "latitude": 60.28215,
    "longitude": 20.14222,
    "category": "Lake",
    "subcategory": "Lake",
    "featured": false,
    "priority": 50
  },
  {
    "geonameId": 849842,
    "name": "Äskholmen",
    "latitude": 60.29049,
    "longitude": 20.33268,
    "category": "Island",
    "subcategory": "Island",
    "featured": false,
    "priority": 50
  },
  {
    "geonameId": 3041838,
    "name": "Askö",
    "latitude": 59.99433,
    "longitude": 19.98628,
    "category": "Island",
    "subcategory": "Island",
    "featured": false,
    "priority": 50
  },
  {
    "geonameId": 660933,
    "name": "Askö klubb",
    "latitude": 60.00157,
    "longitude": 19.99203,
    "category": "Island",
    "subcategory": "Island",
    "featured": false,
    "priority": 50
  },
  {
    "geonameId": 12362159,
    "name": "Askören",
    "latitude": 60.34478,
    "longitude": 20.96769,
    "category": "Island",
    "subcategory": "Island",
    "featured": false,
    "priority": 50
  },
  {
    "geonameId": 853950,
    "name": "Äskskär",
    "latitude": 60.30227,
    "longitude": 20.99883,
    "category": "Island",
    "subcategory": "Island",
    "featured": false,
    "priority": 50
  },
  {
    "geonameId": 850157,
    "name": "Äspen",
    "latitude": 60.51856,
    "longitude": 20.9087,
    "category": "Island",
    "subcategory": "Island",
    "featured": false,
    "priority": 50
  },
  {
    "geonameId": 660919,
    "name": "Aspholm",
    "latitude": 60.02522,
    "longitude": 20.35717,
    "category": "Island",
    "subcategory": "Island",
    "featured": false,
    "priority": 50
  },
  {
    "geonameId": 660920,
    "name": "Äspholm",
    "latitude": 59.99013,
    "longitude": 20.13087,
    "category": "Island",
    "subcategory": "Island",
    "featured": false,
    "priority": 50
  },
  {
    "geonameId": 846340,
    "name": "Aspören",
    "latitude": 60.07946,
    "longitude": 20.44293,
    "category": "Island",
    "subcategory": "Island",
    "featured": false,
    "priority": 50
  },
  {
    "geonameId": 660912,
    "name": "Aspskär",
    "latitude": 60.46425,
    "longitude": 20.12757,
    "category": "Island",
    "subcategory": "Island",
    "featured": false,
    "priority": 50
  },
  {
    "geonameId": 846066,
    "name": "Äspskär",
    "latitude": 59.89626,
    "longitude": 20.89807,
    "category": "Island",
    "subcategory": "Island",
    "featured": false,
    "priority": 50
  },
  {
    "geonameId": 660906,
    "name": "Asterholma",
    "latitude": 60.30108,
    "longitude": 21.05549,
    "category": "Island",
    "subcategory": "Island",
    "featured": false,
    "priority": 50
  },
  {
    "geonameId": 660822,
    "name": "Åva",
    "latitude": 60.46695,
    "longitude": 21.08181,
    "category": "Island",
    "subcategory": "Island",
    "featured": false,
    "priority": 50
  },
  {
    "geonameId": 849904,
    "name": "Bäcklandet",
    "latitude": 60.40119,
    "longitude": 20.5673,
    "category": "Island",
    "subcategory": "Island",
    "featured": false,
    "priority": 50
  },
  {
    "geonameId": 850073,
    "name": "Bäcklands ören",
    "latitude": 60.42052,
    "longitude": 20.57538,
    "category": "Island",
    "subcategory": "Island",
    "featured": false,
    "priority": 50
  },
  {
    "geonameId": 12379089,
    "name": "Bäcklandsörs grundet",
    "latitude": 60.41477,
    "longitude": 20.56824,
    "category": "Island",
    "subcategory": "Island",
    "featured": false,
    "priority": 50
  },
  {
    "geonameId": 849790,
    "name": "Bådan",
    "latitude": 60.33057,
    "longitude": 20.45916,
    "category": "Island",
    "subcategory": "Island",
    "featured": false,
    "priority": 50
  },
  {
    "geonameId": 12225515,
    "name": "Badhusparken",
    "latitude": 60.09902,
    "longitude": 19.92543,
    "category": "Park",
    "subcategory": "Park",
    "featured": false,
    "priority": 50
  },
  {
    "geonameId": 3041836,
    "name": "Båkenskär",
    "latitude": 60.1188,
    "longitude": 19.68451,
    "category": "Island",
    "subcategory": "Island",
    "featured": false,
    "priority": 50
  },
  {
    "geonameId": 850310,
    "name": "Bakskär",
    "latitude": 60.42359,
    "longitude": 20.09481,
    "category": "Island",
    "subcategory": "Island",
    "featured": false,
    "priority": 50
  },
  {
    "geonameId": 846632,
    "name": "Balderö Grynnorna",
    "latitude": 60.1813,
    "longitude": 20.38046,
    "category": "Island",
    "subcategory": "Island",
    "featured": false,
    "priority": 50
  },
  {
    "geonameId": 660776,
    "name": "Balderön",
    "latitude": 60.19266,
    "longitude": 20.35791,
    "category": "Island",
    "subcategory": "Island",
    "featured": false,
    "priority": 50
  },
  {
    "geonameId": 3336795,
    "name": "Bankholmen",
    "latitude": 60.33583,
    "longitude": 19.82227,
    "category": "Island",
    "subcategory": "Island",
    "featured": false,
    "priority": 50
  },
  {
    "geonameId": 660773,
    "name": "Bänö",
    "latitude": 60.09575,
    "longitude": 20.58369,
    "category": "Island",
    "subcategory": "Island",
    "featured": false,
    "priority": 50
  },
  {
    "geonameId": 660768,
    "name": "Bärö",
    "latitude": 60.3228,
    "longitude": 21.03081,
    "category": "Island",
    "subcategory": "Island",
    "featured": false,
    "priority": 50
  },
  {
    "geonameId": 12362148,
    "name": "Bärö kobborna",
    "latitude": 60.32254,
    "longitude": 21.00821,
    "category": "Island",
    "subcategory": "Island",
    "featured": false,
    "priority": 50
  },
  {
    "geonameId": 3336690,
    "name": "Barskär",
    "latitude": 60.32803,
    "longitude": 19.82827,
    "category": "Island",
    "subcategory": "Island",
    "featured": false,
    "priority": 50
  },
  {
    "geonameId": 660702,
    "name": "Bässkär",
    "latitude": 59.90466,
    "longitude": 20.88833,
    "category": "Island",
    "subcategory": "Island",
    "featured": false,
    "priority": 50
  },
  {
    "geonameId": 12362146,
    "name": "Bastholm",
    "latitude": 60.31359,
    "longitude": 20.99902,
    "category": "Island",
    "subcategory": "Island",
    "featured": false,
    "priority": 50
  },
  {
    "geonameId": 12379224,
    "name": "Bastuklobben",
    "latitude": 60.43012,
    "longitude": 20.37747,
    "category": "Island",
    "subcategory": "Island",
    "featured": false,
    "priority": 50
  },
  {
    "geonameId": 850168,
    "name": "Båtskär",
    "latitude": 60.59165,
    "longitude": 20.88669,
    "category": "Island",
    "subcategory": "Island",
    "featured": false,
    "priority": 50
  },
  {
    "geonameId": 846073,
    "name": "Bengtsholm",
    "latitude": 59.88234,
    "longitude": 20.94503,
    "category": "Island",
    "subcategory": "Island",
    "featured": false,
    "priority": 50
  },
  {
    "geonameId": 846613,
    "name": "Berghagen",
    "latitude": 60.21171,
    "longitude": 20.47839,
    "category": "Island",
    "subcategory": "Island",
    "featured": false,
    "priority": 50
  },
  {
    "geonameId": 849743,
    "name": "Bergholm",
    "latitude": 60.3075,
    "longitude": 20.97639,
    "category": "Island",
    "subcategory": "Island",
    "featured": false,
    "priority": 50
  },
  {
    "geonameId": 3336664,
    "name": "Bergholmen",
    "latitude": 60.26065,
    "longitude": 19.77706,
    "category": "Island",
    "subcategory": "Island",
    "featured": false,
    "priority": 50
  },
  {
    "geonameId": 849789,
    "name": "Berglandet",
    "latitude": 60.33298,
    "longitude": 20.58087,
    "category": "Island",
    "subcategory": "Island",
    "featured": false,
    "priority": 50
  },
  {
    "geonameId": 660709,
    "name": "Bergö",
    "latitude": 60.16433,
    "longitude": 20.41302,
    "category": "Island",
    "subcategory": "Island",
    "featured": false,
    "priority": 50
  },
  {
    "geonameId": 660713,
    "name": "Bergön",
    "latitude": 60.29496,
    "longitude": 20.30449,
    "category": "Island",
    "subcategory": "Island",
    "featured": false,
    "priority": 50
  },
  {
    "geonameId": 660700,
    "name": "Bergskär",
    "latitude": 59.95603,
    "longitude": 20.30217,
    "category": "Island",
    "subcategory": "Island",
    "featured": false,
    "priority": 50
  },
  {
    "geonameId": 845851,
    "name": "Bergskären",
    "latitude": 60.015,
    "longitude": 20.0675,
    "category": "Island",
    "subcategory": "Island Group",
    "featured": false,
    "priority": 50
  },
  {
    "geonameId": 850027,
    "name": "Bernholm",
    "latitude": 60.45013,
    "longitude": 20.96918,
    "category": "Island",
    "subcategory": "Island",
    "featured": false,
    "priority": 50
  },
  {
    "geonameId": 3336481,
    "name": "Bjärstöms Träsk",
    "latitude": 60.21833,
    "longitude": 19.86611,
    "category": "Lake",
    "subcategory": "Lake",
    "featured": false,
    "priority": 50
  },
  {
    "geonameId": 850223,
    "name": "Björby Träsk",
    "latitude": 60.26167,
    "longitude": 20.13048,
    "category": "Lake",
    "subcategory": "Lake",
    "featured": false,
    "priority": 50
  },
  {
    "geonameId": 850020,
    "name": "Björkhäran",
    "latitude": 60.42162,
    "longitude": 20.84946,
    "category": "Island",
    "subcategory": "Island",
    "featured": false,
    "priority": 50
  },
  {
    "geonameId": 3336793,
    "name": "Björkholm",
    "latitude": 60.34417,
    "longitude": 19.77333,
    "category": "Island",
    "subcategory": "Island",
    "featured": false,
    "priority": 50
  },
  {
    "geonameId": 846278,
    "name": "Björkkläppen",
    "latitude": 60.06582,
    "longitude": 20.59836,
    "category": "Island",
    "subcategory": "Island",
    "featured": false,
    "priority": 50
  },
  {
    "geonameId": 12379107,
    "name": "Björkkobba",
    "latitude": 60.40138,
    "longitude": 20.29372,
    "category": "Island",
    "subcategory": "Island",
    "featured": false,
    "priority": 50
  },
  {
    "geonameId": 660651,
    "name": "Björkö",
    "latitude": 60.01278,
    "longitude": 20.03917,
    "category": "Island",
    "subcategory": "Island",
    "featured": false,
    "priority": 50
  },
  {
    "geonameId": 660649,
    "name": "Björkör",
    "latitude": 59.93882,
    "longitude": 20.21966,
    "category": "Island",
    "subcategory": "Island",
    "featured": false,
    "priority": 50
  },
  {
    "geonameId": 12362133,
    "name": "Björkören",
    "latitude": 60.27391,
    "longitude": 21.07073,
    "category": "Island",
    "subcategory": "Island",
    "featured": false,
    "priority": 50
  },
  {
    "geonameId": 660648,
    "name": "Björkskär",
    "latitude": 60.43762,
    "longitude": 20.26854,
    "category": "Island",
    "subcategory": "Island",
    "featured": false,
    "priority": 50
  },
  {
    "geonameId": 660638,
    "name": "Björnholma",
    "latitude": 60.43382,
    "longitude": 21.03485,
    "category": "Island",
    "subcategory": "Island",
    "featured": false,
    "priority": 50
  },
  {
    "geonameId": 849786,
    "name": "Björnklobbarna",
    "latitude": 60.31977,
    "longitude": 20.5899,
    "category": "Island",
    "subcategory": "Island Group",
    "featured": false,
    "priority": 50
  },
  {
    "geonameId": 849932,
    "name": "Blackskär",
    "latitude": 60.35559,
    "longitude": 20.80382,
    "category": "Island",
    "subcategory": "Island",
    "featured": false,
    "priority": 50
  },
  {
    "geonameId": 660617,
    "name": "Blåskär",
    "latitude": 60.17845,
    "longitude": 20.99463,
    "category": "Island",
    "subcategory": "Island Group",
    "featured": false,
    "priority": 50
  },
  {
    "geonameId": 12379186,
    "name": "Blekan",
    "latitude": 60.44485,
    "longitude": 20.18102,
    "category": "Island",
    "subcategory": "Island",
    "featured": false,
    "priority": 50
  },
  {
    "geonameId": 12379197,
    "name": "Blekhällarna",
    "latitude": 60.4523,
    "longitude": 20.25793,
    "category": "Island",
    "subcategory": "Island",
    "featured": false,
    "priority": 50
  },
  {
    "geonameId": 846456,
    "name": "Blekörarna",
    "latitude": 60.14312,
    "longitude": 20.52003,
    "category": "Island",
    "subcategory": "Island",
    "featured": false,
    "priority": 50
  },
  {
    "geonameId": 660666,
    "name": "Bockhär ören",
    "latitude": 60.38613,
    "longitude": 20.48837,
    "category": "Island",
    "subcategory": "Island Group",
    "featured": false,
    "priority": 50
  },
  {
    "geonameId": 849877,
    "name": "Bockhärorna",
    "latitude": 60.38749,
    "longitude": 20.48165,
    "category": "Island",
    "subcategory": "Island Group",
    "featured": false,
    "priority": 50
  },
  {
    "geonameId": 845845,
    "name": "Bockholm",
    "latitude": 60.01726,
    "longitude": 20.10541,
    "category": "Island",
    "subcategory": "Island",
    "featured": false,
    "priority": 50
  },
  {
    "geonameId": 849812,
    "name": "Bockholmen",
    "latitude": 60.30522,
    "longitude": 20.29426,
    "category": "Island",
    "subcategory": "Island",
    "featured": false,
    "priority": 50
  },
  {
    "geonameId": 3336786,
    "name": "Bockskär",
    "latitude": 60.37506,
    "longitude": 19.6747,
    "category": "Island",
    "subcategory": "Island",
    "featured": false,
    "priority": 50
  },
  {
    "geonameId": 849744,
    "name": "Bodholm",
    "latitude": 60.31433,
    "longitude": 20.96397,
    "category": "Island",
    "subcategory": "Island",
    "featured": false,
    "priority": 50
  },
  {
    "geonameId": 850106,
    "name": "Bogrund",
    "latitude": 60.42542,
    "longitude": 20.27658,
    "category": "Island",
    "subcategory": "Island",
    "featured": false,
    "priority": 50
  },
  {
    "geonameId": 3336403,
    "name": "Bogskär",
    "latitude": 60.08841,
    "longitude": 19.7855,
    "category": "Island",
    "subcategory": "Island",
    "featured": false,
    "priority": 50
  },
  {
    "geonameId": 849961,
    "name": "Bokils örarna",
    "latitude": 60.40004,
    "longitude": 20.77683,
    "category": "Island",
    "subcategory": "Island Group",
    "featured": false,
    "priority": 50
  },
  {
    "geonameId": 12379187,
    "name": "Bolmklobbarna",
    "latitude": 60.45051,
    "longitude": 20.18028,
    "category": "Island",
    "subcategory": "Island",
    "featured": false,
    "priority": 50
  },
  {
    "geonameId": 660569,
    "name": "Bolmö",
    "latitude": 60.48979,
    "longitude": 21.07695,
    "category": "Island",
    "subcategory": "Island",
    "featured": false,
    "priority": 50
  },
  {
    "geonameId": 3336854,
    "name": "Bolstaholmsträsket",
    "latitude": 60.35139,
    "longitude": 19.86278,
    "category": "Lake",
    "subcategory": "Lake",
    "featured": false,
    "priority": 50
  },
  {
    "geonameId": 12379178,
    "name": "Bönnklobben",
    "latitude": 60.4341,
    "longitude": 20.02162,
    "category": "Island",
    "subcategory": "Island",
    "featured": false,
    "priority": 50
  },
  {
    "geonameId": 3041826,
    "name": "Borgö",
    "latitude": 60.17345,
    "longitude": 19.68381,
    "category": "Island",
    "subcategory": "Island",
    "featured": false,
    "priority": 50
  },
  {
    "geonameId": 850221,
    "name": "Borgsjö",
    "latitude": 60.27105,
    "longitude": 20.16642,
    "category": "Lake",
    "subcategory": "Lake",
    "featured": false,
    "priority": 50
  },
  {
    "geonameId": 854371,
    "name": "Börkeholm",
    "latitude": 60.54422,
    "longitude": 21.04661,
    "category": "Island",
    "subcategory": "Island",
    "featured": false,
    "priority": 50
  },
  {
    "geonameId": 12362142,
    "name": "Börkören",
    "latitude": 60.30926,
    "longitude": 21.03259,
    "category": "Island",
    "subcategory": "Island",
    "featured": false,
    "priority": 50
  },
  {
    "geonameId": 846300,
    "name": "Börsholm",
    "latitude": 60.00738,
    "longitude": 20.55608,
    "category": "Island",
    "subcategory": "Island",
    "featured": false,
    "priority": 50
  },
  {
    "geonameId": 12379204,
    "name": "Börsklobben",
    "latitude": 60.49335,
    "longitude": 20.26296,
    "category": "Island",
    "subcategory": "Island",
    "featured": false,
    "priority": 50
  },
  {
    "geonameId": 850249,
    "name": "Börssalen",
    "latitude": 60.40254,
    "longitude": 20.07783,
    "category": "Island",
    "subcategory": "Island",
    "featured": false,
    "priority": 50
  },
  {
    "geonameId": 660554,
    "name": "Börsskär",
    "latitude": 60.38218,
    "longitude": 20.79585,
    "category": "Island",
    "subcategory": "Island",
    "featured": false,
    "priority": 50
  },
  {
    "geonameId": 636119,
    "name": "Börsskärs grundet",
    "latitude": 60.21757,
    "longitude": 20.49726,
    "category": "Island",
    "subcategory": "Island",
    "featured": false,
    "priority": 50
  },
  {
    "geonameId": 3336334,
    "name": "Börtskären",
    "latitude": 60.0325,
    "longitude": 19.93639,
    "category": "Island",
    "subcategory": "Island Group",
    "featured": false,
    "priority": 50
  },
  {
    "geonameId": 845989,
    "name": "Botelskär",
    "latitude": 59.9586,
    "longitude": 20.3298,
    "category": "Island",
    "subcategory": "Island",
    "featured": false,
    "priority": 50
  },
  {
    "geonameId": 3336839,
    "name": "Boträsk",
    "latitude": 60.41361,
    "longitude": 19.87917,
    "category": "Lake",
    "subcategory": "Lake",
    "featured": false,
    "priority": 50
  },
  {
    "geonameId": 846459,
    "name": "Bötskär",
    "latitude": 60.14926,
    "longitude": 20.57415,
    "category": "Island",
    "subcategory": "Island",
    "featured": false,
    "priority": 50
  },
  {
    "geonameId": 660535,
    "name": "Boxö",
    "latitude": 60.39103,
    "longitude": 20.09963,
    "category": "Island",
    "subcategory": "Island",
    "featured": false,
    "priority": 50
  },
  {
    "geonameId": 12368010,
    "name": "Boxö ön",
    "latitude": 60.38303,
    "longitude": 20.12151,
    "category": "Island",
    "subcategory": "Island",
    "featured": false,
    "priority": 50
  },
  {
    "geonameId": 846473,
    "name": "Brandholm",
    "latitude": 60.11885,
    "longitude": 20.58554,
    "category": "Island",
    "subcategory": "Island",
    "featured": false,
    "priority": 50
  },
  {
    "geonameId": 846350,
    "name": "Brändholm",
    "latitude": 60.05653,
    "longitude": 20.39814,
    "category": "Island",
    "subcategory": "Island",
    "featured": false,
    "priority": 50
  },
  {
    "geonameId": 660521,
    "name": "Brändö",
    "latitude": 60.41165,
    "longitude": 21.04534,
    "category": "City",
    "subcategory": "County Seat",
    "featured": false,
    "priority": 50
  },
  {
    "geonameId": 660516,
    "name": "Brändön",
    "latitude": 60.02592,
    "longitude": 20.32699,
    "category": "Island",
    "subcategory": "Island",
    "featured": false,
    "priority": 50
  },
  {
    "geonameId": 846592,
    "name": "Brändören",
    "latitude": 60.17884,
    "longitude": 20.73384,
    "category": "Island",
    "subcategory": "Island",
    "featured": false,
    "priority": 50
  },
  {
    "geonameId": 639022,
    "name": "Brännskär",
    "latitude": 60.26066,
    "longitude": 20.50293,
    "category": "Island",
    "subcategory": "Island",
    "featured": false,
    "priority": 50
  },
  {
    "geonameId": 846019,
    "name": "Bränstenskär",
    "latitude": 59.94367,
    "longitude": 20.58139,
    "category": "Island",
    "subcategory": "Island",
    "featured": false,
    "priority": 50
  },
  {
    "geonameId": 660496,
    "name": "Bredgadden",
    "latitude": 59.90474,
    "longitude": 20.00962,
    "category": "Island",
    "subcategory": "Island",
    "featured": false,
    "priority": 50
  },
  {
    "geonameId": 846297,
    "name": "Bredkläppen",
    "latitude": 60.00322,
    "longitude": 20.6245,
    "category": "Island",
    "subcategory": "Island",
    "featured": false,
    "priority": 50
  },
  {
    "geonameId": 846518,
    "name": "Bredören",
    "latitude": 60.16013,
    "longitude": 20.7328,
    "category": "Island",
    "subcategory": "Island",
    "featured": false,
    "priority": 50
  },
  {
    "geonameId": 660484,
    "name": "Bredskär",
    "latitude": 60.42803,
    "longitude": 20.08363,
    "category": "Island",
    "subcategory": "Island",
    "featured": false,
    "priority": 50
  },
  {
    "geonameId": 12379183,
    "name": "Bredskärshällen",
    "latitude": 60.43095,
    "longitude": 20.08905,
    "category": "Island",
    "subcategory": "Island",
    "featured": false,
    "priority": 50
  },
  {
    "geonameId": 660455,
    "name": "Briggskär",
    "latitude": 59.88333,
    "longitude": 21.01667,
    "category": "Island",
    "subcategory": "Island",
    "featured": false,
    "priority": 50
  },
  {
    "geonameId": 12362121,
    "name": "Brok ören",
    "latitude": 60.26545,
    "longitude": 20.9673,
    "category": "Island",
    "subcategory": "Island",
    "featured": false,
    "priority": 50
  },
  {
    "geonameId": 846182,
    "name": "Brumanhära",
    "latitude": 59.99493,
    "longitude": 20.87298,
    "category": "Island",
    "subcategory": "Island",
    "featured": false,
    "priority": 50
  },
  {
    "geonameId": 846151,
    "name": "Brunnskär",
    "latitude": 59.96201,
    "longitude": 20.4582,
    "category": "Island",
    "subcategory": "Island",
    "featured": false,
    "priority": 50
  },
  {
    "geonameId": 850098,
    "name": "Brunnskobban",
    "latitude": 60.44295,
    "longitude": 20.38394,
    "category": "Island",
    "subcategory": "Island",
    "featured": false,
    "priority": 50
  },
  {
    "geonameId": 660459,
    "name": "Brunnsö",
    "latitude": 60.36894,
    "longitude": 21.08153,
    "category": "Island",
    "subcategory": "Island",
    "featured": false,
    "priority": 50
  },
  {
    "geonameId": 12382236,
    "name": "Buskär",
    "latitude": 60.26912,
    "longitude": 21.00762,
    "category": "Island",
    "subcategory": "Island Group",
    "featured": false,
    "priority": 50
  },
  {
    "geonameId": 846562,
    "name": "Buskhäran",
    "latitude": 60.18839,
    "longitude": 20.81419,
    "category": "Island",
    "subcategory": "Island",
    "featured": false,
    "priority": 50
  },
  {
    "geonameId": 846603,
    "name": "Buskörarna",
    "latitude": 60.20115,
    "longitude": 20.56939,
    "category": "Island",
    "subcategory": "Island Group",
    "featured": false,
    "priority": 50
  },
  {
    "geonameId": 845784,
    "name": "Buskskär",
    "latitude": 59.96774,
    "longitude": 20.17516,
    "category": "Island",
    "subcategory": "Island",
    "featured": false,
    "priority": 50
  },
  {
    "geonameId": 846503,
    "name": "Busskär",
    "latitude": 60.09257,
    "longitude": 20.72037,
    "category": "Island",
    "subcategory": "Island",
    "featured": false,
    "priority": 50
  },
  {
    "geonameId": 660448,
    "name": "Bussö",
    "latitude": 60.16667,
    "longitude": 20.33333,
    "category": "Island",
    "subcategory": "Island",
    "featured": false,
    "priority": 50
  },
  {
    "geonameId": 845835,
    "name": "Buträsk",
    "latitude": 60.07778,
    "longitude": 20.00194,
    "category": "Lake",
    "subcategory": "Lake",
    "featured": false,
    "priority": 50
  },
  {
    "geonameId": 846653,
    "name": "Byholm",
    "latitude": 60.21618,
    "longitude": 20.32315,
    "category": "Island",
    "subcategory": "Island",
    "featured": false,
    "priority": 50
  },
  {
    "geonameId": 3336842,
    "name": "Byträsk",
    "latitude": 60.36639,
    "longitude": 19.87611,
    "category": "Lake",
    "subcategory": "Lake",
    "featured": false,
    "priority": 50
  },
  {
    "geonameId": 850245,
    "name": "Dalsträsk",
    "latitude": 60.3375,
    "longitude": 20.00028,
    "category": "Lake",
    "subcategory": "Lake",
    "featured": false,
    "priority": 50
  },
  {
    "geonameId": 3041819,
    "name": "Dånö",
    "latitude": 60.39465,
    "longitude": 19.77926,
    "category": "Island",
    "subcategory": "Island",
    "featured": false,
    "priority": 50
  },
  {
    "geonameId": 849717,
    "name": "Dansos Hattskär",
    "latitude": 60.25864,
    "longitude": 20.86999,
    "category": "Island",
    "subcategory": "Island",
    "featured": false,
    "priority": 50
  },
  {
    "geonameId": 649481,
    "name": "De låga",
    "latitude": 60.43407,
    "longitude": 20.66821,
    "category": "Island",
    "subcategory": "Island",
    "featured": false,
    "priority": 50
  },
  {
    "geonameId": 660416,
    "name": "Degerbrok",
    "latitude": 60.25948,
    "longitude": 20.97909,
    "category": "Island",
    "subcategory": "Island",
    "featured": false,
    "priority": 50
  },
  {
    "geonameId": 849529,
    "name": "Degerkuggskär",
    "latitude": 59.87222,
    "longitude": 21.00389,
    "category": "Island",
    "subcategory": "Island",
    "featured": false,
    "priority": 50
  },
  {
    "geonameId": 660409,
    "name": "Degerö",
    "latitude": 60.03862,
    "longitude": 20.41648,
    "category": "Island",
    "subcategory": "Island",
    "featured": false,
    "priority": 50
  },
  {
    "geonameId": 3041814,
    "name": "Degerskär",
    "latitude": 60.18333,
    "longitude": 19.31667,
    "category": "Island",
    "subcategory": "Island Group",
    "featured": false,
    "priority": 50
  },
  {
    "geonameId": 854373,
    "name": "Degringsklobbarna",
    "latitude": 60.54653,
    "longitude": 21.00454,
    "category": "Island",
    "subcategory": "Island Group",
    "featured": false,
    "priority": 50
  },
  {
    "geonameId": 846420,
    "name": "Delholm",
    "latitude": 60.09778,
    "longitude": 20.49938,
    "category": "Island",
    "subcategory": "Island",
    "featured": false,
    "priority": 50
  },
  {
    "geonameId": 12362207,
    "name": "Delören",
    "latitude": 60.36616,
    "longitude": 21.01787,
    "category": "Island",
    "subcategory": "Island",
    "featured": false,
    "priority": 50
  },
  {
    "geonameId": 660379,
    "name": "Dömmanskär",
    "latitude": 59.98659,
    "longitude": 20.89999,
    "category": "Island",
    "subcategory": "Island",
    "featured": false,
    "priority": 50
  },
  {
    "geonameId": 849925,
    "name": "Dömmarskär",
    "latitude": 60.35776,
    "longitude": 20.64476,
    "category": "Island",
    "subcategory": "Island",
    "featured": false,
    "priority": 50
  },
  {
    "geonameId": 849847,
    "name": "Dorsholm",
    "latitude": 60.35304,
    "longitude": 20.28762,
    "category": "Island",
    "subcategory": "Island",
    "featured": false,
    "priority": 50
  },
  {
    "geonameId": 849773,
    "name": "Dössängs ören",
    "latitude": 60.27678,
    "longitude": 20.82185,
    "category": "Island",
    "subcategory": "Island",
    "featured": false,
    "priority": 50
  },
  {
    "geonameId": 853960,
    "name": "Dragskär",
    "latitude": 60.32768,
    "longitude": 21.08117,
    "category": "Island",
    "subcategory": "Island",
    "featured": false,
    "priority": 50
  },
  {
    "geonameId": 846236,
    "name": "Dragsö",
    "latitude": 60.06075,
    "longitude": 20.72955,
    "category": "Island",
    "subcategory": "Island",
    "featured": false,
    "priority": 50
  },
  {
    "geonameId": 846581,
    "name": "Dragsören",
    "latitude": 60.20836,
    "longitude": 20.71489,
    "category": "Island",
    "subcategory": "Island",
    "featured": false,
    "priority": 50
  },
  {
    "geonameId": 3041811,
    "name": "Druvan",
    "latitude": 60.06195,
    "longitude": 19.88196,
    "category": "Island",
    "subcategory": "Island",
    "featured": false,
    "priority": 50
  },
  {
    "geonameId": 846173,
    "name": "Dunkavelkobb",
    "latitude": 59.99096,
    "longitude": 20.70252,
    "category": "Island",
    "subcategory": "Island",
    "featured": false,
    "priority": 50
  },
  {
    "geonameId": 846223,
    "name": "Dunminne",
    "latitude": 60.06555,
    "longitude": 20.82815,
    "category": "Island",
    "subcategory": "Island",
    "featured": false,
    "priority": 50
  },
  {
    "geonameId": 12362134,
    "name": "Dussören",
    "latitude": 60.28648,
    "longitude": 21.0556,
    "category": "Island",
    "subcategory": "Island",
    "featured": false,
    "priority": 50
  },
  {
    "geonameId": 3041807,
    "name": "Eckerö",
    "latitude": 60.21249,
    "longitude": 19.61442,
    "category": "City",
    "subcategory": "County Seat",
    "featured": false,
    "priority": 50
  },
  {
    "geonameId": 846291,
    "name": "Egloskär",
    "latitude": 60.02041,
    "longitude": 20.62663,
    "category": "Island",
    "subcategory": "Island",
    "featured": false,
    "priority": 50
  },
  {
    "geonameId": 846255,
    "name": "Ejskär",
    "latitude": 60.02778,
    "longitude": 20.82896,
    "category": "Island",
    "subcategory": "Island",
    "featured": false,
    "priority": 50
  },
  {
    "geonameId": 846353,
    "name": "Ekholm",
    "latitude": 60.06343,
    "longitude": 20.47844,
    "category": "Island",
    "subcategory": "Island",
    "featured": false,
    "priority": 50
  },
  {
    "geonameId": 3336658,
    "name": "Ekö",
    "latitude": 60.27165,
    "longitude": 19.83913,
    "category": "Island",
    "subcategory": "Island",
    "featured": false,
    "priority": 50
  },
  {
    "geonameId": 3041805,
    "name": "Emskär",
    "latitude": 60.28091,
    "longitude": 19.47213,
    "category": "Island",
    "subcategory": "Island",
    "featured": false,
    "priority": 50
  },
  {
    "geonameId": 660246,
    "name": "Enklinge",
    "latitude": 60.33678,
    "longitude": 20.75399,
    "category": "Island",
    "subcategory": "Island",
    "featured": false,
    "priority": 50
  },
  {
    "geonameId": 660221,
    "name": "Enskär",
    "latitude": 60.12202,
    "longitude": 20.57889,
    "category": "Island",
    "subcategory": "Island",
    "featured": false,
    "priority": 50
  },
  {
    "geonameId": 846573,
    "name": "Enskärs ören",
    "latitude": 60.22141,
    "longitude": 20.8198,
    "category": "Island",
    "subcategory": "Island",
    "featured": false,
    "priority": 50
  },
  {
    "geonameId": 3336779,
    "name": "Ersklobb",
    "latitude": 60.40622,
    "longitude": 19.70873,
    "category": "Island",
    "subcategory": "Island",
    "featured": false,
    "priority": 50
  },
  {
    "geonameId": 846106,
    "name": "Eskäret",
    "latitude": 59.81345,
    "longitude": 20.94695,
    "category": "Island",
    "subcategory": "Island",
    "featured": false,
    "priority": 50
  },
  {
    "geonameId": 846234,
    "name": "Essklobba",
    "latitude": 60.05342,
    "longitude": 20.73976,
    "category": "Island",
    "subcategory": "Island",
    "featured": false,
    "priority": 50
  },
  {
    "geonameId": 660122,
    "name": "Esteskär",
    "latitude": 59.98333,
    "longitude": 21.01667,
    "category": "Island",
    "subcategory": "Island",
    "featured": false,
    "priority": 50
  },
  {
    "geonameId": 846254,
    "name": "Fåfängskär",
    "latitude": 60.0281,
    "longitude": 20.8147,
    "category": "Island",
    "subcategory": "Island",
    "featured": false,
    "priority": 50
  },
  {
    "geonameId": 854342,
    "name": "Fågelholm",
    "latitude": 60.49377,
    "longitude": 21.09445,
    "category": "Island",
    "subcategory": "Island",
    "featured": false,
    "priority": 50
  },
  {
    "geonameId": 3336606,
    "name": "Fågelö",
    "latitude": 60.24035,
    "longitude": 19.6567,
    "category": "Island",
    "subcategory": "Island",
    "featured": false,
    "priority": 50
  },
  {
    "geonameId": 3336828,
    "name": "Fagernäs Träsk",
    "latitude": 60.41778,
    "longitude": 19.87194,
    "category": "Lake",
    "subcategory": "Lake",
    "featured": false,
    "priority": 50
  },
  {
    "geonameId": 850006,
    "name": "Falkklobb",
    "latitude": 60.38456,
    "longitude": 20.94999,
    "category": "Island",
    "subcategory": "Island",
    "featured": false,
    "priority": 50
  },
  {
    "geonameId": 846619,
    "name": "Farfars ören",
    "latitude": 60.22289,
    "longitude": 20.43158,
    "category": "Island",
    "subcategory": "Island",
    "featured": false,
    "priority": 50
  },
  {
    "geonameId": 3336685,
    "name": "Fasjö",
    "latitude": 60.28083,
    "longitude": 19.77056,
    "category": "Lake",
    "subcategory": "Lake",
    "featured": false,
    "priority": 50
  },
  {
    "geonameId": 845928,
    "name": "Fastersbyön",
    "latitude": 60.22375,
    "longitude": 20.02843,
    "category": "Island",
    "subcategory": "Island",
    "featured": false,
    "priority": 50
  },
  {
    "geonameId": 12379117,
    "name": "Fetörarna",
    "latitude": 60.413,
    "longitude": 20.27894,
    "category": "Island",
    "subcategory": "Island",
    "featured": false,
    "priority": 50
  },
  {
    "geonameId": 3041803,
    "name": "Finbo",
    "latitude": 60.35154,
    "longitude": 19.58836,
    "category": "Island",
    "subcategory": "Island",
    "featured": false,
    "priority": 50
  },
  {
    "geonameId": 849777,
    "name": "Finnklobben",
    "latitude": 60.25844,
    "longitude": 20.53257,
    "category": "Island",
    "subcategory": "Island",
    "featured": false,
    "priority": 50
  },
  {
    "geonameId": 660000,
    "name": "Finnö",
    "latitude": 59.93333,
    "longitude": 20.95,
    "category": "Island",
    "subcategory": "Island",
    "featured": false,
    "priority": 50
  },
  {
    "geonameId": 846458,
    "name": "Finnören",
    "latitude": 60.13557,
    "longitude": 20.50533,
    "category": "Island",
    "subcategory": "Island",
    "featured": false,
    "priority": 50
  },
  {
    "geonameId": 3041798,
    "name": "Finström",
    "latitude": 60.26667,
    "longitude": 19.93333,
    "category": "City",
    "subcategory": "County Seat",
    "featured": false,
    "priority": 50
  },
  {
    "geonameId": 659986,
    "name": "Fiskö",
    "latitude": 60.45692,
    "longitude": 20.94242,
    "category": "Island",
    "subcategory": "Island",
    "featured": false,
    "priority": 50
  },
  {
    "geonameId": 854321,
    "name": "Fiskörarna",
    "latitude": 60.45109,
    "longitude": 21.0175,
    "category": "Island",
    "subcategory": "Island",
    "featured": false,
    "priority": 50
  },
  {
    "geonameId": 846183,
    "name": "Fiskskär",
    "latitude": 59.99827,
    "longitude": 20.93496,
    "category": "Island",
    "subcategory": "Island",
    "featured": false,
    "priority": 50
  },
  {
    "geonameId": 12362200,
    "name": "Fiskskärs revet",
    "latitude": 60.36415,
    "longitude": 21.02657,
    "category": "Island",
    "subcategory": "Island",
    "featured": false,
    "priority": 50
  },
  {
    "geonameId": 846380,
    "name": "Fjärdgrunden",
    "latitude": 60.02018,
    "longitude": 20.28361,
    "category": "Island",
    "subcategory": "Island",
    "featured": false,
    "priority": 50
  },
  {
    "geonameId": 845890,
    "name": "Fjärdskär",
    "latitude": 60.17911,
    "longitude": 20.21519,
    "category": "Island",
    "subcategory": "Island",
    "featured": false,
    "priority": 50
  },
  {
    "geonameId": 659976,
    "name": "Flabbskär",
    "latitude": 59.95,
    "longitude": 20.4,
    "category": "Island",
    "subcategory": "Island",
    "featured": false,
    "priority": 50
  },
  {
    "geonameId": 3336735,
    "name": "Fladan",
    "latitude": 60.29694,
    "longitude": 19.60361,
    "category": "Lake",
    "subcategory": "Lake",
    "featured": false,
    "priority": 50
  },
  {
    "geonameId": 846121,
    "name": "Flakholm",
    "latitude": 59.97008,
    "longitude": 20.31843,
    "category": "Island",
    "subcategory": "Island",
    "featured": false,
    "priority": 50
  },
  {
    "geonameId": 659956,
    "name": "Flåskär",
    "latitude": 59.9,
    "longitude": 20.6,
    "category": "Island",
    "subcategory": "Island Group",
    "featured": false,
    "priority": 50
  },
  {
    "geonameId": 659968,
    "name": "Flatgrund",
    "latitude": 60.33027,
    "longitude": 21.07247,
    "category": "Island",
    "subcategory": "Island Group",
    "featured": false,
    "priority": 50
  },
  {
    "geonameId": 12362150,
    "name": "Flatgrundet",
    "latitude": 60.32728,
    "longitude": 21.01102,
    "category": "Island",
    "subcategory": "Island",
    "featured": false,
    "priority": 50
  },
  {
    "geonameId": 845876,
    "name": "Flatholm",
    "latitude": 60.12116,
    "longitude": 20.2083,
    "category": "Island",
    "subcategory": "Island",
    "featured": false,
    "priority": 50
  },
  {
    "geonameId": 845759,
    "name": "Flatholmen",
    "latitude": 59.99863,
    "longitude": 20.08923,
    "category": "Island",
    "subcategory": "Island",
    "featured": false,
    "priority": 50
  },
  {
    "geonameId": 846601,
    "name": "Flatkläppen",
    "latitude": 60.17732,
    "longitude": 20.56441,
    "category": "Island",
    "subcategory": "Island",
    "featured": false,
    "priority": 50
  },
  {
    "geonameId": 659966,
    "name": "Flatö",
    "latitude": 60.38827,
    "longitude": 20.03271,
    "category": "Island",
    "subcategory": "Island",
    "featured": false,
    "priority": 50
  },
  {
    "geonameId": 659965,
    "name": "Flatör",
    "latitude": 59.87999,
    "longitude": 20.67174,
    "category": "Island",
    "subcategory": "Island Group",
    "featured": false,
    "priority": 50
  },
  {
    "geonameId": 659964,
    "name": "Flatskär",
    "latitude": 60.12762,
    "longitude": 20.71143,
    "category": "Island",
    "subcategory": "Island",
    "featured": false,
    "priority": 50
  },
  {
    "geonameId": 846146,
    "name": "Flintskär",
    "latitude": 59.99309,
    "longitude": 20.48922,
    "category": "Island",
    "subcategory": "Island",
    "featured": false,
    "priority": 50
  },
  {
    "geonameId": 659959,
    "name": "Flisö",
    "latitude": 60,
    "longitude": 20.36667,
    "category": "Island",
    "subcategory": "Island",
    "featured": false,
    "priority": 50
  },
  {
    "geonameId": 850085,
    "name": "Flöjskär",
    "latitude": 60.49152,
    "longitude": 20.50057,
    "category": "Island",
    "subcategory": "Island Group",
    "featured": false,
    "priority": 50
  },
  {
    "geonameId": 3336380,
    "name": "Flyttan",
    "latitude": 60.1525,
    "longitude": 19.61139,
    "category": "Island",
    "subcategory": "Island",
    "featured": false,
    "priority": 50
  },
  {
    "geonameId": 846483,
    "name": "Foderholmen",
    "latitude": 60.10773,
    "longitude": 20.58622,
    "category": "Island",
    "subcategory": "Island",
    "featured": false,
    "priority": 50
  },
  {
    "geonameId": 659949,
    "name": "Föglö",
    "latitude": 60.01392,
    "longitude": 20.41377,
    "category": "City",
    "subcategory": "County Seat",
    "featured": false,
    "priority": 50
  },
  {
    "geonameId": 659947,
    "name": "Föglö Udd",
    "latitude": 59.83333,
    "longitude": 20.58333,
    "category": "Island",
    "subcategory": "Island",
    "featured": false,
    "priority": 50
  },
  {
    "geonameId": 660038,
    "name": "Folmskär",
    "latitude": 60.40046,
    "longitude": 20.27033,
    "category": "Island",
    "subcategory": "Island",
    "featured": false,
    "priority": 50
  },
  {
    "geonameId": 845940,
    "name": "Fölskär",
    "latitude": 59.81709,
    "longitude": 20.95285,
    "category": "Island",
    "subcategory": "Island",
    "featured": false,
    "priority": 50
  },
  {
    "geonameId": 846086,
    "name": "Fölskärs häran",
    "latitude": 59.83476,
    "longitude": 20.95327,
    "category": "Island",
    "subcategory": "Island",
    "featured": false,
    "priority": 50
  },
  {
    "geonameId": 12379259,
    "name": "Frasgrund",
    "latitude": 60.45137,
    "longitude": 20.39148,
    "category": "Island",
    "subcategory": "Island",
    "featured": false,
    "priority": 50
  },
  {
    "geonameId": 12362986,
    "name": "Fredagskläppen",
    "latitude": 59.99362,
    "longitude": 21.00599,
    "category": "Island",
    "subcategory": "Island",
    "featured": false,
    "priority": 50
  },
  {
    "geonameId": 12379080,
    "name": "Frihällen",
    "latitude": 60.41746,
    "longitude": 20.66569,
    "category": "Island",
    "subcategory": "Island",
    "featured": false,
    "priority": 50
  },
  {
    "geonameId": 846628,
    "name": "Furholm",
    "latitude": 60.17668,
    "longitude": 20.40329,
    "category": "Island",
    "subcategory": "Island",
    "featured": false,
    "priority": 50
  },
  {
    "geonameId": 659905,
    "name": "Furön",
    "latitude": 60.35474,
    "longitude": 20.2695,
    "category": "Island",
    "subcategory": "Island",
    "featured": false,
    "priority": 50
  },
  {
    "geonameId": 850271,
    "name": "Furskär",
    "latitude": 60.36698,
    "longitude": 20.25998,
    "category": "Island",
    "subcategory": "Island",
    "featured": false,
    "priority": 50
  },
  {
    "geonameId": 845885,
    "name": "Furuholm",
    "latitude": 60.15513,
    "longitude": 20.25546,
    "category": "Island",
    "subcategory": "Island",
    "featured": false,
    "priority": 50
  },
  {
    "geonameId": 850246,
    "name": "Furuskär",
    "latitude": 60.39666,
    "longitude": 20.01675,
    "category": "Island",
    "subcategory": "Island",
    "featured": false,
    "priority": 50
  },
  {
    "geonameId": 849670,
    "name": "Gackonskär",
    "latitude": 59.95778,
    "longitude": 21.06722,
    "category": "Island",
    "subcategory": "Island",
    "featured": false,
    "priority": 50
  },
  {
    "geonameId": 659894,
    "name": "Gadden",
    "latitude": 60.66424,
    "longitude": 20.92533,
    "category": "Island",
    "subcategory": "Island",
    "featured": false,
    "priority": 50
  },
  {
    "geonameId": 846394,
    "name": "Galggrunden",
    "latitude": 60.12843,
    "longitude": 20.31405,
    "category": "Island",
    "subcategory": "Island",
    "featured": false,
    "priority": 50
  },
  {
    "geonameId": 846568,
    "name": "Gamla Länsmans Ören",
    "latitude": 60.2048,
    "longitude": 20.78209,
    "category": "Island",
    "subcategory": "Island",
    "featured": false,
    "priority": 50
  },
  {
    "geonameId": 3041817,
    "name": "Gamlan",
    "latitude": 60.41667,
    "longitude": 19.76667,
    "category": "Island",
    "subcategory": "Island",
    "featured": false,
    "priority": 50
  },
  {
    "geonameId": 12362984,
    "name": "Gangsörarna",
    "latitude": 60.00399,
    "longitude": 20.97304,
    "category": "Island",
    "subcategory": "Island",
    "featured": false,
    "priority": 50
  },
  {
    "geonameId": 659871,
    "name": "Gåsharan",
    "latitude": 59.88493,
    "longitude": 20.60549,
    "category": "Island",
    "subcategory": "Island",
    "featured": false,
    "priority": 50
  },
  {
    "geonameId": 846268,
    "name": "Gåshäran",
    "latitude": 60.02912,
    "longitude": 20.75026,
    "category": "Island",
    "subcategory": "Island",
    "featured": false,
    "priority": 50
  },
  {
    "geonameId": 846048,
    "name": "Gåsholm",
    "latitude": 59.9556,
    "longitude": 20.98031,
    "category": "Island",
    "subcategory": "Island",
    "featured": false,
    "priority": 50
  },
  {
    "geonameId": 846274,
    "name": "Gåsholmen",
    "latitude": 60.08081,
    "longitude": 20.60437,
    "category": "Island",
    "subcategory": "Island",
    "featured": false,
    "priority": 50
  },
  {
    "geonameId": 854329,
    "name": "Gåsklobb",
    "latitude": 60.44453,
    "longitude": 21.09185,
    "category": "Island",
    "subcategory": "Island",
    "featured": false,
    "priority": 50
  },
  {
    "geonameId": 659867,
    "name": "Gåslandet",
    "latitude": 60.41653,
    "longitude": 20.52718,
    "category": "Island",
    "subcategory": "Island",
    "featured": false,
    "priority": 50
  },
  {
    "geonameId": 3041794,
    "name": "Gåsö",
    "latitude": 60.024,
    "longitude": 19.96125,
    "category": "Island",
    "subcategory": "Island",
    "featured": false,
    "priority": 50
  },
  {
    "geonameId": 659865,
    "name": "Gåsörarna",
    "latitude": 60.08333,
    "longitude": 20.85,
    "category": "Island",
    "subcategory": "Island Group",
    "featured": false,
    "priority": 50
  },
  {
    "geonameId": 853948,
    "name": "Gåsören",
    "latitude": 60.292,
    "longitude": 21.03788,
    "category": "Island",
    "subcategory": "Island",
    "featured": false,
    "priority": 50
  },
  {
    "geonameId": 659860,
    "name": "Gåsskär",
    "latitude": 60.25682,
    "longitude": 20.55233,
    "category": "Island",
    "subcategory": "Island",
    "featured": false,
    "priority": 50
  },
  {
    "geonameId": 846649,
    "name": "Gersholm",
    "latitude": 60.2276,
    "longitude": 20.32557,
    "category": "Island",
    "subcategory": "Island",
    "featured": false,
    "priority": 50
  },
  {
    "geonameId": 3041792,
    "name": "Geta",
    "latitude": 60.37453,
    "longitude": 19.84455,
    "category": "City",
    "subcategory": "County Seat",
    "featured": false,
    "priority": 50
  },
  {
    "geonameId": 3041790,
    "name": "Getaön",
    "latitude": 60.4,
    "longitude": 19.95,
    "category": "Island",
    "subcategory": "Island",
    "featured": false,
    "priority": 50
  },
  {
    "geonameId": 849960,
    "name": "Gethäran",
    "latitude": 60.40644,
    "longitude": 20.8245,
    "category": "Island",
    "subcategory": "Island",
    "featured": false,
    "priority": 50
  },
  {
    "geonameId": 846500,
    "name": "Getskär",
    "latitude": 60.15733,
    "longitude": 20.71657,
    "category": "Island",
    "subcategory": "Island",
    "featured": false,
    "priority": 50
  },
  {
    "geonameId": 854004,
    "name": "Giskär",
    "latitude": 60.35846,
    "longitude": 21.09026,
    "category": "Island",
    "subcategory": "Island",
    "featured": false,
    "priority": 50
  },
  {
    "geonameId": 846587,
    "name": "Gloholm",
    "latitude": 60.19722,
    "longitude": 20.71746,
    "category": "Island",
    "subcategory": "Island",
    "featured": false,
    "priority": 50
  },
  {
    "geonameId": 846564,
    "name": "Gloholmen",
    "latitude": 60.18786,
    "longitude": 20.79131,
    "category": "Island",
    "subcategory": "Island",
    "featured": false,
    "priority": 50
  },
  {
    "geonameId": 853988,
    "name": "Gloö",
    "latitude": 60.39158,
    "longitude": 21.04625,
    "category": "Island",
    "subcategory": "Island",
    "featured": false,
    "priority": 50
  },
  {
    "geonameId": 850004,
    "name": "Gloören",
    "latitude": 60.38703,
    "longitude": 20.96004,
    "category": "Island",
    "subcategory": "Island",
    "featured": false,
    "priority": 50
  },
  {
    "geonameId": 846486,
    "name": "Glosholm",
    "latitude": 60.09358,
    "longitude": 20.59945,
    "category": "Island",
    "subcategory": "Island",
    "featured": false,
    "priority": 50
  },
  {
    "geonameId": 659827,
    "name": "Gloskär",
    "latitude": 60.16608,
    "longitude": 20.83975,
    "category": "Island",
    "subcategory": "Island",
    "featured": false,
    "priority": 50
  },
  {
    "geonameId": 846376,
    "name": "Gödör",
    "latitude": 60.04121,
    "longitude": 20.35762,
    "category": "Island",
    "subcategory": "Island",
    "featured": false,
    "priority": 50
  },
  {
    "geonameId": 3336790,
    "name": "Gölpö",
    "latitude": 60.34339,
    "longitude": 19.70269,
    "category": "Island",
    "subcategory": "Island",
    "featured": false,
    "priority": 50
  },
  {
    "geonameId": 3336792,
    "name": "Gomholm",
    "latitude": 60.34059,
    "longitude": 19.73146,
    "category": "Island",
    "subcategory": "Island",
    "featured": false,
    "priority": 50
  },
  {
    "geonameId": 846215,
    "name": "Gomsan",
    "latitude": 60.0365,
    "longitude": 20.87152,
    "category": "Island",
    "subcategory": "Island",
    "featured": false,
    "priority": 50
  },
  {
    "geonameId": 659819,
    "name": "Gottskär",
    "latitude": 59.95,
    "longitude": 21.03333,
    "category": "Island",
    "subcategory": "Island",
    "featured": false,
    "priority": 50
  },
  {
    "geonameId": 12362106,
    "name": "Gråan",
    "latitude": 60.34508,
    "longitude": 20.93001,
    "category": "Island",
    "subcategory": "Island",
    "featured": false,
    "priority": 50
  },
  {
    "geonameId": 12360834,
    "name": "Gråbådarna",
    "latitude": 60.39297,
    "longitude": 20.93922,
    "category": "Island",
    "subcategory": "Island",
    "featured": false,
    "priority": 50
  },
  {
    "geonameId": 850313,
    "name": "Gråborg",
    "latitude": 60.42074,
    "longitude": 20.04449,
    "category": "Island",
    "subcategory": "Island",
    "featured": false,
    "priority": 50
  },
  {
    "geonameId": 12379171,
    "name": "Gråborgsgrundet",
    "latitude": 60.42241,
    "longitude": 20.0404,
    "category": "Island",
    "subcategory": "Island",
    "featured": false,
    "priority": 50
  },
  {
    "geonameId": 12362254,
    "name": "Graneholm",
    "latitude": 60.40957,
    "longitude": 21.07637,
    "category": "Island",
    "subcategory": "Island",
    "featured": false,
    "priority": 50
  },
  {
    "geonameId": 659809,
    "name": "Granhamns holmen",
    "latitude": 59.99262,
    "longitude": 20.2989,
    "category": "Island",
    "subcategory": "Island",
    "featured": false,
    "priority": 50
  },
  {
    "geonameId": 3336342,
    "name": "Granholm",
    "latitude": 60.0575,
    "longitude": 19.96917,
    "category": "Island",
    "subcategory": "Island",
    "featured": false,
    "priority": 50
  },
  {
    "geonameId": 849735,
    "name": "Granklobben",
    "latitude": 60.30656,
    "longitude": 20.85514,
    "category": "Island",
    "subcategory": "Island",
    "featured": false,
    "priority": 50
  },
  {
    "geonameId": 659797,
    "name": "Granö",
    "latitude": 59.99591,
    "longitude": 20.50424,
    "category": "Island",
    "subcategory": "Island",
    "featured": false,
    "priority": 50
  },
  {
    "geonameId": 3041781,
    "name": "Granö klubb",
    "latitude": 60.06067,
    "longitude": 19.915,
    "category": "Island",
    "subcategory": "Island",
    "featured": false,
    "priority": 50
  },
  {
    "geonameId": 850007,
    "name": "Granön",
    "latitude": 60.37326,
    "longitude": 20.99038,
    "category": "Island",
    "subcategory": "Island",
    "featured": false,
    "priority": 50
  },
  {
    "geonameId": 846511,
    "name": "Granören",
    "latitude": 60.12444,
    "longitude": 20.69384,
    "category": "Island",
    "subcategory": "Island",
    "featured": false,
    "priority": 50
  },
  {
    "geonameId": 849783,
    "name": "Granrevet",
    "latitude": 60.28508,
    "longitude": 20.60521,
    "category": "Island",
    "subcategory": "Island",
    "featured": false,
    "priority": 50
  },
  {
    "geonameId": 845892,
    "name": "Granskär",
    "latitude": 60.18996,
    "longitude": 20.20828,
    "category": "Island",
    "subcategory": "Island",
    "featured": false,
    "priority": 50
  },
  {
    "geonameId": 846626,
    "name": "Granskärs ören",
    "latitude": 60.1747,
    "longitude": 20.47535,
    "category": "Island",
    "subcategory": "Island",
    "featured": false,
    "priority": 50
  },
  {
    "geonameId": 12360839,
    "name": "Gråörarna",
    "latitude": 60.38985,
    "longitude": 20.92729,
    "category": "Island",
    "subcategory": "Island",
    "featured": false,
    "priority": 50
  },
  {
    "geonameId": 3336747,
    "name": "Gräsflyttan",
    "latitude": 60.27347,
    "longitude": 19.51306,
    "category": "Island",
    "subcategory": "Island",
    "featured": false,
    "priority": 50
  },
  {
    "geonameId": 659771,
    "name": "Gråskär",
    "latitude": 60.41237,
    "longitude": 20.89341,
    "category": "Island",
    "subcategory": "Island",
    "featured": false,
    "priority": 50
  },
  {
    "geonameId": 12379205,
    "name": "Gråskärshällen",
    "latitude": 60.49059,
    "longitude": 20.23114,
    "category": "Island",
    "subcategory": "Island",
    "featured": false,
    "priority": 50
  },
  {
    "geonameId": 846256,
    "name": "Gräsören",
    "latitude": 60.02226,
    "longitude": 20.81293,
    "category": "Island",
    "subcategory": "Island",
    "featured": false,
    "priority": 50
  },
  {
    "geonameId": 849857,
    "name": "Gråten",
    "latitude": 60.37537,
    "longitude": 20.34159,
    "category": "Island",
    "subcategory": "Island",
    "featured": false,
    "priority": 50
  },
  {
    "geonameId": 849977,
    "name": "Gredholm",
    "latitude": 60.33761,
    "longitude": 20.9463,
    "category": "Island",
    "subcategory": "Island",
    "featured": false,
    "priority": 50
  },
  {
    "geonameId": 854382,
    "name": "Greggoskär",
    "latitude": 60.56565,
    "longitude": 21.07839,
    "category": "Island",
    "subcategory": "Island",
    "featured": false,
    "priority": 50
  },
  {
    "geonameId": 845992,
    "name": "Grillskär",
    "latitude": 59.95291,
    "longitude": 20.35686,
    "category": "Island",
    "subcategory": "Island",
    "featured": false,
    "priority": 50
  },
  {
    "geonameId": 854374,
    "name": "Grisselörarna",
    "latitude": 60.56378,
    "longitude": 21.00723,
    "category": "Island",
    "subcategory": "Island Group",
    "featured": false,
    "priority": 50
  },
  {
    "geonameId": 659756,
    "name": "Grisselskär",
    "latitude": 59.94557,
    "longitude": 20.37393,
    "category": "Island",
    "subcategory": "Island",
    "featured": false,
    "priority": 50
  },
  {
    "geonameId": 850136,
    "name": "Grisslan",
    "latitude": 60.56765,
    "longitude": 20.96813,
    "category": "Island",
    "subcategory": "Island",
    "featured": false,
    "priority": 50
  },
  {
    "geonameId": 12362173,
    "name": "Grisslesgrundet",
    "latitude": 60.41386,
    "longitude": 20.92635,
    "category": "Island",
    "subcategory": "Island",
    "featured": false,
    "priority": 50
  },
  {
    "geonameId": 849689,
    "name": "Gröna Ören",
    "latitude": 60.23232,
    "longitude": 20.35189,
    "category": "Island",
    "subcategory": "Island",
    "featured": false,
    "priority": 50
  },
  {
    "geonameId": 3336829,
    "name": "Gröndals Träsk",
    "latitude": 60.41639,
    "longitude": 19.89528,
    "category": "Lake",
    "subcategory": "Lake",
    "featured": false,
    "priority": 50
  },
  {
    "geonameId": 846446,
    "name": "Grönören",
    "latitude": 60.14464,
    "longitude": 20.47699,
    "category": "Island",
    "subcategory": "Island",
    "featured": false,
    "priority": 50
  },
  {
    "geonameId": 849844,
    "name": "Grönskär",
    "latitude": 60.34156,
    "longitude": 20.28301,
    "category": "Island",
    "subcategory": "Island",
    "featured": false,
    "priority": 50
  },
  {
    "geonameId": 845571,
    "name": "Gropskär",
    "latitude": 59.92806,
    "longitude": 20.20528,
    "category": "Island",
    "subcategory": "Island",
    "featured": false,
    "priority": 50
  },
  {
    "geonameId": 854354,
    "name": "Grossnäs örarna",
    "latitude": 60.5023,
    "longitude": 21.02981,
    "category": "Island",
    "subcategory": "Island Group",
    "featured": false,
    "priority": 50
  },
  {
    "geonameId": 12379141,
    "name": "Grunden",
    "latitude": 60.43146,
    "longitude": 20.25383,
    "category": "Island",
    "subcategory": "Island",
    "featured": false,
    "priority": 50
  },
  {
    "geonameId": 846277,
    "name": "Grundet i fjärden",
    "latitude": 60.07044,
    "longitude": 20.61623,
    "category": "Island",
    "subcategory": "Island",
    "featured": false,
    "priority": 50
  },
  {
    "geonameId": 845792,
    "name": "Grundfjärden",
    "latitude": 60.01168,
    "longitude": 20.19172,
    "category": "Lake",
    "subcategory": "Lake",
    "featured": false,
    "priority": 50
  },
  {
    "geonameId": 861488,
    "name": "Gulskär",
    "latitude": 60.02486,
    "longitude": 20.0413,
    "category": "Island",
    "subcategory": "Island",
    "featured": false,
    "priority": 50
  },
  {
    "geonameId": 12379199,
    "name": "Gumsgrundet",
    "latitude": 60.44241,
    "longitude": 20.25155,
    "category": "Island",
    "subcategory": "Island",
    "featured": false,
    "priority": 50
  },
  {
    "geonameId": 846438,
    "name": "Gumskobben",
    "latitude": 60.15425,
    "longitude": 20.39522,
    "category": "Island",
    "subcategory": "Island",
    "featured": false,
    "priority": 50
  },
  {
    "geonameId": 850058,
    "name": "Gumsören",
    "latitude": 60.45435,
    "longitude": 20.77852,
    "category": "Island",
    "subcategory": "Island",
    "featured": false,
    "priority": 50
  },
  {
    "geonameId": 659727,
    "name": "Gunnarsten",
    "latitude": 60.22173,
    "longitude": 21.00502,
    "category": "Island",
    "subcategory": "Island Group",
    "featured": false,
    "priority": 50
  },
  {
    "geonameId": 846253,
    "name": "Gusslan",
    "latitude": 60.03386,
    "longitude": 20.79883,
    "category": "Island",
    "subcategory": "Island",
    "featured": false,
    "priority": 50
  },
  {
    "geonameId": 849835,
    "name": "Gyllenklobb",
    "latitude": 60.29278,
    "longitude": 20.42,
    "category": "Island",
    "subcategory": "Island",
    "featured": false,
    "priority": 50
  },
  {
    "geonameId": 12362209,
    "name": "Gyllingskär",
    "latitude": 60.37803,
    "longitude": 20.99569,
    "category": "Island",
    "subcategory": "Island",
    "featured": false,
    "priority": 50
  },
  {
    "geonameId": 846413,
    "name": "Gylto",
    "latitude": 60.08556,
    "longitude": 20.45139,
    "category": "Island",
    "subcategory": "Island",
    "featured": false,
    "priority": 50
  },
  {
    "geonameId": 3336821,
    "name": "Hägnsträsk",
    "latitude": 60.39167,
    "longitude": 19.82194,
    "category": "Lake",
    "subcategory": "Lake",
    "featured": false,
    "priority": 50
  },
  {
    "geonameId": 845798,
    "name": "Hagsgrunden",
    "latitude": 60.0513,
    "longitude": 20.22545,
    "category": "Island",
    "subcategory": "Island",
    "featured": false,
    "priority": 50
  },
  {
    "geonameId": 845797,
    "name": "Hagsreven",
    "latitude": 60.04665,
    "longitude": 20.22485,
    "category": "Island",
    "subcategory": "Island",
    "featured": false,
    "priority": 50
  },
  {
    "geonameId": 659405,
    "name": "Håkonskär",
    "latitude": 59.96349,
    "longitude": 20.39494,
    "category": "Island",
    "subcategory": "Island",
    "featured": false,
    "priority": 50
  },
  {
    "geonameId": 846040,
    "name": "Hallonskär",
    "latitude": 59.95447,
    "longitude": 20.88532,
    "category": "Island",
    "subcategory": "Island",
    "featured": false,
    "priority": 50
  },
  {
    "geonameId": 849914,
    "name": "Hallskär",
    "latitude": 60.35272,
    "longitude": 20.53954,
    "category": "Island",
    "subcategory": "Island",
    "featured": false,
    "priority": 50
  },
  {
    "geonameId": 850207,
    "name": "Hälsingkrok",
    "latitude": 60.30091,
    "longitude": 20.2513,
    "category": "Island",
    "subcategory": "Island",
    "featured": false,
    "priority": 50
  },
  {
    "geonameId": 850052,
    "name": "Hälsingskär",
    "latitude": 60.47044,
    "longitude": 20.87939,
    "category": "Island",
    "subcategory": "Island",
    "featured": false,
    "priority": 50
  },
  {
    "geonameId": 12362231,
    "name": "Halvfarörarna",
    "latitude": 60.41188,
    "longitude": 21.01585,
    "category": "Island",
    "subcategory": "Island",
    "featured": false,
    "priority": 50
  },
  {
    "geonameId": 846597,
    "name": "Halvvägsörarna",
    "latitude": 60.16891,
    "longitude": 20.70593,
    "category": "Island",
    "subcategory": "Island",
    "featured": false,
    "priority": 50
  },
  {
    "geonameId": 850083,
    "name": "Hamnbådan",
    "latitude": 60.48679,
    "longitude": 20.52679,
    "category": "Island",
    "subcategory": "Island",
    "featured": false,
    "priority": 50
  },
  {
    "geonameId": 12362186,
    "name": "Hamnen",
    "latitude": 60.38694,
    "longitude": 20.97123,
    "category": "Island",
    "subcategory": "Island",
    "featured": false,
    "priority": 50
  },
  {
    "geonameId": 12362242,
    "name": "Hamnholm",
    "latitude": 60.42341,
    "longitude": 21.03419,
    "category": "Island",
    "subcategory": "Island",
    "featured": false,
    "priority": 50
  },
  {
    "geonameId": 850257,
    "name": "Hamnholmen",
    "latitude": 60.37735,
    "longitude": 20.07905,
    "category": "Island",
    "subcategory": "Island",
    "featured": false,
    "priority": 50
  },
  {
    "geonameId": 659147,
    "name": "Hamnklobb",
    "latitude": 60.10634,
    "longitude": 20.674,
    "category": "Island",
    "subcategory": "Island",
    "featured": false,
    "priority": 50
  },
  {
    "geonameId": 659131,
    "name": "Hamnö",
    "latitude": 60.42307,
    "longitude": 20.2591,
    "category": "Island",
    "subcategory": "Island",
    "featured": false,
    "priority": 50
  },
  {
    "geonameId": 850176,
    "name": "Hamnörarna",
    "latitude": 60.61945,
    "longitude": 20.9261,
    "category": "Island",
    "subcategory": "Island Group",
    "featured": false,
    "priority": 50
  },
  {
    "geonameId": 659137,
    "name": "Hamnskär",
    "latitude": 60.46191,
    "longitude": 20.10987,
    "category": "Island",
    "subcategory": "Island",
    "featured": false,
    "priority": 50
  },
  {
    "geonameId": 12379208,
    "name": "Hamnskäret",
    "latitude": 60.52759,
    "longitude": 20.20148,
    "category": "Island",
    "subcategory": "Island",
    "featured": false,
    "priority": 50
  },
  {
    "geonameId": 12362228,
    "name": "Hänklobb",
    "latitude": 60.39282,
    "longitude": 21.03648,
    "category": "Island",
    "subcategory": "Island",
    "featured": false,
    "priority": 50
  },
  {
    "geonameId": 846504,
    "name": "Häran",
    "latitude": 60.0876,
    "longitude": 20.70841,
    "category": "Island",
    "subcategory": "Island",
    "featured": false,
    "priority": 50
  },
  {
    "geonameId": 845889,
    "name": "Haren",
    "latitude": 60.17266,
    "longitude": 20.26026,
    "category": "Island",
    "subcategory": "Island",
    "featured": false,
    "priority": 50
  },
  {
    "geonameId": 854330,
    "name": "Härholm",
    "latitude": 60.45246,
    "longitude": 21.10693,
    "category": "Island",
    "subcategory": "Island",
    "featured": false,
    "priority": 50
  },
  {
    "geonameId": 658792,
    "name": "Härö",
    "latitude": 60.35134,
    "longitude": 21.0247,
    "category": "Island",
    "subcategory": "Island",
    "featured": false,
    "priority": 50
  },
  {
    "geonameId": 854343,
    "name": "Härskär",
    "latitude": 60.49677,
    "longitude": 21.02472,
    "category": "Island",
    "subcategory": "Island",
    "featured": false,
    "priority": 50
  },
  {
    "geonameId": 12379221,
    "name": "Härun",
    "latitude": 60.42742,
    "longitude": 20.39374,
    "category": "Island",
    "subcategory": "Island",
    "featured": false,
    "priority": 50
  },
  {
    "geonameId": 845891,
    "name": "Harvgrund",
    "latitude": 60.18577,
    "longitude": 20.21693,
    "category": "Island",
    "subcategory": "Island",
    "featured": false,
    "priority": 50
  },
  {
    "geonameId": 658734,
    "name": "Hässlö",
    "latitude": 60.06981,
    "longitude": 20.4109,
    "category": "Island",
    "subcategory": "Island",
    "featured": false,
    "priority": 50
  },
  {
    "geonameId": 658726,
    "name": "Hästholm",
    "latitude": 60.26173,
    "longitude": 20.71857,
    "category": "Island",
    "subcategory": "Island",
    "featured": false,
    "priority": 50
  },
  {
    "geonameId": 846453,
    "name": "Hästkobben",
    "latitude": 60.16266,
    "longitude": 20.53194,
    "category": "Island",
    "subcategory": "Island",
    "featured": false,
    "priority": 50
  },
  {
    "geonameId": 846247,
    "name": "Hästö",
    "latitude": 60.04876,
    "longitude": 20.7645,
    "category": "Island",
    "subcategory": "Island",
    "featured": false,
    "priority": 50
  },
  {
    "geonameId": 658712,
    "name": "Hästskär",
    "latitude": 60.12747,
    "longitude": 20.84621,
    "category": "Island",
    "subcategory": "Island",
    "featured": false,
    "priority": 50
  },
  {
    "geonameId": 12379213,
    "name": "Hästskärs ören",
    "latitude": 60.47107,
    "longitude": 20.85015,
    "category": "Island",
    "subcategory": "Island",
    "featured": false,
    "priority": 50
  },
  {
    "geonameId": 849723,
    "name": "Hattskär",
    "latitude": 60.2649,
    "longitude": 20.86936,
    "category": "Island",
    "subcategory": "Island",
    "featured": false,
    "priority": 50
  },
  {
    "geonameId": 846630,
    "name": "Hättskär",
    "latitude": 60.18578,
    "longitude": 20.39659,
    "category": "Island",
    "subcategory": "Island",
    "featured": false,
    "priority": 50
  },
  {
    "geonameId": 658236,
    "name": "Hellsö",
    "latitude": 59.93333,
    "longitude": 20.96667,
    "category": "Island",
    "subcategory": "Island",
    "featured": false,
    "priority": 50
  },
  {
    "geonameId": 658215,
    "name": "Hemörarna",
    "latitude": 60.39408,
    "longitude": 20.60893,
    "category": "Island",
    "subcategory": "Island Group",
    "featured": false,
    "priority": 50
  },
  {
    "geonameId": 12379212,
    "name": "Hinnskär",
    "latitude": 60.4794,
    "longitude": 20.87574,
    "category": "Island",
    "subcategory": "Island",
    "featured": false,
    "priority": 50
  },
  {
    "geonameId": 657622,
    "name": "Hjortronskär",
    "latitude": 60.09001,
    "longitude": 20.73167,
    "category": "Island",
    "subcategory": "Island",
    "featured": false,
    "priority": 50
  },
  {
    "geonameId": 846135,
    "name": "Höga Grillskär",
    "latitude": 59.98112,
    "longitude": 20.4241,
    "category": "Island",
    "subcategory": "Island",
    "featured": false,
    "priority": 50
  },
  {
    "geonameId": 12379200,
    "name": "Höga Torsklobben",
    "latitude": 60.43326,
    "longitude": 20.24405,
    "category": "Island",
    "subcategory": "Island",
    "featured": false,
    "priority": 50
  },
  {
    "geonameId": 657619,
    "name": "Högan",
    "latitude": 60.41431,
    "longitude": 20.13709,
    "category": "Island",
    "subcategory": "Island",
    "featured": false,
    "priority": 50
  },
  {
    "geonameId": 846230,
    "name": "Högbergskär",
    "latitude": 60.05064,
    "longitude": 20.77836,
    "category": "Island",
    "subcategory": "Island",
    "featured": false,
    "priority": 50
  },
  {
    "geonameId": 846607,
    "name": "Höghäran",
    "latitude": 60.19987,
    "longitude": 20.52752,
    "category": "Island",
    "subcategory": "Island",
    "featured": false,
    "priority": 50
  },
  {
    "geonameId": 657612,
    "name": "Högholm",
    "latitude": 60.31667,
    "longitude": 20.86667,
    "category": "Island",
    "subcategory": "Island",
    "featured": false,
    "priority": 50
  },
  {
    "geonameId": 849767,
    "name": "Högholmarna",
    "latitude": 60.28615,
    "longitude": 20.76362,
    "category": "Island",
    "subcategory": "Island Group",
    "featured": false,
    "priority": 50
  },
  {
    "geonameId": 846363,
    "name": "Högholmen",
    "latitude": 60.02015,
    "longitude": 20.48678,
    "category": "Island",
    "subcategory": "Island",
    "featured": false,
    "priority": 50
  },
  {
    "geonameId": 849853,
    "name": "Högklobb",
    "latitude": 60.36718,
    "longitude": 20.31898,
    "category": "Island",
    "subcategory": "Island",
    "featured": false,
    "priority": 50
  },
  {
    "geonameId": 12362194,
    "name": "Högklobben",
    "latitude": 60.31818,
    "longitude": 21.07728,
    "category": "Island",
    "subcategory": "Island",
    "featured": false,
    "priority": 50
  },
  {
    "geonameId": 12362978,
    "name": "Höglandet",
    "latitude": 60.17807,
    "longitude": 20.98982,
    "category": "Island",
    "subcategory": "Island",
    "featured": false,
    "priority": 50
  },
  {
    "geonameId": 12379149,
    "name": "Högöbulten",
    "latitude": 60.41039,
    "longitude": 20.14348,
    "category": "Island",
    "subcategory": "Island",
    "featured": false,
    "priority": 50
  },
  {
    "geonameId": 12379148,
    "name": "Högöhällarna",
    "latitude": 60.42101,
    "longitude": 20.14329,
    "category": "Island",
    "subcategory": "Island",
    "featured": false,
    "priority": 50
  },
  {
    "geonameId": 850311,
    "name": "Högöklobbarna",
    "latitude": 60.41466,
    "longitude": 20.12581,
    "category": "Island",
    "subcategory": "Island",
    "featured": false,
    "priority": 50
  },
  {
    "geonameId": 657606,
    "name": "Högön",
    "latitude": 60.41327,
    "longitude": 20.13679,
    "category": "Island",
    "subcategory": "Island",
    "featured": false,
    "priority": 50
  },
  {
    "geonameId": 850016,
    "name": "Högören",
    "latitude": 60.4287,
    "longitude": 20.90013,
    "category": "Island",
    "subcategory": "Island",
    "featured": false,
    "priority": 50
  },
  {
    "geonameId": 12362175,
    "name": "Hogskär",
    "latitude": 60.41967,
    "longitude": 20.94489,
    "category": "Island",
    "subcategory": "Island",
    "featured": false,
    "priority": 50
  },
  {
    "geonameId": 846199,
    "name": "Högskär",
    "latitude": 60.01468,
    "longitude": 20.94563,
    "category": "Island",
    "subcategory": "Island",
    "featured": false,
    "priority": 50
  },
  {
    "geonameId": 12379074,
    "name": "Högskärs grundet",
    "latitude": 60.42196,
    "longitude": 20.88868,
    "category": "Island",
    "subcategory": "Island",
    "featured": false,
    "priority": 50
  },
  {
    "geonameId": 3336751,
    "name": "Högskärsörarna",
    "latitude": 60.29552,
    "longitude": 19.53311,
    "category": "Island",
    "subcategory": "Island Group",
    "featured": false,
    "priority": 50
  },
  {
    "geonameId": 3041766,
    "name": "Högsten",
    "latitude": 60.35311,
    "longitude": 19.4522,
    "category": "Island",
    "subcategory": "Island",
    "featured": false,
    "priority": 50
  },
  {
    "geonameId": 3336652,
    "name": "Holmen",
    "latitude": 60.27241,
    "longitude": 19.88131,
    "category": "Island",
    "subcategory": "Island",
    "featured": false,
    "priority": 50
  },
  {
    "geonameId": 3336615,
    "name": "Holmsjön",
    "latitude": 60.23695,
    "longitude": 19.8222,
    "category": "Lake",
    "subcategory": "Lake",
    "featured": false,
    "priority": 50
  },
  {
    "geonameId": 657351,
    "name": "Horsklobb",
    "latitude": 60.28654,
    "longitude": 20.95353,
    "category": "Island",
    "subcategory": "Island",
    "featured": false,
    "priority": 50
  },
  {
    "geonameId": 12362258,
    "name": "Horsö klobben",
    "latitude": 60.39281,
    "longitude": 21.05697,
    "category": "Island",
    "subcategory": "Island",
    "featured": false,
    "priority": 50
  },
  {
    "geonameId": 657340,
    "name": "Horsskär",
    "latitude": 59.9,
    "longitude": 21.15,
    "category": "Island",
    "subcategory": "Island",
    "featured": false,
    "priority": 50
  },
  {
    "geonameId": 846074,
    "name": "Höskär",
    "latitude": 59.88013,
    "longitude": 20.97542,
    "category": "Island",
    "subcategory": "Island",
    "featured": false,
    "priority": 50
  },
  {
    "geonameId": 657319,
    "name": "Höterbådan",
    "latitude": 60.48469,
    "longitude": 20.498,
    "category": "Island",
    "subcategory": "Island Group",
    "featured": false,
    "priority": 50
  },
  {
    "geonameId": 849788,
    "name": "Hulkarörarna",
    "latitude": 60.3315,
    "longitude": 20.58407,
    "category": "Island",
    "subcategory": "Island Group",
    "featured": false,
    "priority": 50
  },
  {
    "geonameId": 657144,
    "name": "Hullberga",
    "latitude": 60.53669,
    "longitude": 20.89267,
    "category": "Island",
    "subcategory": "Island Group",
    "featured": false,
    "priority": 50
  },
  {
    "geonameId": 853997,
    "name": "Hullskär",
    "latitude": 60.35973,
    "longitude": 21.02614,
    "category": "Island",
    "subcategory": "Island",
    "featured": false,
    "priority": 50
  },
  {
    "geonameId": 849825,
    "name": "Hullvik holmen",
    "latitude": 60.26071,
    "longitude": 20.41901,
    "category": "Island",
    "subcategory": "Island",
    "featured": false,
    "priority": 50
  },
  {
    "geonameId": 850203,
    "name": "Hulta holmen",
    "latitude": 60.26517,
    "longitude": 20.25833,
    "category": "Island",
    "subcategory": "Island",
    "featured": false,
    "priority": 50
  },
  {
    "geonameId": 849720,
    "name": "Hummelholm",
    "latitude": 60.27029,
    "longitude": 20.84833,
    "category": "Island",
    "subcategory": "Island",
    "featured": false,
    "priority": 50
  },
  {
    "geonameId": 12362257,
    "name": "Hummelörarna",
    "latitude": 60.39361,
    "longitude": 21.08254,
    "category": "Island",
    "subcategory": "Island",
    "featured": false,
    "priority": 50
  },
  {
    "geonameId": 853983,
    "name": "Hummelören",
    "latitude": 60.41329,
    "longitude": 21.00744,
    "category": "Island",
    "subcategory": "Island",
    "featured": false,
    "priority": 50
  },
  {
    "geonameId": 850247,
    "name": "Hundklobben",
    "latitude": 60.40208,
    "longitude": 20.01663,
    "category": "Island",
    "subcategory": "Island",
    "featured": false,
    "priority": 50
  },
  {
    "geonameId": 849669,
    "name": "Hundskär",
    "latitude": 59.93889,
    "longitude": 21.07972,
    "category": "Island",
    "subcategory": "Island",
    "featured": false,
    "priority": 50
  },
  {
    "geonameId": 846371,
    "name": "Husholm",
    "latitude": 60.01805,
    "longitude": 20.37016,
    "category": "Island",
    "subcategory": "Island",
    "featured": false,
    "priority": 50
  },
  {
    "geonameId": 657053,
    "name": "Husö",
    "latitude": 60.07088,
    "longitude": 20.8003,
    "category": "Island",
    "subcategory": "Island",
    "featured": false,
    "priority": 50
  },
  {
    "geonameId": 846506,
    "name": "Husö örarna",
    "latitude": 60.094,
    "longitude": 20.845,
    "category": "Island",
    "subcategory": "Island Group",
    "featured": false,
    "priority": 50
  },
  {
    "geonameId": 656885,
    "name": "Idholm",
    "latitude": 60.19154,
    "longitude": 20.42702,
    "category": "Island",
    "subcategory": "Island",
    "featured": false,
    "priority": 50
  },
  {
    "geonameId": 846622,
    "name": "Idholms Grundet",
    "latitude": 60.18905,
    "longitude": 20.43597,
    "category": "Island",
    "subcategory": "Island",
    "featured": false,
    "priority": 50
  },
  {
    "geonameId": 656883,
    "name": "Idö",
    "latitude": 59.8755,
    "longitude": 20.92376,
    "category": "Island",
    "subcategory": "Island",
    "featured": false,
    "priority": 50
  },
  {
    "geonameId": 3336873,
    "name": "Idskär",
    "latitude": 60.43343,
    "longitude": 19.75895,
    "category": "Island",
    "subcategory": "Island",
    "featured": false,
    "priority": 50
  },
  {
    "geonameId": 12362097,
    "name": "Idviks ören",
    "latitude": 60.37937,
    "longitude": 20.92984,
    "category": "Island",
    "subcategory": "Island",
    "featured": false,
    "priority": 50
  },
  {
    "geonameId": 854319,
    "name": "Illesholm",
    "latitude": 60.42058,
    "longitude": 21.01076,
    "category": "Island",
    "subcategory": "Island",
    "featured": false,
    "priority": 50
  },
  {
    "geonameId": 849989,
    "name": "Immerholm",
    "latitude": 60.36222,
    "longitude": 20.90889,
    "category": "Island",
    "subcategory": "Island",
    "featured": false,
    "priority": 50
  },
  {
    "geonameId": 12362218,
    "name": "Ingerholm",
    "latitude": 60.40682,
    "longitude": 20.99776,
    "category": "Island",
    "subcategory": "Island",
    "featured": false,
    "priority": 50
  },
  {
    "geonameId": 656646,
    "name": "Ingersholma",
    "latitude": 60.2522,
    "longitude": 20.85071,
    "category": "Island",
    "subcategory": "Island",
    "featured": false,
    "priority": 50
  },
  {
    "geonameId": 846328,
    "name": "Ingrunskär",
    "latitude": 60.07036,
    "longitude": 20.57517,
    "category": "Island",
    "subcategory": "Island",
    "featured": false,
    "priority": 50
  },
  {
    "geonameId": 656600,
    "name": "Innerön",
    "latitude": 60.23,
    "longitude": 20.82613,
    "category": "Island",
    "subcategory": "Island",
    "featured": false,
    "priority": 50
  },
  {
    "geonameId": 656606,
    "name": "Innerskär",
    "latitude": 60.46124,
    "longitude": 20.82372,
    "category": "Island",
    "subcategory": "Island Group",
    "featured": false,
    "priority": 50
  },
  {
    "geonameId": 656605,
    "name": "Innerskäret",
    "latitude": 60.36822,
    "longitude": 20.70236,
    "category": "Island",
    "subcategory": "Island",
    "featured": false,
    "priority": 50
  },
  {
    "geonameId": 656602,
    "name": "Inre Bredan",
    "latitude": 60.5772,
    "longitude": 20.71638,
    "category": "Island",
    "subcategory": "Island",
    "featured": false,
    "priority": 50
  },
  {
    "geonameId": 849568,
    "name": "Inre Gloskär",
    "latitude": 59.91333,
    "longitude": 21.0075,
    "category": "Island",
    "subcategory": "Island",
    "featured": false,
    "priority": 50
  },
  {
    "geonameId": 12379115,
    "name": "Inre häran",
    "latitude": 60.42065,
    "longitude": 20.32092,
    "category": "Island",
    "subcategory": "Island",
    "featured": false,
    "priority": 50
  },
  {
    "geonameId": 3041746,
    "name": "Inre Korsö",
    "latitude": 60.04164,
    "longitude": 19.91564,
    "category": "Island",
    "subcategory": "Island",
    "featured": false,
    "priority": 50
  },
  {
    "geonameId": 656601,
    "name": "Inre Ljusskär",
    "latitude": 59.9292,
    "longitude": 20.39032,
    "category": "Island",
    "subcategory": "Island",
    "featured": false,
    "priority": 50
  },
  {
    "geonameId": 644401,
    "name": "Inre Pungö",
    "latitude": 59.98893,
    "longitude": 19.99873,
    "category": "Island",
    "subcategory": "Island",
    "featured": false,
    "priority": 50
  },
  {
    "geonameId": 850264,
    "name": "Inre Verkviken",
    "latitude": 60.35091,
    "longitude": 20.0449,
    "category": "Lake",
    "subcategory": "Lake",
    "featured": false,
    "priority": 50
  },
  {
    "geonameId": 846085,
    "name": "Inre Vikarskären",
    "latitude": 59.84439,
    "longitude": 20.98065,
    "category": "Island",
    "subcategory": "Island Group",
    "featured": false,
    "priority": 50
  },
  {
    "geonameId": 846304,
    "name": "Insjön",
    "latitude": 60.01169,
    "longitude": 20.52862,
    "category": "Lake",
    "subcategory": "Lake",
    "featured": false,
    "priority": 50
  },
  {
    "geonameId": 3041764,
    "name": "Isaksö",
    "latitude": 60.36667,
    "longitude": 19.75,
    "category": "Island",
    "subcategory": "Island",
    "featured": false,
    "priority": 50
  },
  {
    "geonameId": 12379161,
    "name": "Jaktgrundet",
    "latitude": 60.38031,
    "longitude": 20.04933,
    "category": "Island",
    "subcategory": "Island",
    "featured": false,
    "priority": 50
  },
  {
    "geonameId": 656008,
    "name": "Järsö",
    "latitude": 60.07407,
    "longitude": 20.33788,
    "category": "Island",
    "subcategory": "Island",
    "featured": false,
    "priority": 50
  },
  {
    "geonameId": 853986,
    "name": "Jåsholm",
    "latitude": 60.39881,
    "longitude": 21.02966,
    "category": "Island",
    "subcategory": "Island",
    "featured": false,
    "priority": 50
  },
  {
    "geonameId": 846493,
    "name": "Jermonklobba",
    "latitude": 60.0856,
    "longitude": 20.67915,
    "category": "Island",
    "subcategory": "Island",
    "featured": false,
    "priority": 50
  },
  {
    "geonameId": 854366,
    "name": "Jipponörs Revet",
    "latitude": 60.52744,
    "longitude": 21.1071,
    "category": "Island",
    "subcategory": "Island",
    "featured": false,
    "priority": 50
  },
  {
    "geonameId": 846228,
    "name": "Johansholm",
    "latitude": 60.06359,
    "longitude": 20.81447,
    "category": "Island",
    "subcategory": "Island",
    "featured": false,
    "priority": 50
  },
  {
    "geonameId": 3041760,
    "name": "Jomala",
    "latitude": 60.14902,
    "longitude": 19.951,
    "category": "City",
    "subcategory": "County Seat",
    "featured": false,
    "priority": 50
  },
  {
    "geonameId": 846528,
    "name": "Jordkumlet",
    "latitude": 60.13013,
    "longitude": 20.82208,
    "category": "Island",
    "subcategory": "Island",
    "featured": false,
    "priority": 50
  },
  {
    "geonameId": 655532,
    "name": "Juddö",
    "latitude": 60.0887,
    "longitude": 20.52894,
    "category": "Island",
    "subcategory": "Island",
    "featured": false,
    "priority": 50
  },
  {
    "geonameId": 3336709,
    "name": "Juddskär",
    "latitude": 60.3004,
    "longitude": 19.70106,
    "category": "Island",
    "subcategory": "Island",
    "featured": false,
    "priority": 50
  },
  {
    "geonameId": 846349,
    "name": "Julholm",
    "latitude": 60.05904,
    "longitude": 20.39328,
    "category": "Island",
    "subcategory": "Island",
    "featured": false,
    "priority": 50
  },
  {
    "geonameId": 849785,
    "name": "Junäs Grundet",
    "latitude": 60.29694,
    "longitude": 20.52833,
    "category": "Island",
    "subcategory": "Island",
    "featured": false,
    "priority": 50
  },
  {
    "geonameId": 655379,
    "name": "Jurmo",
    "latitude": 60.52695,
    "longitude": 21.07309,
    "category": "Island",
    "subcategory": "Island",
    "featured": false,
    "priority": 50
  },
  {
    "geonameId": 655244,
    "name": "Jyddö ön",
    "latitude": 60.08608,
    "longitude": 20.53401,
    "category": "Island",
    "subcategory": "Island",
    "featured": false,
    "priority": 50
  },
  {
    "geonameId": 846379,
    "name": "Kaffegrunnan",
    "latitude": 60.01669,
    "longitude": 20.31373,
    "category": "Island",
    "subcategory": "Island",
    "featured": false,
    "priority": 50
  },
  {
    "geonameId": 846346,
    "name": "Kalkgrund",
    "latitude": 60.05292,
    "longitude": 20.33464,
    "category": "Island",
    "subcategory": "Island",
    "featured": false,
    "priority": 50
  },
  {
    "geonameId": 12362987,
    "name": "Kalkslägnen",
    "latitude": 60.01093,
    "longitude": 21.06896,
    "category": "Island",
    "subcategory": "Island",
    "featured": false,
    "priority": 50
  },
  {
    "geonameId": 3041757,
    "name": "Kallan",
    "latitude": 60.44948,
    "longitude": 19.74009,
    "category": "Island",
    "subcategory": "Island",
    "featured": false,
    "priority": 50
  },
  {
    "geonameId": 846283,
    "name": "Källsholmen",
    "latitude": 60.04196,
    "longitude": 20.61429,
    "category": "Island",
    "subcategory": "Island",
    "featured": false,
    "priority": 50
  },
  {
    "geonameId": 654600,
    "name": "Källskär",
    "latitude": 59.87367,
    "longitude": 20.90176,
    "category": "Island",
    "subcategory": "Island",
    "featured": false,
    "priority": 50
  },
  {
    "geonameId": 654560,
    "name": "Kalskär",
    "latitude": 60.45749,
    "longitude": 20.22305,
    "category": "Island",
    "subcategory": "Island",
    "featured": false,
    "priority": 50
  },
  {
    "geonameId": 651785,
    "name": "Kålskär",
    "latitude": 60.25966,
    "longitude": 20.89244,
    "category": "Island",
    "subcategory": "Island",
    "featured": false,
    "priority": 50
  },
  {
    "geonameId": 12379093,
    "name": "Kalvhaggrundet",
    "latitude": 60.39847,
    "longitude": 20.35187,
    "category": "Island",
    "subcategory": "Island",
    "featured": false,
    "priority": 50
  },
  {
    "geonameId": 654543,
    "name": "Kalvholm",
    "latitude": 60.17744,
    "longitude": 20.29295,
    "category": "Island",
    "subcategory": "Island",
    "featured": false,
    "priority": 50
  },
  {
    "geonameId": 846439,
    "name": "Kalvholmen",
    "latitude": 60.16327,
    "longitude": 20.38194,
    "category": "Island",
    "subcategory": "Island",
    "featured": false,
    "priority": 50
  },
  {
    "geonameId": 846250,
    "name": "Kalvör",
    "latitude": 60.04569,
    "longitude": 20.79125,
    "category": "Island",
    "subcategory": "Island",
    "featured": false,
    "priority": 50
  },
  {
    "geonameId": 3041755,
    "name": "Kalvskär",
    "latitude": 59.83807,
    "longitude": 19.95651,
    "category": "Island",
    "subcategory": "Island",
    "featured": false,
    "priority": 50
  },
  {
    "geonameId": 3336338,
    "name": "Kalvskären",
    "latitude": 60.04472,
    "longitude": 19.95667,
    "category": "Island",
    "subcategory": "Island Group",
    "featured": false,
    "priority": 50
  },
  {
    "geonameId": 654518,
    "name": "Kalvsörarna",
    "latitude": 59.9,
    "longitude": 20.36667,
    "category": "Island",
    "subcategory": "Island Group",
    "featured": false,
    "priority": 50
  },
  {
    "geonameId": 849582,
    "name": "Kannskär",
    "latitude": 59.87639,
    "longitude": 21.175,
    "category": "Island",
    "subcategory": "Island",
    "featured": false,
    "priority": 50
  },
  {
    "geonameId": 3336505,
    "name": "Kappalö",
    "latitude": 60.19037,
    "longitude": 19.68062,
    "category": "Island",
    "subcategory": "Island",
    "featured": false,
    "priority": 50
  },
  {
    "geonameId": 651312,
    "name": "Kåpskär",
    "latitude": 60.41002,
    "longitude": 20.05012,
    "category": "Island",
    "subcategory": "Island",
    "featured": false,
    "priority": 50
  },
  {
    "geonameId": 850248,
    "name": "Kåpskärsklobben",
    "latitude": 60.40507,
    "longitude": 20.04175,
    "category": "Island",
    "subcategory": "Island",
    "featured": false,
    "priority": 50
  },
  {
    "geonameId": 846060,
    "name": "Karakobba",
    "latitude": 59.90139,
    "longitude": 20.94778,
    "category": "Island",
    "subcategory": "Island",
    "featured": false,
    "priority": 50
  },
  {
    "geonameId": 845572,
    "name": "Kårdiskan",
    "latitude": 59.93087,
    "longitude": 20.19466,
    "category": "Island",
    "subcategory": "Island",
    "featured": false,
    "priority": 50
  },
  {
    "geonameId": 12379160,
    "name": "Käringgrund",
    "latitude": 60.38528,
    "longitude": 20.06203,
    "category": "Island",
    "subcategory": "Island",
    "featured": false,
    "priority": 50
  },
  {
    "geonameId": 12362158,
    "name": "Käringskär",
    "latitude": 60.33792,
    "longitude": 20.97076,
    "category": "Island",
    "subcategory": "Island",
    "featured": false,
    "priority": 50
  },
  {
    "geonameId": 12379128,
    "name": "Käringskärs kobban",
    "latitude": 60.40449,
    "longitude": 20.28336,
    "category": "Island",
    "subcategory": "Island",
    "featured": false,
    "priority": 50
  },
  {
    "geonameId": 653942,
    "name": "Karlbybådan",
    "latitude": 59.75,
    "longitude": 20.73333,
    "category": "Island",
    "subcategory": "Island",
    "featured": false,
    "priority": 50
  },
  {
    "geonameId": 653941,
    "name": "Karlbylandet",
    "latitude": 59.91667,
    "longitude": 20.9,
    "category": "Island",
    "subcategory": "Island",
    "featured": false,
    "priority": 50
  },
  {
    "geonameId": 653938,
    "name": "Karlen",
    "latitude": 59.93333,
    "longitude": 21.05,
    "category": "Island",
    "subcategory": "Island",
    "featured": false,
    "priority": 50
  },
  {
    "geonameId": 12362179,
    "name": "Kärrängs ören",
    "latitude": 60.41422,
    "longitude": 20.9711,
    "category": "Island",
    "subcategory": "Island",
    "featured": false,
    "priority": 50
  },
  {
    "geonameId": 653856,
    "name": "Karskär",
    "latitude": 59.95378,
    "longitude": 20.87114,
    "category": "Island",
    "subcategory": "Island",
    "featured": false,
    "priority": 50
  },
  {
    "geonameId": 846338,
    "name": "Kåsenholm",
    "latitude": 60.07003,
    "longitude": 20.48244,
    "category": "Island",
    "subcategory": "Island",
    "featured": false,
    "priority": 50
  },
  {
    "geonameId": 850046,
    "name": "Kasklobb",
    "latitude": 60.4797,
    "longitude": 20.8995,
    "category": "Island",
    "subcategory": "Island",
    "featured": false,
    "priority": 50
  },
  {
    "geonameId": 12379087,
    "name": "Kastellsrevet",
    "latitude": 60.41013,
    "longitude": 20.60606,
    "category": "Island",
    "subcategory": "Island",
    "featured": false,
    "priority": 50
  },
  {
    "geonameId": 850268,
    "name": "Kastgrundet",
    "latitude": 60.35289,
    "longitude": 20.20392,
    "category": "Island",
    "subcategory": "Island",
    "featured": false,
    "priority": 50
  },
  {
    "geonameId": 849688,
    "name": "Kåtholm",
    "latitude": 60.24227,
    "longitude": 20.31495,
    "category": "Island",
    "subcategory": "Island",
    "featured": false,
    "priority": 50
  },
  {
    "geonameId": 849885,
    "name": "Kestenskär",
    "latitude": 60.36266,
    "longitude": 20.39009,
    "category": "Island",
    "subcategory": "Island",
    "featured": false,
    "priority": 50
  },
  {
    "geonameId": 846474,
    "name": "Killing",
    "latitude": 60.11488,
    "longitude": 20.57759,
    "category": "Island",
    "subcategory": "Island",
    "featured": false,
    "priority": 50
  },
  {
    "geonameId": 846052,
    "name": "Killingholm",
    "latitude": 59.92025,
    "longitude": 20.95212,
    "category": "Island",
    "subcategory": "Island",
    "featured": false,
    "priority": 50
  },
  {
    "geonameId": 845778,
    "name": "Killingskär",
    "latitude": 59.99639,
    "longitude": 20.22087,
    "category": "Island",
    "subcategory": "Island",
    "featured": false,
    "priority": 50
  },