[
  {
    "geonameId": 3573356,
    "name": "Agar’s Island",
    "latitude": 32.29361,
    "longitude": -64.80972,
    "category": "Island",
    "subcategory": "Island",
    "featured": false,
    "priority": 50
  },
  {
    "geonameId": 3573352,
    "name": "Alpha Island",
    "latitude": 32.28435,
    "longitude": -64.83182,
    "category": "Island",
    "subcategory": "Island",
    "featured": false,
    "priority": 50
  },
  {
    "geonameId": 10300421,
    "name": "Arboretum",
    "latitude": 32.29819,
    "longitude": -64.76683,
    "category": "Park",
    "subcategory": "Park",
    "featured": false,
    "priority": 50
  },
  {
    "geonameId": 3573347,
    "name": "Banjo Island",
    "latitude": 32.37583,
    "longitude": -64.69361,
    "category": "Island",
    "subcategory": "Island",
    "featured": false,
    "priority": 50
  },
  {
    "geonameId": 3745599,
    "name": "Bartlett’s Islands",
    "latitude": 32.25667,
    "longitude": -64.83722,
    "category": "Island",
    "subcategory": "Island Group",
    "featured": false,
    "priority": 50
  },
  {
    "geonameId": 3573346,
    "name": "Bay Island",
    "latitude": 32.35028,
    "longitude": -64.72611,
    "category": "Island",
    "subcategory": "Island",
    "featured": false,
    "priority": 50
  },
  {
    "geonameId": 3573342,
    "name": "Bermudas",
    "latitude": 32.30444,
    "longitude": -64.75167,
    "category": "Island",
    "subcategory": "Island Group",
    "featured": false,
    "priority": 50
  },
  {
    "geonameId": 3573340,
    "name": "Beta Island",
    "latitude": 32.28167,
    "longitude": -64.82806,
    "category": "Island",
    "subcategory": "Island",
    "featured": false,
    "priority": 50
  },
  {
    "geonameId": 3573338,
    "name": "Bethell’s Island",
    "latitude": 32.285,
    "longitude": -64.88,
    "category": "Island",
    "subcategory": "Island",
    "featured": false,
    "priority": 50
  },
  {
    "geonameId": 3573337,
    "name": "Bird Island",
    "latitude": 32.29639,
    "longitude": -64.80944,
    "category": "Island",
    "subcategory": "Island",
    "featured": false,
    "priority": 50
  },
  {
    "geonameId": 3573246,
    "name": "Bluck’s Island",
    "latitude": 32.28611,
    "longitude": -64.81028,
    "category": "Island",
    "subcategory": "Island",
    "featured": false,
    "priority": 50
  },
  {
    "geonameId": 3573330,
    "name": "Boaz Island",
    "latitude": 32.30861,
    "longitude": -64.85306,
    "category": "Island",
    "subcategory": "Island",
    "featured": false,
    "priority": 50
  },
  {
    "geonameId": 3573321,
    "name": "Brooks Island",
    "latitude": 32.37139,
    "longitude": -64.67528,
    "category": "Island",
    "subcategory": "Island",
    "featured": false,
    "priority": 50
  },
  {
    "geonameId": 3573319,
    "name": "Buck Island",
    "latitude": 32.25694,
    "longitude": -64.85889,
    "category": "Island",
    "subcategory": "Island",
    "featured": false,
    "priority": 50
  },
  {
    "geonameId": 3740544,
    "name": "Burnt Island",
    "latitude": 32.28414,
    "longitude": -64.79561,
    "category": "Island",
    "subcategory": "Island",
    "featured": false,
    "priority": 50
  },
  {
    "geonameId": 3573311,
    "name": "Burt’s Island",
    "latitude": 32.37028,
    "longitude": -64.67194,
    "category": "Island",
    "subcategory": "Island",
    "featured": false,
    "priority": 50
  },
  {
    "geonameId": 3573302,
    "name": "Castle Island",
    "latitude": 32.34076,
    "longitude": -64.67199,
    "category": "Island",
    "subcategory": "Island",
    "featured": false,
    "priority": 50
  },
  {
    "geonameId": 3745587,
    "name": "Cat Island",
    "latitude": 32.29944,
    "longitude": -64.81,
    "category": "Island",
    "subcategory": "Island",
    "featured": false,
    "priority": 50
  },
  {
    "geonameId": 3573296,
    "name": "Cave Island",
    "latitude": 32.36389,
    "longitude": -64.68806,
    "category": "Island",
    "subcategory": "Island",
    "featured": false,
    "priority": 50
  },
  {
    "geonameId": 12104475,
    "name": "Charles Island",
    "latitude": 32.33865,
    "longitude": -64.67115,
    "category": "Island",
    "subcategory": "Island",
    "featured": false,
    "priority": 50
  },
  {
    "geonameId": 3573108,
    "name": "Charles’ Fort",
    "latitude": 32.33333,
    "longitude": -64.66667,
    "category": "Island",
    "subcategory": "Island",
    "featured": false,
    "priority": 50
  },
  {
    "geonameId": 3573282,
    "name": "Cobbler’s Island",
    "latitude": 32.30834,
    "longitude": -64.81902,
    "category": "Island",
    "subcategory": "Island",
    "featured": false,
    "priority": 50
  },
  {
    "geonameId": 3573277,
    "name": "Coney Island",
    "latitude": 32.35889,
    "longitude": -64.71556,
    "category": "Island",
    "subcategory": "Island",
    "featured": false,
    "priority": 50
  },
  {
    "geonameId": 3573274,
    "name": "Cooper’s Island",
    "latitude": 32.35361,
    "longitude": -64.66,
    "category": "Island",
    "subcategory": "Island",
    "featured": false,
    "priority": 50
  },
  {
    "geonameId": 3740395,
    "name": "Crawl Island",
    "latitude": 32.31167,
    "longitude": -64.84528,
    "category": "Island",
    "subcategory": "Island",
    "featured": false,
    "priority": 50
  },
  {
    "geonameId": 3573263,
    "name": "Cross Island",
    "latitude": 32.31932,
    "longitude": -64.83704,
    "category": "Island",
    "subcategory": "Island",
    "featured": false,
    "priority": 50
  },
  {
    "geonameId": 3740516,
    "name": "Crow Island",
    "latitude": 32.33417,
    "longitude": -64.72556,
    "category": "Island",
    "subcategory": "Island",
    "featured": false,
    "priority": 50
  },
  {
    "geonameId": 3740401,
    "name": "Current Island",
    "latitude": 32.30609,
    "longitude": -64.85789,
    "category": "Island",
    "subcategory": "Island",
    "featured": false,
    "priority": 50
  },
  {
    "geonameId": 3573260,
    "name": "Daniel’s Island",
    "latitude": 32.30556,
    "longitude": -64.88278,
    "category": "Island",
    "subcategory": "Island",
    "featured": false,
    "priority": 50
  },
  {
    "geonameId": 3573259,
    "name": "Darrell’s Island",
    "latitude": 32.275,
    "longitude": -64.82111,
    "category": "Island",
    "subcategory": "Island",
    "featured": false,
    "priority": 50
  },
  {
    "geonameId": 3573256,
    "name": "Delta Island",
    "latitude": 32.28083,
    "longitude": -64.82444,
    "category": "Island",
    "subcategory": "Island",
    "featured": false,
    "priority": 50
  },
  {
    "geonameId": 3573250,
    "name": "Doctor’s Island",
    "latitude": 32.28556,
    "longitude": -64.7975,
    "category": "Island",
    "subcategory": "Island",
    "featured": false,
    "priority": 50
  },
  {
    "geonameId": 3740534,
    "name": "Epsilon Island",
    "latitude": 32.28083,
    "longitude": -64.82278,
    "category": "Island",
    "subcategory": "Island",
    "featured": false,
    "priority": 50
  },
  {
    "geonameId": 3740538,
    "name": "Eta Island",
    "latitude": 32.28444,
    "longitude": -64.81917,
    "category": "Island",
    "subcategory": "Island",
    "featured": false,
    "priority": 50
  },
  {
    "geonameId": 3740540,
    "name": "Fern Island",
    "latitude": 32.28333,
    "longitude": -64.81639,
    "category": "Island",
    "subcategory": "Island",
    "featured": false,
    "priority": 50
  },
  {
    "geonameId": 3572955,
    "name": "Five Star Island",
    "latitude": 32.25001,
    "longitude": -64.84003,
    "category": "Island",
    "subcategory": "Island",
    "featured": false,
    "priority": 50
  },
  {
    "geonameId": 3573230,
    "name": "Gamma Island",
    "latitude": 32.28111,
    "longitude": -64.82639,
    "category": "Island",
    "subcategory": "Island",
    "featured": false,
    "priority": 50
  },
  {
    "geonameId": 3573225,
    "name": "Gibbet Island",
    "latitude": 32.32306,
    "longitude": -64.74417,
    "category": "Island",
    "subcategory": "Island",
    "featured": false,
    "priority": 50
  },
  {
    "geonameId": 3745589,
    "name": "Goat Island",
    "latitude": 32.29611,
    "longitude": -64.80722,
    "category": "Island",
    "subcategory": "Island",
    "featured": false,
    "priority": 50
  },
  {
    "geonameId": 3573219,
    "name": "Goat Islands",
    "latitude": 32.35472,
    "longitude": -64.66389,
    "category": "Island",
    "subcategory": "Island Group",
    "featured": false,
    "priority": 50
  },
  {
    "geonameId": 3573216,
    "name": "Governor’s Island",
    "latitude": 32.37188,
    "longitude": -64.65761,
    "category": "Island",
    "subcategory": "Island",
    "featured": false,
    "priority": 50
  },
  {
    "geonameId": 3573215,
    "name": "Grace Island",
    "latitude": 32.27333,
    "longitude": -64.835,
    "category": "Island",
    "subcategory": "Island",
    "featured": false,
    "priority": 50
  },
  {
    "geonameId": 3573210,
    "name": "Grazbury’s Island",
    "latitude": 32.35472,
    "longitude": -64.65639,
    "category": "Island",
    "subcategory": "Island",
    "featured": false,
    "priority": 50
  },
  {
    "geonameId": 3745102,
    "name": "Great Oswego Island",
    "latitude": 32.36492,
    "longitude": -64.66912,
    "category": "Island",
    "subcategory": "Island",
    "featured": false,
    "priority": 50
  },
  {
    "geonameId": 3573199,
    "name": "Hall’s Island",
    "latitude": 32.33917,
    "longitude": -64.71306,
    "category": "Island",
    "subcategory": "Island",
    "featured": false,
    "priority": 50
  },
  {
    "geonameId": 3573197,
    "name": "Hamilton",
    "latitude": 32.2949,
    "longitude": -64.78303,
    "category": "City",
    "subcategory": "Capital",
    "featured": false,
    "priority": 50
  },
  {
    "geonameId": 3573192,
    "name": "Hawkins Island",
    "latitude": 32.28611,
    "longitude": -64.82861,
    "category": "Island",
    "subcategory": "Island",
    "featured": false,
    "priority": 50
  },
  {
    "geonameId": 3573190,
    "name": "Hen Island",
    "latitude": 32.37583,
    "longitude": -64.67167,
    "category": "Island",
    "subcategory": "Island",
    "featured": false,
    "priority": 50
  },
  {
    "geonameId": 3573187,
    "name": "Higgs’ Island",
    "latitude": 32.37722,
    "longitude": -64.66333,
    "category": "Island",
    "subcategory": "Island",
    "featured": false,
    "priority": 50
  },
  {
    "geonameId": 3573182,
    "name": "Hinson’s Island",
    "latitude": 32.2825,
    "longitude": -64.80278,
    "category": "Island",
    "subcategory": "Island",
    "featured": false,
    "priority": 50
  },
  {
    "geonameId": 3573176,
    "name": "Horseshoe Island",
    "latitude": 32.37722,
    "longitude": -64.66472,
    "category": "Island",
    "subcategory": "Island",
    "featured": false,
    "priority": 50
  },
  {
    "geonameId": 3740396,
    "name": "Hospital Island",
    "latitude": 32.31222,
    "longitude": -64.84611,
    "category": "Island",
    "subcategory": "Island",
    "featured": false,
    "priority": 50
  },
  {
    "geonameId": 3745084,
    "name": "Idol Island",
    "latitude": 32.34528,
    "longitude": -64.66139,
    "category": "Island",
    "subcategory": "Island",
    "featured": false,
    "priority": 50
  },
  {
    "geonameId": 3740405,
    "name": "Inner Island",
    "latitude": 32.31056,
    "longitude": -64.86417,
    "category": "Island",
    "subcategory": "Island",
    "featured": false,
    "priority": 50
  },
  {
    "geonameId": 3740533,
    "name": "Iota Island",
    "latitude": 32.28472,
    "longitude": -64.82333,
    "category": "Island",
    "subcategory": "Island",
    "featured": false,
    "priority": 50
  },
  {
    "geonameId": 3573172,
    "name": "Ireland Island",
    "latitude": 32.31995,
    "longitude": -64.842,
    "category": "Island",
    "subcategory": "Island",
    "featured": false,
    "priority": 50
  },
  {
    "geonameId": 3740542,
    "name": "Irresistible Island",
    "latitude": 32.28194,
    "longitude": -64.81306,
    "category": "Island",
    "subcategory": "Island",
    "featured": false,
    "priority": 50
  },
  {
    "geonameId": 3573155,
    "name": "Lambda Island",
    "latitude": 32.28912,
    "longitude": -64.83086,
    "category": "Island",
    "subcategory": "Island",
    "featured": false,
    "priority": 50
  },
  {
    "geonameId": 3740551,
    "name": "Lefroy Island",
    "latitude": 32.29083,
    "longitude": -64.81194,
    "category": "Island",
    "subcategory": "Island",
    "featured": false,
    "priority": 50
  },
  {
    "geonameId": 3745103,
    "name": "Little Oswego Island",
    "latitude": 32.3675,
    "longitude": -64.66083,
    "category": "Island",
    "subcategory": "Island",
    "featured": false,
    "priority": 50
  },
  {
    "geonameId": 3573145,
    "name": "Long Bird Island",
    "latitude": 32.36528,
    "longitude": -64.69667,
    "category": "Island",
    "subcategory": "Island",
    "featured": false,
    "priority": 50
  },
  {
    "geonameId": 3573143,
    "name": "Long Island",
    "latitude": 32.36222,
    "longitude": -64.67583,
    "category": "Island",
    "subcategory": "Island",
    "featured": false,
    "priority": 50
  },
  {
    "geonameId": 3573141,
    "name": "Long Rock",
    "latitude": 32.35722,
    "longitude": -64.65528,
    "category": "Island",
    "subcategory": "Island",
    "featured": false,
    "priority": 50
  },
  {
    "geonameId": 3573343,
    "name": "Main Island",
    "latitude": 32.30222,
    "longitude": -64.75944,
    "category": "Island",
    "subcategory": "Island",
    "featured": false,
    "priority": 50
  },
  {
    "geonameId": 3740398,
    "name": "Malabar Island",
    "latitude": 32.31188,
    "longitude": -64.85205,
    "category": "Island",
    "subcategory": "Island",
    "featured": false,
    "priority": 50
  },
  {
    "geonameId": 3573136,
    "name": "Mangrove Lake",
    "latitude": 32.32528,
    "longitude": -64.70917,
    "category": "Lake",
    "subcategory": "Lake",
    "featured": false,
    "priority": 50
  },
  {
    "geonameId": 3573134,
    "name": "Marshall’s Island",
    "latitude": 32.28333,
    "longitude": -64.80972,
    "category": "Island",
    "subcategory": "Island",
    "featured": false,
    "priority": 50
  },
  {
    "geonameId": 3740404,
    "name": "Middle Island",
    "latitude": 32.31167,
    "longitude": -64.86306,
    "category": "Island",
    "subcategory": "Island",
    "featured": false,
    "priority": 50
  },
  {
    "geonameId": 3740390,
    "name": "Moresby’s Island",
    "latitude": 32.31801,
    "longitude": -64.84158,
    "category": "Island",
    "subcategory": "Island",
    "featured": false,
    "priority": 50
  },
  {
    "geonameId": 3573124,
    "name": "Morgan’s Island",
    "latitude": 32.2875,
    "longitude": -64.87778,
    "category": "Island",
    "subcategory": "Island",
    "featured": false,
    "priority": 50
  },
  {
    "geonameId": 3745642,
    "name": "Mount Island",
    "latitude": 32.3075,
    "longitude": -64.81333,
    "category": "Island",
    "subcategory": "Island",
    "featured": false,
    "priority": 50
  },
  {
    "geonameId": 3745586,
    "name": "Mouse Island",
    "latitude": 32.30111,
    "longitude": -64.80972,
    "category": "Island",
    "subcategory": "Island",
    "featured": false,
    "priority": 50
  },
  {
    "geonameId": 3573114,
    "name": "Nelly Island",
    "latitude": 32.28417,
    "longitude": -64.82472,
    "category": "Island",
    "subcategory": "Island",
    "featured": false,
    "priority": 50
  },
  {
    "geonameId": 3740541,
    "name": "No Name Island",
    "latitude": 32.28361,
    "longitude": -64.81472,
    "category": "Island",
    "subcategory": "Island",
    "featured": false,
    "priority": 50
  },
  {
    "geonameId": 3573111,
    "name": "Nonsuch Island",
    "latitude": 32.34778,
    "longitude": -64.66333,
    "category": "Island",
    "subcategory": "Island",
    "featured": false,
    "priority": 50
  },
  {
    "geonameId": 3740402,
    "name": "One Tree Island",
    "latitude": 32.30917,
    "longitude": -64.86361,
    "category": "Island",
    "subcategory": "Island",
    "featured": false,
    "priority": 50
  },
  {
    "geonameId": 3573106,
    "name": "Ordnance Island",
    "latitude": 32.38,
    "longitude": -64.67667,
    "category": "Island",
    "subcategory": "Island",
    "featured": false,
    "priority": 50
  },
  {
    "geonameId": 3740403,
    "name": "Outer Island",
    "latitude": 32.31222,
    "longitude": -64.86194,
    "category": "Island",
    "subcategory": "Island",
    "featured": false,
    "priority": 50
  },
  {
    "geonameId": 3573105,
    "name": "Paget Island",
    "latitude": 32.37528,
    "longitude": -64.66056,
    "category": "Island",
    "subcategory": "Island",
    "featured": false,
    "priority": 50
  },
  {
    "geonameId": 3740409,
    "name": "Palm Island",
    "latitude": 32.28643,
    "longitude": -64.87896,
    "category": "Island",
    "subcategory": "Island",
    "featured": false,
    "priority": 50
  },
  {
    "geonameId": 3573101,
    "name": "Partridge Island",
    "latitude": 32.29806,
    "longitude": -64.80944,
    "category": "Island",
    "subcategory": "Island",
    "featured": false,
    "priority": 50
  },
  {
    "geonameId": 3745110,
    "name": "Peggy’s Island",
    "latitude": 32.37501,
    "longitude": -64.67078,
    "category": "Island",
    "subcategory": "Island",
    "featured": false,
    "priority": 50
  },
  {
    "geonameId": 3573093,
    "name": "Perot’s Island",
    "latitude": 32.26028,
    "longitude": -64.83139,
    "category": "Island",
    "subcategory": "Island",
    "featured": false,
    "priority": 50
  },
  {
    "geonameId": 3573085,
    "name": "Ports Island",
    "latitude": 32.28306,
    "longitude": -64.82111,
    "category": "Island",
    "subcategory": "Island",
    "featured": false,
    "priority": 50
  },
  {
    "geonameId": 3740515,
    "name": "Rabbit Island",
    "latitude": 32.3325,
    "longitude": -64.73028,
    "category": "Island",
    "subcategory": "Island",
    "featured": false,
    "priority": 50
  },
  {
    "geonameId": 3740394,
    "name": "Regatta Island",
    "latitude": 32.31222,
    "longitude": -64.84361,
    "category": "Island",
    "subcategory": "Island",
    "featured": false,
    "priority": 50
  },
  {
    "geonameId": 3740535,
    "name": "Rickett’s Island",
    "latitude": 32.27588,
    "longitude": -64.82881,
    "category": "Island",
    "subcategory": "Island",
    "featured": false,
    "priority": 50
  },
  {
    "geonameId": 3740531,
    "name": "Riddell’s Island",
    "latitude": 32.26167,
    "longitude": -64.82917,
    "category": "Island",
    "subcategory": "Island",
    "featured": false,
    "priority": 50
  },
  {
    "geonameId": 3573071,
    "name": "Rogue’s Island",
    "latitude": 32.36444,
    "longitude": -64.70889,
    "category": "Island",
    "subcategory": "Island",
    "featured": false,
    "priority": 50
  },
  {
    "geonameId": 3573069,
    "name": "Rushy Island",
    "latitude": 32.3375,
    "longitude": -64.67389,
    "category": "Island",
    "subcategory": "Island",
    "featured": false,
    "priority": 50
  },
  {
    "geonameId": 3573063,
    "name": "Saint David’s Island",
    "latitude": 32.36278,
    "longitude": -64.66111,
    "category": "Island",
    "subcategory": "Island",
    "featured": false,
    "priority": 50
  },
  {
    "geonameId": 3573058,
    "name": "Saint George’s Island",
    "latitude": 32.38472,
    "longitude": -64.67778,
    "category": "Island",
    "subcategory": "Island",
    "featured": false,
    "priority": 50
  },
  {
    "geonameId": 3573054,
    "name": "Saltus Island",
    "latitude": 32.29083,
    "longitude": -64.80056,
    "category": "Island",
    "subcategory": "Island",
    "featured": false,
    "priority": 50
  },
  {
    "geonameId": 10300413,
    "name": "Shelly Bay Park",
    "latitude": 32.3348,
    "longitude": -64.73947,
    "category": "Park",
    "subcategory": "Park",
    "featured": false,
    "priority": 50
  },
  {
    "geonameId": 3573032,
    "name": "Smith’s Island",
    "latitude": 32.37159,
    "longitude": -64.66443,
    "category": "Island",
    "subcategory": "Island",
    "featured": false,
    "priority": 50
  },
  {
    "geonameId": 3573027,
    "name": "Somerset Island",
    "latitude": 32.29833,
    "longitude": -64.87028,
    "category": "Island",
    "subcategory": "Island",
    "featured": false,
    "priority": 50
  },
  {
    "geonameId": 3573023,
    "name": "Spectacle Island",
    "latitude": 32.28747,
    "longitude": -64.80088,
    "category": "Island",
    "subcategory": "Island",
    "featured": false,
    "priority": 50
  },
  {
    "geonameId": 3573020,
    "name": "Spittal Pond",
    "latitude": 32.31167,
    "longitude": -64.72611,
    "category": "Lake",
    "subcategory": "Lake",
    "featured": false,
    "priority": 50
  },
  {
    "geonameId": 3740539,
    "name": "Theta Island",
    "latitude": 32.28556,
    "longitude": -64.81639,
    "category": "Island",
    "subcategory": "Island",
    "featured": false,
    "priority": 50
  },
  {
    "geonameId": 3572991,
    "name": "Trott’s Pond",
    "latitude": 32.32806,
    "longitude": -64.70278,
    "category": "Lake",
    "subcategory": "Lake",
    "featured": false,
    "priority": 50
  },
  {
    "geonameId": 3572990,
    "name": "Trunk Island",
    "latitude": 32.33333,
    "longitude": -64.7275,
    "category": "Island",
    "subcategory": "Island",
    "featured": false,
    "priority": 50
  },
  {
    "geonameId": 3745622,
    "name": "Turtle Island",
    "latitude": 32.3225,
    "longitude": -64.71583,
    "category": "Island",
    "subcategory": "Island",
    "featured": false,
    "priority": 50
  },
  {
    "geonameId": 3740548,
    "name": "Verrill Island",
    "latitude": 32.28972,
    "longitude": -64.81361,
    "category": "Island",
    "subcategory": "Island",
    "featured": false,
    "priority": 50
  },
  {
    "geonameId": 3572968,
    "name": "Watford Island",
    "latitude": 32.30647,
    "longitude": -64.85646,
    "category": "Island",
    "subcategory": "Island",
    "featured": false,
    "priority": 50
  },
  {
    "geonameId": 3740543,
    "name": "Watling Island",
    "latitude": 32.285,
    "longitude": -64.80806,
    "category": "Island",
    "subcategory": "Island",
    "featured": false,
    "priority": 50
  },
  {
    "geonameId": 3572965,
    "name": "Westcott Island",
    "latitude": 32.36222,
    "longitude": -64.67194,
    "category": "Island",
    "subcategory": "Island",
    "featured": false,
    "priority": 50
  },
  {
    "geonameId": 3572962,
    "name": "Whale Island",
    "latitude": 32.27889,
    "longitude": -64.88139,
    "category": "Island",
    "subcategory": "Island",
    "featured": false,
    "priority": 50
  },
  {
    "geonameId": 3745112,
    "name": "Whalers Islands",
    "latitude": 32.37361,
    "longitude": -64.66556,
    "category": "Island",
    "subcategory": "Island Group",
    "featured": false,
    "priority": 50
  },
  {
    "geonameId": 3572958,
    "name": "White’s Island",
    "latitude": 32.37306,
    "longitude": -64.68111,
    "category": "Island",
    "subcategory": "Island",
    "featured": false,
    "priority": 50
  },
  {
    "geonameId": 3572952,
    "name": "Zeta Island",
    "latitude": 32.28083,
    "longitude": -64.82056,
    "category": "Island",
    "subcategory": "Island",
    "featured": false,
    "priority": 50
  }
]