[
  {
    "geonameId": 5881791,
    "name": "Abbotsford",
    "latitude": 49.05798,
    "longitude": -122.25257,
    "category": "City",
    "subcategory": "City",
    "admin1": "02",
    "population": 141397,
    "featured": false,
    "priority": 50
  },
  {
    "geonameId": 5882134,
    "name": "Acton",
    "latitude": 43.62969,
    "longitude": -80.04149,
    "category": "City",
    "subcategory": "City",
    "admin1": "08",
    "population": 9377,
    "featured": false,
    "priority": 50
  },
  {
    "geonameId": 5882142,
    "name": "Acton Vale",
    "latitude": 45.65007,
    "longitude": -72.56582,
    "category": "City",
    "subcategory": "City",
    "admin1": "10",
    "population": 7656,
    "featured": false,
    "priority": 50
  },
  {
    "geonameId": 5882534,
    "name": "Agassiz",
    "latitude": 49.23298,
    "longitude": -121.76926,
    "category": "City",
    "subcategory": "City",
    "admin1": "02",
    "population": 6300,
    "featured": false,
    "priority": 50
  },
  {
    "geonameId": 5882799,
    "name": "Airdrie",
    "latitude": 51.30011,
    "longitude": -114.03528,
    "category": "City",
    "subcategory": "City",
    "admin1": "01",
    "population": 90044,
    "featured": false,
    "priority": 50
  },
  {
    "geonameId": 5882873,
    "name": "Ajax",
    "latitude": 43.85012,
    "longitude": -79.03288,
    "category": "City",
    "subcategory": "City",
    "admin1": "08",
    "population": 119677,
    "featured": false,
    "priority": 50
  },
  {
    "geonameId": 5883214,
    "name": "Albro Lake",
    "latitude": 44.68414,
    "longitude": -63.58129,
    "category": "City",
    "subcategory": "City",
    "admin1": "07",
    "population": 8503,
    "featured": false,
    "priority": 50
  },
  {
    "geonameId": 7669018,
    "name": "Aldergrove",
    "latitude": 49.05801,
    "longitude": -122.47087,
    "category": "City",
    "subcategory": "City",
    "admin1": "02",
    "population": 12363,
    "featured": false,
    "priority": 50
  },
  {
    "geonameId": 5884051,
    "name": "Alliston",
    "latitude": 44.15011,
    "longitude": -79.86635,
    "category": "City",
    "subcategory": "City",
    "admin1": "08",
    "population": 18809,
    "featured": false,
    "priority": 50
  },
  {
    "geonameId": 5884083,
    "name": "Alma",
    "latitude": 48.55009,
    "longitude": -71.6491,
    "category": "City",
    "subcategory": "City",
    "admin1": "10",
    "population": 29526,
    "featured": false,
    "priority": 50
  },
  {
    "geonameId": 8125781,
    "name": "Almonte",
    "latitude": 45.22993,
    "longitude": -76.19585,
    "category": "City",
    "subcategory": "City",
    "admin1": "08",
    "population": 5039,
    "featured": false,
    "priority": 50
  },
  {
    "geonameId": 5884467,
    "name": "Amherst",
    "latitude": 45.83345,
    "longitude": -64.19874,
    "category": "City",
    "subcategory": "City",
    "admin1": "07",
    "population": 9404,
    "featured": false,
    "priority": 50
  },
  {
    "geonameId": 5884472,
    "name": "Amherstburg",
    "latitude": 42.10009,
    "longitude": -83.09985,
    "category": "City",
    "subcategory": "City",
    "admin1": "08",
    "population": 13910,
    "featured": false,
    "priority": 50
  },
  {
    "geonameId": 5884588,
    "name": "Amos",
    "latitude": 48.56688,
    "longitude": -78.11624,
    "category": "City",
    "subcategory": "City",
    "admin1": "10",
    "population": 17918,
    "featured": false,
    "priority": 50
  },
  {
    "geonameId": 6943488,
    "name": "Amqui",
    "latitude": 48.46382,
    "longitude": -67.43134,
    "category": "City",
    "subcategory": "City",
    "admin1": "10",
    "population": 6261,
    "featured": false,
    "priority": 50
  },
  {
    "geonameId": 8285452,
    "name": "Ancaster",
    "latitude": 43.21806,
    "longitude": -79.98716,
    "category": "City",
    "subcategory": "City",
    "admin1": "08",
    "population": 40557,
    "featured": false,
    "priority": 50
  },
  {
    "geonameId": 5886182,
    "name": "Antigonish",
    "latitude": 45.61685,
    "longitude": -61.99858,
    "category": "City",
    "subcategory": "City",
    "admin1": "07",
    "population": 5003,
    "featured": false,
    "priority": 50
  },
  {
    "geonameId": 5887048,
    "name": "Armstrong",
    "latitude": 50.44979,
    "longitude": -119.20235,
    "category": "City",
    "subcategory": "City",
    "admin1": "02",
    "population": 5323,
    "featured": false,
    "priority": 50
  },
  {
    "geonameId": 5887214,
    "name": "Arnprior",
    "latitude": 45.43341,
    "longitude": -76.34939,
    "category": "City",
    "subcategory": "City",
    "admin1": "08",
    "population": 8795,
    "featured": false,
    "priority": 50
  },
  {
    "geonameId": 5887917,
    "name": "Athabasca Falls",
    "latitude": 52.66483,
    "longitude": -117.88459,
    "category": "Waterfall",
    "subcategory": "Waterfall",
    "admin1": "01",
    "population": 0,
    "featured": false,
    "priority": 50
  },
  {
    "geonameId": 5888377,
    "name": "Aurora",
    "latitude": 44.00011,
    "longitude": -79.46632,
    "category": "City",
    "subcategory": "City",
    "admin1": "08",
    "population": 55445,
    "featured": false,
    "priority": 50
  },
  {
    "geonameId": 5888716,
    "name": "Aylmer",
    "latitude": 42.76679,
    "longitude": -80.98302,
    "category": "City",
    "subcategory": "City",
    "admin1": "08",
    "population": 7492,
    "featured": false,
    "priority": 50
  },
  {
    "geonameId": 5888737,
    "name": "Ayr",
    "latitude": 43.2834,
    "longitude": -80.44968,
    "category": "City",
    "subcategory": "City",
    "admin1": "08",
    "population": 5383,
    "featured": false,
    "priority": 50
  },
  {
    "geonameId": 5889745,
    "name": "Baie-Comeau",
    "latitude": 49.21679,
    "longitude": -68.14894,
    "category": "City",
    "subcategory": "City",
    "admin1": "10",
    "population": 21536,
    "featured": false,
    "priority": 50
  },
  {
    "geonameId": 6690232,
    "name": "Baie-Saint-Paul",
    "latitude": 47.44109,
    "longitude": -70.49858,
    "category": "City",
    "subcategory": "City",
    "admin1": "10",
    "population": 7146,
    "featured": false,
    "priority": 50
  },
  {
    "geonameId": 5892532,
    "name": "Banff",
    "latitude": 51.17622,
    "longitude": -115.56982,
    "category": "City",
    "subcategory": "City",
    "admin1": "01",
    "population": 8305,
    "featured": false,
    "priority": 50
  },
  {
    "geonameId": 5894171,
    "name": "Barrie",
    "latitude": 44.40011,
    "longitude": -79.66634,
    "category": "City",
    "subcategory": "City",
    "admin1": "08",
    "population": 147829,
    "featured": false,
    "priority": 50
  },
  {
    "geonameId": 6696259,
    "name": "Bathurst",
    "latitude": 47.61814,
    "longitude": -65.65112,
    "category": "City",
    "subcategory": "City",
    "admin1": "04",
    "population": 11897,
    "featured": false,
    "priority": 50
  },
  {
    "geonameId": 5895424,
    "name": "Bay Roberts",
    "latitude": 47.59989,
    "longitude": -53.26478,
    "category": "City",
    "subcategory": "City",
    "admin1": "05",
    "population": 6012,
    "featured": false,
    "priority": 50
  },
  {
    "geonameId": 5895650,
    "name": "Beaconsfield",
    "latitude": 45.43341,
    "longitude": -73.86586,
    "category": "City",
    "subcategory": "City",
    "admin1": "10",
    "population": 19194,
    "featured": false,
    "priority": 50
  },
  {
    "geonameId": 13592165,
    "name": "Beaubassin East",
    "latitude": 46.20917,
    "longitude": -64.418,
    "category": "City",
    "subcategory": "City",
    "admin1": "04",
    "population": 6718,
    "featured": false,
    "priority": 50
  },
  {
    "geonameId": 6295855,
    "name": "Beauceville",
    "latitude": 46.21785,
    "longitude": -70.77873,
    "category": "City",
    "subcategory": "City",
    "admin1": "10",
    "population": 6354,
    "featured": false,
    "priority": 50
  },
  {
    "geonameId": 5896495,
    "name": "Beauharnois",
    "latitude": 45.31341,
    "longitude": -73.8725,
    "category": "City",
    "subcategory": "City",
    "admin1": "10",
    "population": 11918,
    "featured": false,
    "priority": 50
  },
  {
    "geonameId": 5896522,
    "name": "Beaumont",
    "latitude": 53.35013,
    "longitude": -113.41871,
    "category": "City",
    "subcategory": "City",
    "admin1": "01",
    "population": 7366,
    "featured": false,
    "priority": 50
  },
  {
    "geonameId": 13592157,
    "name": "Beaurivage",
    "latitude": 46.68206,
    "longitude": -64.96023,
    "category": "City",
    "subcategory": "City",
    "admin1": "04",
    "population": 6160,
    "featured": false,
    "priority": 50
  },
  {
    "geonameId": 13592161,
    "name": "Beausoleil",
    "latitude": 46.29835,
    "longitude": -64.60329,
    "category": "City",
    "subcategory": "City",
    "admin1": "04",
    "population": 8620,
    "featured": false,
    "priority": 50
  },
  {
    "geonameId": 5896590,
    "name": "Beaver Bank",
    "latitude": 44.82484,
    "longitude": -63.68079,
    "category": "City",
    "subcategory": "City",
    "admin1": "07",
    "population": 6000,
    "featured": false,
    "priority": 50
  },
  {
    "geonameId": 5897209,
    "name": "Bécancour",
    "latitude": 46.34106,
    "longitude": -72.43224,
    "category": "City",
    "subcategory": "City",
    "admin1": "10",
    "population": 11134,
    "featured": false,
    "priority": 50
  },
  {
    "geonameId": 5897321,
    "name": "Bedford",
    "latitude": 44.72552,
    "longitude": -63.66732,
    "category": "City",
    "subcategory": "City",
    "admin1": "07",
    "population": 21474,
    "featured": false,
    "priority": 50
  },
  {
    "geonameId": 5897865,
    "name": "Belle River",
    "latitude": 42.29264,
    "longitude": -82.71192,
    "category": "City",
    "subcategory": "City",
    "admin1": "08",
    "population": 9650,
    "featured": false,
    "priority": 50
  },
  {
    "geonameId": 13592147,
    "name": "Belle-Baie",
    "latitude": 47.76532,
    "longitude": -65.74496,
    "category": "City",
    "subcategory": "City",
    "admin1": "04",
    "population": 14335,
    "featured": false,
    "priority": 50
  },
  {
    "geonameId": 5897884,
    "name": "Belleville",
    "latitude": 44.16682,
    "longitude": -77.38277,
    "category": "City",
    "subcategory": "City",
    "admin1": "08",
    "population": 50716,
    "featured": false,
    "priority": 50
  },
  {
    "geonameId": 5898070,
    "name": "Bells Corners",
    "latitude": 45.31588,
    "longitude": -75.83012,
    "category": "City",
    "subcategory": "City",
    "admin1": "08",
    "population": 9272,
    "featured": false,
    "priority": 50
  },
  {
    "geonameId": 5898138,
    "name": "Beloeil",
    "latitude": 45.56839,
    "longitude": -73.20568,
    "category": "City",
    "subcategory": "City",
    "admin1": "10",
    "population": 18927,
    "featured": false,
    "priority": 50
  },
  {
    "geonameId": 5899368,
    "name": "Bible Hill",
    "latitude": 45.375,
    "longitude": -63.238,
    "category": "City",
    "subcategory": "City",
    "admin1": "07",
    "population": 5076,
    "featured": false,
    "priority": 50
  },
  {
    "geonameId": 5902353,
    "name": "Blackburn Hamlet",
    "latitude": 45.43671,
    "longitude": -75.56462,
    "category": "City",
    "subcategory": "City",
    "admin1": "08",
    "population": 8173,
    "featured": false,
    "priority": 50
  },
  {
    "geonameId": 5902599,
    "name": "Blackfalds",
    "latitude": 52.38342,
    "longitude": -113.7853,
    "category": "City",
    "subcategory": "City",
    "admin1": "01",
    "population": 11015,
    "featured": false,
    "priority": 50
  },
  {
    "geonameId": 5903510,
    "name": "Blainville",
    "latitude": 45.66678,
    "longitude": -73.88249,
    "category": "City",
    "subcategory": "City",
    "admin1": "10",
    "population": 46493,
    "featured": false,
    "priority": 50
  },
  {
    "geonameId": 5904032,
    "name": "Blossom Park",
    "latitude": 45.34889,
    "longitude": -75.62667,
    "category": "City",
    "subcategory": "City",
    "admin1": "08",
    "population": 14190,
    "featured": false,
    "priority": 50
  },
  {
    "geonameId": 5904501,
    "name": "Bluewater",
    "latitude": 43.46679,
    "longitude": -81.59977,
    "category": "City",
    "subcategory": "City",
    "admin1": "08",
    "population": 7044,
    "featured": false,
    "priority": 50
  },
  {
    "geonameId": 5905152,
    "name": "Bois-des-Filion",
    "latitude": 45.66678,
    "longitude": -73.74918,
    "category": "City",
    "subcategory": "City",
    "admin1": "10",
    "population": 8383,
    "featured": false,
    "priority": 50
  },
  {
    "geonameId": 5905132,
    "name": "Boisbriand",
    "latitude": 45.61678,
    "longitude": -73.83249,
    "category": "City",
    "subcategory": "City",
    "admin1": "10",
    "population": 26483,
    "featured": false,
    "priority": 50
  },
  {
    "geonameId": 6695248,
    "name": "Boischatel",
    "latitude": 46.89434,
    "longitude": -71.1448,
    "category": "City",
    "subcategory": "City",
    "admin1": "10",
    "population": 8231,
    "featured": false,
    "priority": 50
  },
  {
    "geonameId": 5905308,
    "name": "Bolton",
    "latitude": 43.87952,
    "longitude": -79.73791,
    "category": "City",
    "subcategory": "City",
    "admin1": "08",
    "population": 26795,
    "featured": false,
    "priority": 50
  },
  {
    "geonameId": 5905616,
    "name": "Bonnyville",
    "latitude": 54.26684,
    "longitude": -110.73505,
    "category": "City",
    "subcategory": "City",
    "admin1": "01",
    "population": 5975,
    "featured": false,
    "priority": 50
  },
  {
    "geonameId": 5906267,
    "name": "Boucherville",
    "latitude": 45.59104,
    "longitude": -73.43605,
    "category": "City",
    "subcategory": "City",
    "admin1": "10",
    "population": 39062,
    "featured": false,
    "priority": 50
  },
  {
    "geonameId": 5906831,
    "name": "Bowmanville",
    "latitude": 43.91682,
    "longitude": -78.68286,
    "category": "City",
    "subcategory": "City",
    "admin1": "08",
    "population": 39371,
    "featured": false,
    "priority": 50
  },
  {
    "geonameId": 5907092,
    "name": "Bracebridge",
    "latitude": 45.03341,
    "longitude": -79.31633,
    "category": "City",
    "subcategory": "City",
    "admin1": "08",
    "population": 16010,
    "featured": false,
    "priority": 50
  },
  {
    "geonameId": 5907364,
    "name": "Brampton",
    "latitude": 43.68341,
    "longitude": -79.76633,
    "category": "City",
    "subcategory": "City",
    "admin1": "08",
    "population": 656480,
    "featured": false,
    "priority": 50
  },
  {
    "geonameId": 5907896,
    "name": "Brandon",
    "latitude": 49.84692,
    "longitude": -99.95306,
    "category": "City",
    "subcategory": "City",
    "admin1": "03",
    "population": 48859,
    "featured": false,
    "priority": 50
  },
  {
    "geonameId": 5907983,
    "name": "Brant",
    "latitude": 43.1334,
    "longitude": -80.34967,
    "category": "City",
    "subcategory": "City",
    "admin1": "08",
    "population": 34415,
    "featured": false,
    "priority": 50
  },
  {
    "geonameId": 5907990,
    "name": "Brantford",
    "latitude": 43.1334,
    "longitude": -80.26636,
    "category": "City",
    "subcategory": "City",
    "admin1": "08",
    "population": 104688,
    "featured": false,
    "priority": 50
  },
  {
    "geonameId": 5908473,
    "name": "Brentwood Bay",
    "latitude": 48.58294,
    "longitude": -123.45262,
    "category": "City",
    "subcategory": "City",
    "admin1": "02",
    "population": 7581,
    "featured": false,
    "priority": 50
  },
  {
    "geonameId": 5908481,
    "name": "Breslau",
    "latitude": 43.4668,
    "longitude": -80.41638,
    "category": "City",
    "subcategory": "City",
    "admin1": "08",
    "population": 5053,
    "featured": false,
    "priority": 50
  },
  {
    "geonameId": 5908723,
    "name": "Bridgewater",
    "latitude": 44.37856,
    "longitude": -64.51882,
    "category": "City",
    "subcategory": "City",
    "admin1": "07",
    "population": 8790,
    "featured": false,
    "priority": 50
  },
  {
    "geonameId": 5908737,
    "name": "Bridlewood",
    "latitude": 45.28522,
    "longitude": -75.8569,
    "category": "City",
    "subcategory": "City",
    "admin1": "08",
    "population": 24400,
    "featured": false,
    "priority": 50
  },
  {
    "geonameId": 5909294,
    "name": "Brockville",
    "latitude": 44.59132,
    "longitude": -75.68705,
    "category": "City",
    "subcategory": "City",
    "admin1": "08",
    "population": 23886,
    "featured": false,
    "priority": 50
  },
  {
    "geonameId": 5909483,
    "name": "Brooklin",
    "latitude": 43.95833,
    "longitude": -78.95972,
    "category": "City",
    "subcategory": "City",
    "admin1": "08",
    "population": 25000,
    "featured": false,
    "priority": 50
  },
  {
    "geonameId": 5909514,
    "name": "Brooks",
    "latitude": 50.58341,
    "longitude": -111.88509,
    "category": "City",
    "subcategory": "City",
    "admin1": "01",
    "population": 14451,
    "featured": false,
    "priority": 50
  },
  {
    "geonameId": 5909629,
    "name": "Brossard",
    "latitude": 45.45008,
    "longitude": -73.46583,
    "category": "City",
    "subcategory": "City",
    "admin1": "10",
    "population": 69575,
    "featured": false,
    "priority": 50
  },
  {
    "geonameId": 5909969,
    "name": "Brownsburg-Chatham",
    "latitude": 45.68342,
    "longitude": -74.4159,
    "category": "City",
    "subcategory": "City",
    "admin1": "10",
    "population": 6664,
    "featured": false,
    "priority": 50
  },
  {
    "geonameId": 6942645,
    "name": "Buckingham",
    "latitude": 45.58563,
    "longitude": -75.4208,
    "category": "City",
    "subcategory": "City",
    "admin1": "10",
    "population": 16685,
    "featured": false,
    "priority": 50
  },
  {
    "geonameId": 5911592,
    "name": "Burlington",
    "latitude": 43.38621,
    "longitude": -79.83713,
    "category": "City",
    "subcategory": "City",
    "admin1": "08",
    "population": 186948,
    "featured": false,
    "priority": 50
  },
  {
    "geonameId": 5911606,
    "name": "Burnaby",
    "latitude": 49.26636,
    "longitude": -122.95263,
    "category": "City",
    "subcategory": "District Seat",
    "admin1": "02",
    "population": 249125,
    "featured": false,
    "priority": 50
  },
  {
    "geonameId": 5911715,
    "name": "Burnside",
    "latitude": 44.70175,
    "longitude": -63.60051,
    "category": "City",
    "subcategory": "City",
    "admin1": "07",
    "population": 7506,
    "featured": false,
    "priority": 50
  },
  {
    "geonameId": 5912150,
    "name": "Burquitlam",
    "latitude": 49.26667,
    "longitude": -122.88333,
    "category": "City",
    "subcategory": "City",
    "admin1": "02",
    "population": 14896,
    "featured": false,
    "priority": 50
  },
  {
    "geonameId": 13592171,
    "name": "Butternut Valley",
    "latitude": 45.83331,
    "longitude": -65.5347,
    "category": "City",
    "subcategory": "City",
    "admin1": "04",
    "population": 5435,
    "featured": false,
    "priority": 50
  },
  {
    "geonameId": 5913414,
    "name": "Caledon",
    "latitude": 43.86544,
    "longitude": -79.99322,
    "category": "City",
    "subcategory": "City",
    "admin1": "08",
    "population": 76581,
    "featured": false,
    "priority": 50
  },
  {
    "geonameId": 5913490,
    "name": "Calgary",
    "latitude": 51.05011,
    "longitude": -114.08529,
    "category": "City",
    "subcategory": "City",
    "admin1": "01",
    "population": 1306784,
    "featured": false,
    "priority": 50
  },
  {
    "geonameId": 5913695,
    "name": "Cambridge",
    "latitude": 43.3601,
    "longitude": -80.31269,
    "category": "City",
    "subcategory": "City",
    "admin1": "08",
    "population": 129920,
    "featured": false,
    "priority": 50
  },
  {
    "geonameId": 5913934,
    "name": "Camlachie",
    "latitude": 43.03596,
    "longitude": -82.1616,
    "category": "City",
    "subcategory": "City",
    "admin1": "08",
    "population": 7506,
    "featured": false,
    "priority": 50
  },
  {
    "geonameId": 5914132,
    "name": "Campbell River",
    "latitude": 50.01634,
    "longitude": -125.24459,
    "category": "City",
    "subcategory": "City",
    "admin1": "02",
    "population": 33430,
    "featured": false,
    "priority": 50
  },
  {
    "geonameId": 6696258,
    "name": "Campbellton",
    "latitude": 48.00751,
    "longitude": -66.67272,
    "category": "City",
    "subcategory": "City",
    "admin1": "04",
    "population": 6883,
    "featured": false,
    "priority": 50
  },
  {
    "geonameId": 5914653,
    "name": "Camrose",
    "latitude": 53.01684,
    "longitude": -112.83525,
    "category": "City",
    "subcategory": "City",
    "admin1": "01",
    "population": 20405,
    "featured": false,
    "priority": 50
  },
  {
    "geonameId": 5914826,
    "name": "Candiac",
    "latitude": 45.38338,
    "longitude": -73.51587,
    "category": "City",
    "subcategory": "City",
    "admin1": "10",
    "population": 15947,
    "featured": false,
    "priority": 50
  },
  {
    "geonameId": 5914894,
    "name": "Canmore",
    "latitude": 51.08335,
    "longitude": -115.35206,
    "category": "City",
    "subcategory": "City",
    "admin1": "01",
    "population": 13992,
    "featured": false,
    "priority": 50
  },
  {
    "geonameId": 5915148,
    "name": "Cantley",
    "latitude": 45.5668,
    "longitude": -75.78265,
    "category": "City",
    "subcategory": "City",
    "admin1": "10",
    "population": 10412,
    "featured": false,
    "priority": 50
  },
  {
    "geonameId": 13592163,
    "name": "Cap-Acadie",
    "latitude": 46.20142,
    "longitude": -64.32416,
    "category": "City",
    "subcategory": "City",
    "admin1": "04",
    "population": 9165,
    "featured": false,
    "priority": 50
  },
  {
    "geonameId": 5915327,
    "name": "Cap-aux-Meules",
    "latitude": 47.38208,
    "longitude": -61.85968,
    "category": "City",
    "subcategory": "City",
    "admin1": "10",
    "population": 12190,
    "featured": false,
    "priority": 50
  },
  {
    "geonameId": 5917117,
    "name": "Carignan",
    "latitude": 45.45008,
    "longitude": -73.29916,
    "category": "City",
    "subcategory": "City",
    "admin1": "10",
    "population": 7426,
    "featured": false,
    "priority": 50
  },
  {
    "geonameId": 13592183,
    "name": "Carleton North",
    "latitude": 46.49895,
    "longitude": -67.55754,
    "category": "City",
    "subcategory": "City",
    "admin1": "04",
    "population": 9170,
    "featured": false,
    "priority": 50
  },
  {
    "geonameId": 5917158,
    "name": "Carleton Place",
    "latitude": 45.13341,
    "longitude": -76.14938,
    "category": "City",
    "subcategory": "City",
    "admin1": "08",
    "population": 11901,
    "featured": false,
    "priority": 50
  },
  {
    "geonameId": 5917781,
    "name": "Cartierville",
    "latitude": 45.53118,
    "longitude": -73.70358,
    "category": "City",
    "subcategory": "City",
    "admin1": "10",
    "population": 34667,
    "featured": false,
    "priority": 50
  },
  {
    "geonameId": 5918118,
    "name": "Castlegar",
    "latitude": 49.32317,
    "longitude": -117.65831,
    "category": "City",
    "subcategory": "City",
    "admin1": "02",
    "population": 8338,
    "featured": false,
    "priority": 50
  },
  {
    "geonameId": 5919004,
    "name": "Centennial Place",
    "latitude": 46.08333,
    "longitude": -64.81667,
    "category": "City",
    "subcategory": "City",
    "admin1": "04",
    "population": 7698,
    "featured": false,
    "priority": 50
  },
  {
    "geonameId": 5919015,
    "name": "Central Business District",
    "latitude": 52.13032,
    "longitude": -106.66228,
    "category": "City",
    "subcategory": "City",
    "admin1": "11",
    "population": 12101,
    "featured": false,
    "priority": 50
  },
  {
    "geonameId": 5919137,
    "name": "Central Saanich",
    "latitude": 48.56634,
    "longitude": -123.41932,
    "category": "City",
    "subcategory": "City",
    "admin1": "02",
    "population": 17385,
    "featured": false,
    "priority": 50
  },
  {
    "geonameId": 13592178,
    "name": "Central York",
    "latitude": 46.0051,
    "longitude": -66.90803,
    "category": "City",
    "subcategory": "City",
    "admin1": "04",
    "population": 6930,
    "featured": false,
    "priority": 50
  },
  {
    "geonameId": 5919566,
    "name": "Chambly",
    "latitude": 45.45008,
    "longitude": -73.28246,
    "category": "City",
    "subcategory": "City",
    "admin1": "10",
    "population": 22608,
    "featured": false,
    "priority": 50
  },
  {
    "geonameId": 13592160,
    "name": "Champdoré",
    "latitude": 46.38601,
    "longitude": -64.78239,
    "category": "City",
    "subcategory": "City",
    "admin1": "04",
    "population": 5115,
    "featured": false,
    "priority": 50
  },
  {
    "geonameId": 6943811,
    "name": "Chandler",
    "latitude": 48.34935,
    "longitude": -64.67926,
    "category": "City",
    "subcategory": "City",
    "admin1": "10",
    "population": 7914,
    "featured": false,
    "priority": 50
  },
  {
    "geonameId": 5920089,
    "name": "Charlemagne",
    "latitude": 45.71678,
    "longitude": -73.48247,
    "category": "City",
    "subcategory": "City",
    "admin1": "10",
    "population": 5594,
    "featured": false,
    "priority": 50
  },
  {
    "geonameId": 5920288,
    "name": "Charlottetown",
    "latitude": 46.23459,
    "longitude": -63.1256,
    "category": "City",
    "subcategory": "Regional Capital",
    "admin1": "09",
    "population": 38809,
    "featured": false,
    "priority": 50
  },
  {
    "geonameId": 5920343,
    "name": "Chartersville",
    "latitude": 46.08494,
    "longitude": -64.73339,
    "category": "City",
    "subcategory": "City",
    "admin1": "04",
    "population": 5600,
    "featured": false,
    "priority": 50
  },
  {
    "geonameId": 5920433,
    "name": "Châteauguay",
    "latitude": 45.38338,
    "longitude": -73.74919,
    "category": "City",
    "subcategory": "City",
    "admin1": "10",
    "population": 42786,
    "featured": false,
    "priority": 50
  },
  {
    "geonameId": 5920457,
    "name": "Chatham",
    "latitude": 42.41224,
    "longitude": -82.18494,
    "category": "City",
    "subcategory": "City",
    "admin1": "08",
    "population": 43550,
    "featured": false,
    "priority": 50
  },
  {
    "geonameId": 5920652,
    "name": "Chelsea",
    "latitude": 45.5001,
    "longitude": -75.78265,
    "category": "City",
    "subcategory": "City",
    "admin1": "10",
    "population": 8000,
    "featured": false,
    "priority": 50
  },
  {
    "geonameId": 5921060,
    "name": "Chestermere",
    "latitude": 51.03341,
    "longitude": -113.81867,
    "category": "City",
    "subcategory": "City",
    "admin1": "01",
    "population": 32255,
    "featured": false,
    "priority": 50
  },
  {
    "geonameId": 5921147,
    "name": "Chibougamau",
    "latitude": 49.91684,
    "longitude": -74.36586,
    "category": "City",
    "subcategory": "City",
    "admin1": "10",
    "population": 7563,
    "featured": false,
    "priority": 50
  },
  {
    "geonameId": 5921356,
    "name": "Chilliwack",
    "latitude": 49.16638,
    "longitude": -121.95257,
    "category": "City",
    "subcategory": "County Seat",
    "admin1": "02",
    "population": 101491,
    "featured": false,
    "priority": 50
  },
  {
    "geonameId": 5921556,
    "name": "Chippawa",
    "latitude": 43.0571,
    "longitude": -79.04717,
    "category": "City",
    "subcategory": "City",
    "admin1": "08",
    "population": 6077,
    "featured": false,
    "priority": 50
  },
  {
    "geonameId": 5921588,
    "name": "Chisasibi",
    "latitude": 53.78333,
    "longitude": -78.9,
    "category": "City",
    "subcategory": "City",
    "admin1": "10",
    "population": 5397,
    "featured": false,
    "priority": 50
  },
  {
    "geonameId": 5923101,
    "name": "Clarence-Rockland",
    "latitude": 45.5501,
    "longitude": -75.29101,
    "category": "City",
    "subcategory": "City",
    "admin1": "08",
    "population": 20790,
    "featured": false,
    "priority": 50
  },
  {
    "geonameId": 5923118,
    "name": "Clarenville",
    "latitude": 48.1666,
    "longitude": -53.96482,
    "category": "City",
    "subcategory": "City",
    "admin1": "05",
    "population": 6704,
    "featured": false,
    "priority": 50
  },
  {
    "geonameId": 5923436,
    "name": "Clayburn",
    "latitude": 49.0691,
    "longitude": -122.26176,
    "category": "City",
    "subcategory": "City",
    "admin1": "02",
    "population": 11755,
    "featured": false,
    "priority": 50
  },
  {
    "geonameId": 5924417,
    "name": "Coaldale",
    "latitude": 49.7167,
    "longitude": -112.61854,
    "category": "City",
    "subcategory": "City",
    "admin1": "01",
    "population": 8215,
    "featured": false,
    "priority": 50
  },
  {
    "geonameId": 5924500,
    "name": "Coaticook",
    "latitude": 45.13339,
    "longitude": -71.79907,
    "category": "City",
    "subcategory": "City",
    "admin1": "10",
    "population": 7021,
    "featured": false,
    "priority": 50
  },
  {
    "geonameId": 5924579,
    "name": "Cobourg",
    "latitude": 43.95977,
    "longitude": -78.16515,
    "category": "City",
    "subcategory": "City",
    "admin1": "08",
    "population": 18099,
    "featured": false,
    "priority": 50
  },
  {
    "geonameId": 5924614,
    "name": "Cochrane",
    "latitude": 49.06689,
    "longitude": -81.03307,
    "category": "City",
    "subcategory": "City",
    "admin1": "08",
    "population": 5390,
    "featured": false,
    "priority": 50
  },
  {
    "geonameId": 5925024,
    "name": "Cold Lake",
    "latitude": 54.46525,
    "longitude": -110.18154,
    "category": "City",
    "subcategory": "City",
    "admin1": "01",
    "population": 11595,
    "featured": false,
    "priority": 50
  },
  {
    "geonameId": 5925058,
    "name": "Coldstream",
    "latitude": 50.21649,
    "longitude": -119.20235,
    "category": "City",
    "subcategory": "City",
    "admin1": "02",
    "population": 11171,
    "featured": false,
    "priority": 50
  },
  {
    "geonameId": 5925975,
    "name": "Collingwood",
    "latitude": 44.4834,
    "longitude": -80.21638,
    "category": "City",
    "subcategory": "City",
    "admin1": "08",
    "population": 21793,
    "featured": false,
    "priority": 50
  },
  {
    "geonameId": 5926268,
    "name": "Colwood",
    "latitude": 48.43293,
    "longitude": -123.48591,
    "category": "City",
    "subcategory": "City",
    "admin1": "02",
    "population": 16859,
    "featured": false,
    "priority": 50
  },
  {
    "geonameId": 5926432,
    "name": "Comox",
    "latitude": 49.68294,
    "longitude": -124.93613,
    "category": "City",
    "subcategory": "City",
    "admin1": "02",
    "population": 14806,
    "featured": false,
    "priority": 50
  },
  {
    "geonameId": 5926511,
    "name": "Conception Bay South",
    "latitude": 47.49989,
    "longitude": -52.99806,
    "category": "City",
    "subcategory": "City",
    "admin1": "05",
    "population": 27168,
    "featured": false,
    "priority": 50
  },
  {
    "geonameId": 5926526,
    "name": "Concord",
    "latitude": 43.80011,
    "longitude": -79.48291,
    "category": "City",
    "subcategory": "City",
    "admin1": "08",
    "population": 8255,
    "featured": false,
    "priority": 50
  },
  {
    "geonameId": 5927043,
    "name": "Convoy Place",
    "latitude": 44.66785,
    "longitude": -63.61431,
    "category": "City",
    "subcategory": "City",
    "admin1": "07",
    "population": 5581,
    "featured": false,
    "priority": 50
  },
  {
    "geonameId": 5927235,
    "name": "Cookshire-Eaton",
    "latitude": 45.41675,
    "longitude": -71.6324,
    "category": "City",
    "subcategory": "City",
    "admin1": "10",
    "population": 5344,
    "featured": false,
    "priority": 50
  },
  {
    "geonameId": 5927631,
    "name": "Copper Mountain",
    "latitude": 51.2083,
    "longitude": -115.8833,
    "category": "Mountain",
    "subcategory": "Mountain",
    "admin1": "01",
    "population": 0,
    "featured": false,
    "priority": 50
  },
  {
    "geonameId": 5927690,
    "name": "Coquitlam",
    "latitude": 49.2846,
    "longitude": -122.78217,
    "category": "City",
    "subcategory": "District Seat",
    "admin1": "02",
    "population": 148625,
    "featured": false,
    "priority": 50
  },
  {
    "geonameId": 5927969,
    "name": "Corner Brook",
    "latitude": 48.95001,
    "longitude": -57.95202,
    "category": "City",
    "subcategory": "City",
    "admin1": "05",
    "population": 19316,
    "featured": false,
    "priority": 50
  },
  {
    "geonameId": 5928063,
    "name": "Cornwall",
    "latitude": 46.22652,
    "longitude": -63.21809,
    "category": "City",
    "subcategory": "City",
    "admin1": "09",
    "population": 6574,
    "featured": false,
    "priority": 50
  },
  {
    "geonameId": 5928202,
    "name": "Corunna",
    "latitude": 42.88338,
    "longitude": -82.43313,
    "category": "City",
    "subcategory": "City",
    "admin1": "08",
    "population": 5686,
    "featured": false,
    "priority": 50
  },
  {
    "geonameId": 5928488,
    "name": "Côte-Saint-Luc",
    "latitude": 45.46536,
    "longitude": -73.66585,
    "category": "City",
    "subcategory": "City",
    "admin1": "10",
    "population": 31395,
    "featured": false,
    "priority": 50
  },
  {
    "geonameId": 5928337,
    "name": "Coteau-du-Lac",
    "latitude": 45.30008,
    "longitude": -74.18253,
    "category": "City",
    "subcategory": "City",
    "admin1": "10",
    "population": 7044,
    "featured": false,
    "priority": 50
  },
  {
    "geonameId": 5930890,
    "name": "Courtenay",
    "latitude": 49.68657,
    "longitude": -124.9936,
    "category": "City",
    "subcategory": "City",
    "admin1": "02",
    "population": 28420,
    "featured": false,
    "priority": 50
  },
  {
    "geonameId": 5931074,
    "name": "Cowansville",
    "latitude": 45.20008,
    "longitude": -72.74913,
    "category": "City",
    "subcategory": "City",
    "admin1": "10",
    "population": 10887,
    "featured": false,
    "priority": 50
  },
  {
    "geonameId": 5931800,
    "name": "Cranbrook",
    "latitude": 49.49991,
    "longitude": -115.76879,
    "category": "City",
    "subcategory": "City",
    "admin1": "02",
    "population": 20047,
    "featured": false,
    "priority": 50
  },
  {
    "geonameId": 5931936,
    "name": "Crater Lake",
    "latitude": 49.61144,
    "longitude": -87.9552,
    "category": "Lake",
    "subcategory": "Lake",
    "admin1": "08",
    "population": 0,
    "featured": false,
    "priority": 50
  },
  {
    "geonameId": 5932311,
    "name": "Creston",
    "latitude": 49.09987,
    "longitude": -116.50211,
    "category": "City",
    "subcategory": "City",
    "admin1": "02",
    "population": 5583,
    "featured": false,
    "priority": 50
  },
  {
    "geonameId": 5935277,
    "name": "Dartmouth",
    "latitude": 44.67134,
    "longitude": -63.57719,
    "category": "City",
    "subcategory": "City",
    "admin1": "07",
    "population": 101343,
    "featured": false,
    "priority": 50
  },
  {
    "geonameId": 5935341,
    "name": "Dauphin",
    "latitude": 51.14941,
    "longitude": -100.05023,
    "category": "City",
    "subcategory": "City",
    "admin1": "03",
    "population": 8457,
    "featured": false,
    "priority": 50
  },
  {
    "geonameId": 5935804,
    "name": "Dawson Creek",
    "latitude": 55.75984,
    "longitude": -120.2403,
    "category": "City",
    "subcategory": "City",
    "admin1": "02",
    "population": 12323,
    "featured": false,
    "priority": 50
  },
  {
    "geonameId": 5937252,
    "name": "Deer Lake",
    "latitude": 49.16671,
    "longitude": -57.43163,
    "category": "City",
    "subcategory": "City",
    "admin1": "05",
    "population": 5319,
    "featured": false,
    "priority": 50
  },
  {
    "geonameId": 5937522,
    "name": "Delhi",
    "latitude": 42.8501,
    "longitude": -80.49968,
    "category": "City",
    "subcategory": "City",
    "admin1": "08",
    "population": 5344,
    "featured": false,
    "priority": 50
  },
  {
    "geonameId": 5937612,
    "name": "Delson",
    "latitude": 45.36678,
    "longitude": -73.54917,
    "category": "City",
    "subcategory": "City",
    "admin1": "10",
    "population": 7322,
    "featured": false,
    "priority": 50
  },
  {
    "geonameId": 5937615,
    "name": "Delta",
    "latitude": 49.08917,
    "longitude": -123.05322,
    "category": "City",
    "subcategory": "City",
    "admin1": "02",
    "population": 101668,
    "featured": false,
    "priority": 50
  },
  {
    "geonameId": 5938513,
    "name": "Deux-Montagnes",
    "latitude": 45.53455,
    "longitude": -73.90168,
    "category": "City",
    "subcategory": "City",
    "admin1": "10",
    "population": 17402,
    "featured": false,
    "priority": 50
  },
  {
    "geonameId": 5938801,
    "name": "Devon",
    "latitude": 53.36683,
    "longitude": -113.73533,
    "category": "City",
    "subcategory": "City",
    "admin1": "01",
    "population": 6545,
    "featured": false,
    "priority": 50
  },
  {
    "geonameId": 5939219,
    "name": "Dieppe",
    "latitude": 46.07844,
    "longitude": -64.68735,
    "category": "City",
    "subcategory": "City",
    "admin1": "04",
    "population": 27304,
    "featured": false,
    "priority": 50
  },
  {
    "geonameId": 5940934,
    "name": "Dolbeau-Mistassini",
    "latitude": 48.8786,
    "longitude": -72.23142,
    "category": "City",
    "subcategory": "City",
    "admin1": "10",
    "population": 12916,
    "featured": false,
    "priority": 50
  },
  {
    "geonameId": 5940956,
    "name": "Dollard-Des Ormeaux",
    "latitude": 45.49452,
    "longitude": -73.82419,
    "category": "City",
    "subcategory": "City",
    "admin1": "10",
    "population": 48930,
    "featured": false,
    "priority": 50
  },
  {
    "geonameId": 7535690,
    "name": "Donnacona",
    "latitude": 46.68042,
    "longitude": -71.7239,
    "category": "City",
    "subcategory": "City",
    "admin1": "10",
    "population": 7200,
    "featured": false,
    "priority": 50
  },
  {
    "geonameId": 5941761,
    "name": "Dorchester",
    "latitude": 42.98339,
    "longitude": -81.06643,
    "category": "City",
    "subcategory": "City",
    "admin1": "08",
    "population": 9329,
    "featured": false,
    "priority": 50
  },
  {
    "geonameId": 5941925,
    "name": "Dorval",
    "latitude": 45.4473,
    "longitude": -73.75335,
    "category": "City",
    "subcategory": "City",
    "admin1": "10",
    "population": 18980,
    "featured": false,
    "priority": 50
  },
  {
    "geonameId": 5942099,
    "name": "Douglas",
    "latitude": 45.97832,
    "longitude": -66.73108,
    "category": "City",
    "subcategory": "City",
    "admin1": "04",
    "population": 5935,
    "featured": false,
    "priority": 50
  },
  {
    "geonameId": 5942547,
    "name": "Drayton Valley",
    "latitude": 53.21682,
    "longitude": -114.98544,
    "category": "City",
    "subcategory": "City",
    "admin1": "01",
    "population": 6099,
    "featured": false,
    "priority": 50
  },
  {
    "geonameId": 5942798,
    "name": "Drumheller",
    "latitude": 51.46171,
    "longitude": -112.71011,
    "category": "City",
    "subcategory": "City",
    "admin1": "01",
    "population": 8430,
    "featured": false,
    "priority": 50
  },
  {
    "geonameId": 5942845,
    "name": "Drummondville",
    "latitude": 45.88336,
    "longitude": -72.48241,
    "category": "City",
    "subcategory": "City",
    "admin1": "10",
    "population": 59489,
    "featured": false,
    "priority": 50
  },
  {
    "geonameId": 5942913,
    "name": "Dryden",
    "latitude": 49.78334,
    "longitude": -92.75032,
    "category": "City",
    "subcategory": "City",
    "admin1": "08",
    "population": 8195,
    "featured": false,
    "priority": 50
  },
  {
    "geonameId": 5943865,
    "name": "Duncan",
    "latitude": 48.78293,
    "longitude": -123.70266,
    "category": "City",
    "subcategory": "City",
    "admin1": "02",
    "population": 22199,
    "featured": false,
    "priority": 50
  },
  {
    "geonameId": 5944222,
    "name": "Dunnville",
    "latitude": 42.90011,
    "longitude": -79.61631,
    "category": "City",
    "subcategory": "City",
    "admin1": "08",
    "population": 5907,
    "featured": false,
    "priority": 50
  },
  {
    "geonameId": 5944528,
    "name": "Duvernay-Est",
    "latitude": 45.65476,
    "longitude": -73.60514,
    "category": "City",
    "subcategory": "City",
    "admin1": "10",
    "population": 14000,
    "featured": false,
    "priority": 50
  },
  {
    "geonameId": 5945707,
    "name": "East Gwillimbury",
    "latitude": 44.10087,
    "longitude": -79.43785,
    "category": "City",
    "subcategory": "City",
    "admin1": "08",
    "population": 23991,
    "featured": false,
    "priority": 50
  },
  {
    "geonameId": 13592175,
    "name": "Eastern Charlotte",
    "latitude": 45.10301,
    "longitude": -66.79484,
    "category": "City",
    "subcategory": "City",
    "admin1": "04",
    "population": 7325,
    "featured": false,
    "priority": 50
  },
  {
    "geonameId": 5945566,
    "name": "Eastern Passage",
    "latitude": 44.61685,
    "longitude": -63.48199,
    "category": "City",
    "subcategory": "City",
    "admin1": "07",
    "population": 11738,
    "featured": false,
    "priority": 50
  },
  {
    "geonameId": 5946768,
    "name": "Edmonton",
    "latitude": 53.55014,
    "longitude": -113.46871,
    "category": "City",
    "subcategory": "Regional Capital",
    "admin1": "01",
    "population": 1010899,
    "featured": false,
    "priority": 50
  },
  {
    "geonameId": 6545023,
    "name": "Edmundston",
    "latitude": 47.3737,
    "longitude": -68.32512,
    "category": "City",
    "subcategory": "City",
    "admin1": "04",
    "population": 16580,
    "featured": false,
    "priority": 50
  },
  {
    "geonameId": 5946820,
    "name": "Edson",
    "latitude": 53.58345,
    "longitude": -116.43559,
    "category": "City",
    "subcategory": "City",
    "admin1": "01",
    "population": 7975,
    "featured": false,
    "priority": 50
  },
  {
    "geonameId": 5947866,
    "name": "Elliot Lake",
    "latitude": 46.38336,
    "longitude": -82.63315,
    "category": "City",
    "subcategory": "City",
    "admin1": "08",
    "population": 12508,
    "featured": false,
    "priority": 50
  },
  {
    "geonameId": 5948045,
    "name": "Elmira",
    "latitude": 43.60009,
    "longitude": -80.5497,
    "category": "City",
    "subcategory": "City",
    "admin1": "08",
    "population": 10790,
    "featured": false,
    "priority": 50
  },
  {
    "geonameId": 5948111,
    "name": "Elora",
    "latitude": 43.6834,
    "longitude": -80.43299,
    "category": "City",
    "subcategory": "City",
    "admin1": "08",
    "population": 7800,
    "featured": false,
    "priority": 50
  },
  {
    "geonameId": 8617396,
    "name": "Embrun",
    "latitude": 45.27573,
    "longitude": -75.27266,
    "category": "City",
    "subcategory": "City",
    "admin1": "08",
    "population": 8680,
    "featured": false,
    "priority": 50
  },
  {
    "geonameId": 5948805,
    "name": "Enfield",
    "latitude": 44.9434,
    "longitude": -63.53613,
    "category": "City",
    "subcategory": "City",
    "admin1": "07",
    "population": 6583,
    "featured": false,
    "priority": 50
  },
  {
    "geonameId": 5949247,
    "name": "Erin",
    "latitude": 43.7729,
    "longitude": -80.06436,
    "category": "City",
    "subcategory": "City",
    "admin1": "08",
    "population": 11981,
    "featured": false,
    "priority": 50
  },
  {
    "geonameId": 5949512,
    "name": "Esquimalt",
    "latitude": 48.43569,
    "longitude": -123.41174,
    "category": "City",
    "subcategory": "City",
    "admin1": "02",
    "population": 17655,
    "featured": false,
    "priority": 50
  },
  {
    "geonameId": 5949531,
    "name": "Essex",
    "latitude": 42.17509,
    "longitude": -82.82483,
    "category": "City",
    "subcategory": "City",
    "admin1": "08",
    "population": 8233,
    "featured": false,
    "priority": 50
  },
  {
    "geonameId": 5949568,
    "name": "Estevan",
    "latitude": 49.13337,
    "longitude": -102.98422,
    "category": "City",
    "subcategory": "City",
    "admin1": "11",
    "population": 11258,
    "featured": false,
    "priority": 50
  },
  {
    "geonameId": 5950268,
    "name": "Etobicoke",
    "latitude": 43.64415,
    "longitude": -79.56985,
    "category": "City",
    "subcategory": "City",
    "admin1": "08",
    "population": 365000,
    "featured": false,
    "priority": 50
  },
  {
    "geonameId": 5951023,
    "name": "Fairvale",
    "latitude": 45.40083,
    "longitude": -65.97167,
    "category": "City",
    "subcategory": "City",
    "admin1": "04",
    "population": 5075,
    "featured": false,
    "priority": 50
  },
  {
    "geonameId": 5951289,
    "name": "Fall River",
    "latitude": 44.81685,
    "longitude": -63.6154,
    "category": "City",
    "subcategory": "City",
    "admin1": "07",
    "population": 11526,
    "featured": false,
    "priority": 50
  },
  {
    "geonameId": 12070742,
    "name": "Fallingbrook",
    "latitude": 45.47558,
    "longitude": -75.48401,
    "category": "City",
    "subcategory": "City",
    "admin1": "08",
    "population": 25000,
    "featured": false,
    "priority": 50
  },
  {
    "geonameId": 5951644,
    "name": "Farnham",
    "latitude": 45.28338,
    "longitude": -72.98244,
    "category": "City",
    "subcategory": "City",
    "admin1": "10",
    "population": 11228,
    "featured": false,
    "priority": 50
  },
  {
    "geonameId": 7871320,
    "name": "Fergus",
    "latitude": 43.70604,
    "longitude": -80.37761,
    "category": "City",
    "subcategory": "City",
    "admin1": "08",
    "population": 20767,
    "featured": false,
    "priority": 50
  },
  {
    "geonameId": 5952370,
    "name": "Fernie",
    "latitude": 49.49996,
    "longitude": -115.06871,
    "category": "City",
    "subcategory": "City",
    "admin1": "02",
    "population": 5249,
    "featured": false,
    "priority": 50
  },
  {
    "geonameId": 5954556,
    "name": "Fleetwood",
    "latitude": 49.16667,
    "longitude": -122.8,
    "category": "City",
    "subcategory": "City",
    "admin1": "02",
    "population": 65565,
    "featured": false,
    "priority": 50
  },
  {
    "geonameId": 5954718,
    "name": "Flin Flon",
    "latitude": 54.76703,
    "longitude": -101.87433,
    "category": "City",
    "subcategory": "City",
    "admin1": "03",
    "population": 5865,
    "featured": false,
    "priority": 50
  },
  {
    "geonameId": 5955815,
    "name": "Fort Erie",
    "latitude": 42.90012,
    "longitude": -78.93286,
    "category": "City",
    "subcategory": "City",
    "admin1": "08",
    "population": 30710,
    "featured": false,
    "priority": 50
  },
  {
    "geonameId": 5955826,
    "name": "Fort Frances",
    "latitude": 48.61667,
    "longitude": -93.4003,
    "category": "City",
    "subcategory": "City",
    "admin1": "08",
    "population": 7739,
    "featured": false,
    "priority": 50
  },
  {
    "geonameId": 5955895,
    "name": "Fort McMurray",
    "latitude": 56.72676,
    "longitude": -111.38103,
    "category": "City",
    "subcategory": "City",
    "admin1": "01",
    "population": 66573,
    "featured": false,
    "priority": 50
  },
  {
    "geonameId": 5955948,
    "name": "Fort Saskatchewan",
    "latitude": 53.69814,
    "longitude": -113.21382,
    "category": "City",
    "subcategory": "City",
    "admin1": "01",
    "population": 14957,
    "featured": false,
    "priority": 50
  },
  {
    "geonameId": 5955960,
    "name": "Fort St. John",
    "latitude": 56.24988,
    "longitude": -120.85292,
    "category": "City",
    "subcategory": "City",
    "admin1": "02",
    "population": 21465,
    "featured": false,
    "priority": 50
  },
  {
    "geonameId": 5957776,
    "name": "Fredericton",
    "latitude": 45.94541,
    "longitude": -66.66558,
    "category": "City",
    "subcategory": "Regional Capital",
    "admin1": "04",
    "population": 63116,
    "featured": false,
    "priority": 50
  },
  {
    "geonameId": 13592169,
    "name": "Fundy Albert",
    "latitude": 45.80271,
    "longitude": -64.65977,
    "category": "City",
    "subcategory": "City",
    "admin1": "04",
    "population": 6100,
    "featured": false,
    "priority": 50
  },
  {
    "geonameId": 13592173,
    "name": "Fundy-St. Martins",
    "latitude": 45.40777,
    "longitude": -65.43908,
    "category": "City",
    "subcategory": "City",
    "admin1": "04",
    "population": 5225,
    "featured": false,
    "priority": 50
  },
  {
    "geonameId": 5959326,
    "name": "Gananoque",
    "latitude": 44.33342,
    "longitude": -76.16607,
    "category": "City",
    "subcategory": "City",
    "admin1": "08",
    "population": 5458,
    "featured": false,
    "priority": 50
  },
  {
    "geonameId": 5959335,
    "name": "Gander",
    "latitude": 48.95624,
    "longitude": -54.61647,
    "category": "City",
    "subcategory": "City",
    "admin1": "05",
    "population": 11880,
    "featured": false,
    "priority": 50
  },
  {
    "geonameId": 5959360,
    "name": "Ganges",
    "latitude": 48.85342,
    "longitude": -123.50032,
    "category": "City",
    "subcategory": "City",
    "admin1": "02",
    "population": 6000,
    "featured": false,
    "priority": 50
  },
  {
    "geonameId": 5959878,
    "name": "Gaspé",
    "latitude": 48.83341,
    "longitude": -64.48194,
    "category": "City",
    "subcategory": "City",
    "admin1": "10",
    "population": 14819,
    "featured": false,
    "priority": 50
  },
  {
    "geonameId": 5959974,
    "name": "Gatineau",
    "latitude": 45.47723,
    "longitude": -75.70164,
    "category": "City",
    "subcategory": "City",
    "admin1": "10",
    "population": 300045,
    "featured": false,
    "priority": 50
  },
  {
    "geonameId": 5960533,
    "name": "Georgetown",
    "latitude": 43.65011,
    "longitude": -79.91634,
    "category": "City",
    "subcategory": "City",
    "admin1": "08",
    "population": 44058,
    "featured": false,
    "priority": 50
  },
  {
    "geonameId": 5960971,
    "name": "Gibsons",
    "latitude": 49.39539,
    "longitude": -123.50555,
    "category": "City",
    "subcategory": "City",
    "admin1": "02",
    "population": 6821,
    "featured": false,
    "priority": 50
  },
  {
    "geonameId": 5961564,
    "name": "Glace Bay",
    "latitude": 46.19695,
    "longitude": -59.95698,
    "category": "City",
    "subcategory": "City",
    "admin1": "07",
    "population": 16915,
    "featured": false,
    "priority": 50
  },
  {
    "geonameId": 5961862,
    "name": "Glen Cairn",
    "latitude": 46.11667,
    "longitude": -64.85,
    "category": "City",
    "subcategory": "City",
    "admin1": "04",
    "population": 8960,
    "featured": false,
    "priority": 50
  },
  {
    "geonameId": 5962204,
    "name": "Gloucester",
    "latitude": 45.35,
    "longitude": -75.63333,
    "category": "City",
    "subcategory": "City",
    "admin1": "08",
    "population": 150012,
    "featured": false,
    "priority": 50
  },
  {
    "geonameId": 5962442,
    "name": "Goderich",
    "latitude": 43.74171,
    "longitude": -81.71339,
    "category": "City",
    "subcategory": "City",
    "admin1": "08",
    "population": 7628,
    "featured": false,
    "priority": 50
  },
  {
    "geonameId": 5964215,
    "name": "Granby",
    "latitude": 45.40008,
    "longitude": -72.73243,
    "category": "City",
    "subcategory": "City",
    "admin1": "10",
    "population": 66222,
    "featured": false,
    "priority": 50
  },
  {
    "geonameId": 12070752,
    "name": "Grand Centre",
    "latitude": 54.41628,
    "longitude": -110.21304,
    "category": "City",
    "subcategory": "City",
    "admin1": "01",
    "population": 7256,
    "featured": false,
    "priority": 50
  },
  {
    "geonameId": 6621033,
    "name": "Grand Falls",
    "latitude": 47.04609,
    "longitude": -67.74179,
    "category": "City",
    "subcategory": "City",
    "admin1": "04",
    "population": 5220,
    "featured": false,
    "priority": 50
  },
  {
    "geonameId": 5964378,
    "name": "Grand Falls-Windsor",
    "latitude": 48.93324,
    "longitude": -55.66492,
    "category": "City",
    "subcategory": "City",
    "admin1": "05",
    "population": 13853,
    "featured": false,
    "priority": 50
  },
  {
    "geonameId": 13592177,
    "name": "Grand Lake",
    "latitude": 46.11258,
    "longitude": -65.95682,
    "category": "City",
    "subcategory": "City",
    "admin1": "04",
    "population": 5725,
    "featured": false,
    "priority": 50
  },
  {
    "geonameId": 5964347,
    "name": "Grande Prairie",
    "latitude": 55.16667,
    "longitude": -118.80271,
    "category": "City",
    "subcategory": "City",
    "admin1": "01",
    "population": 70385,
    "featured": false,
    "priority": 50
  },
  {
    "geonameId": 5965546,
    "name": "Gravenhurst",
    "latitude": 44.91681,
    "longitude": -79.36633,
    "category": "City",
    "subcategory": "City",
    "admin1": "08",
    "population": 12312,
    "featured": false,
    "priority": 50
  },
  {
    "geonameId": 5965812,
    "name": "Greater Napanee",
    "latitude": 44.25012,
    "longitude": -76.94944,
    "category": "City",
    "subcategory": "City",
    "admin1": "08",
    "population": 15892,
    "featured": false,
    "priority": 50
  },
  {
    "geonameId": 5964700,
    "name": "Greater Sudbury",
    "latitude": 46.49,
    "longitude": -80.99001,
    "category": "City",
    "subcategory": "City",
    "admin1": "08",
    "population": 166004,
    "featured": false,
    "priority": 50
  },
  {
    "geonameId": 5965932,
    "name": "Greely",
    "latitude": 45.26139,
    "longitude": -75.56111,
    "category": "City",
    "subcategory": "City",
    "admin1": "08",
    "population": 9049,
    "featured": false,
    "priority": 50
  },
  {
    "geonameId": 5966078,
    "name": "Greenfield Park",
    "latitude": 45.48649,
    "longitude": -73.46223,
    "category": "City",
    "subcategory": "City",
    "admin1": "10",
    "population": 16733,
    "featured": false,
    "priority": 50
  },
  {
    "geonameId": 5966689,
    "name": "Greenwood",
    "latitude": 44.97413,
    "longitude": -64.93169,
    "category": "City",
    "subcategory": "City",
    "admin1": "07",
    "population": 5369,
    "featured": false,
    "priority": 50
  },
  {
    "geonameId": 5967149,
    "name": "Grimsby",
    "latitude": 43.20011,
    "longitude": -79.56631,
    "category": "City",
    "subcategory": "City",
    "admin1": "08",
    "population": 27314,
    "featured": false,
    "priority": 50
  },
  {
    "geonameId": 5967629,
    "name": "Guelph",
    "latitude": 43.54594,
    "longitude": -80.25599,
    "category": "City",
    "subcategory": "City",
    "admin1": "08",
    "population": 143740,
    "featured": false,
    "priority": 50
  },
  {
    "geonameId": 5968410,
    "name": "Gunningsville",
    "latitude": 46.0739,
    "longitude": -64.77304,
    "category": "City",
    "subcategory": "City",
    "admin1": "04",
    "population": 9479,
    "featured": false,
    "priority": 50
  },
  {
    "geonameId": 6324729,
    "name": "Halifax",
    "latitude": 44.64269,
    "longitude": -63.57688,
    "category": "City",
    "subcategory": "Regional Capital",
    "admin1": "07",
    "population": 471559,
    "featured": false,
    "priority": 50
  },
  {
    "geonameId": 5969721,
    "name": "Halton Hills",
    "latitude": 43.6403,
    "longitude": -79.93146,
    "category": "City",
    "subcategory": "City",
    "admin1": "08",
    "population": 62951,
    "featured": false,
    "priority": 50
  },
  {
    "geonameId": 5969782,
    "name": "Hamilton",
    "latitude": 43.25011,
    "longitude": -79.84963,
    "category": "City",
    "subcategory": "City",
    "admin1": "08",
    "population": 569353,
    "featured": false,
    "priority": 50
  },
  {
    "geonameId": 5969976,
    "name": "Hammonds Plains",
    "latitude": 44.73386,
    "longitude": -63.77551,
    "category": "City",
    "subcategory": "City",
    "admin1": "07",
    "population": 6242,
    "featured": false,
    "priority": 50
  },
  {
    "geonameId": 5970014,
    "name": "Hampstead",
    "latitude": 45.48075,
    "longitude": -73.6467,
    "category": "City",
    "subcategory": "City",
    "admin1": "10",
    "population": 6996,
    "featured": false,
    "priority": 50
  },
  {
    "geonameId": 5970301,
    "name": "Hanover",
    "latitude": 44.15009,
    "longitude": -81.03303,
    "category": "City",
    "subcategory": "City",
    "admin1": "08",
    "population": 7688,
    "featured": false,
    "priority": 50
  },
  {
    "geonameId": 12070760,
    "name": "Hanwell",
    "latitude": 45.88308,
    "longitude": -66.76905,
    "category": "City",
    "subcategory": "City",
    "admin1": "04",
    "population": 5108,
    "featured": false,
    "priority": 50
  },
  {
    "geonameId": 5970458,
    "name": "Happy Valley-Goose Bay",
    "latitude": 53.3038,
    "longitude": -60.32576,
    "category": "City",
    "subcategory": "City",
    "admin1": "05",
    "population": 7572,
    "featured": false,
    "priority": 50
  },
  {
    "geonameId": 12076633,
    "name": "Hauterive",
    "latitude": 49.19572,
    "longitude": -68.25813,
    "category": "City",
    "subcategory": "City",
    "admin1": "10",
    "population": 11549,
    "featured": false,
    "priority": 50
  },
  {
    "geonameId": 13592151,
    "name": "Hautes-Terres",
    "latitude": 47.62877,
    "longitude": -65.09284,
    "category": "City",
    "subcategory": "City",
    "admin1": "04",
    "population": 6140,
    "featured": false,
    "priority": 50
  },
  {
    "geonameId": 5972360,
    "name": "Hawkesbury",
    "latitude": 45.60009,
    "longitude": -74.61595,
    "category": "City",
    "subcategory": "City",
    "admin1": "08",
    "population": 10263,
    "featured": false,
    "priority": 50
  },
  {
    "geonameId": 13592146,
    "name": "Heron Bay",
    "latitude": 48.02185,
    "longitude": -66.39597,
    "category": "City",
    "subcategory": "City",
    "admin1": "04",
    "population": 5536,
    "featured": false,
    "priority": 50
  },
  {
    "geonameId": 5975038,
    "name": "High River",
    "latitude": 50.58341,
    "longitude": -113.86867,
    "category": "City",
    "subcategory": "City",
    "admin1": "01",
    "population": 14324,
    "featured": false,
    "priority": 50
  },
  {
    "geonameId": 5975135,
    "name": "Hildegarde",
    "latitude": 46.12296,
    "longitude": -64.85392,
    "category": "City",
    "subcategory": "City",
    "admin1": "04",
    "population": 5327,
    "featured": false,
    "priority": 50
  },
  {
    "geonameId": 5975503,
    "name": "Hinton",
    "latitude": 53.40009,
    "longitude": -117.58567,
    "category": "City",
    "subcategory": "City",
    "admin1": "01",
    "population": 9889,
    "featured": false,
    "priority": 50
  },
  {
    "geonameId": 5975504,
    "name": "Hintonburg",
    "latitude": 45.40379,
    "longitude": -75.7283,
    "category": "City",
    "subcategory": "City",
    "admin1": "08",
    "population": 7844,
    "featured": false,
    "priority": 50
  },
  {
    "geonameId": 5976783,
    "name": "Hope",
    "latitude": 49.38299,
    "longitude": -121.44144,
    "category": "City",
    "subcategory": "City",
    "admin1": "02",
    "population": 6686,
    "featured": false,
    "priority": 50
  },
  {
    "geonameId": 5978126,
    "name": "Hudson",
    "latitude": 45.45008,
    "longitude": -74.14922,
    "category": "City",
    "subcategory": "City",
    "admin1": "10",
    "population": 5088,
    "featured": false,
    "priority": 50
  },
  {
    "geonameId": 5978464,
    "name": "Humphrey",
    "latitude": 46.11987,
    "longitude": -64.77797,
    "category": "City",
    "subcategory": "City",
    "admin1": "04",
    "population": 8195,
    "featured": false,
    "priority": 50
  },
  {
    "geonameId": 5978765,
    "name": "Huntsville",
    "latitude": 45.33341,
    "longitude": -79.21632,
    "category": "City",
    "subcategory": "City",
    "admin1": "08",
    "population": 19816,
    "featured": false,
    "priority": 50
  },
  {
    "geonameId": 5978831,
    "name": "Huron East",
    "latitude": 43.61679,
    "longitude": -81.29975,
    "category": "City",
    "subcategory": "City",
    "admin1": "08",
    "population": 9264,
    "featured": false,
    "priority": 50
  },
  {
    "geonameId": 13592150,
    "name": "Île-de-Lamèque",
    "latitude": 47.84661,
    "longitude": -64.59607,
    "category": "City",
    "subcategory": "City",
    "admin1": "04",
    "population": 5627,
    "featured": false,
    "priority": 50
  },
  {
    "geonameId": 5983175,
    "name": "Ingersoll",
    "latitude": 43.03339,
    "longitude": -80.88302,
    "category": "City",
    "subcategory": "City",
    "admin1": "08",
    "population": 13693,
    "featured": false,
    "priority": 50
  },
  {
    "geonameId": 5983430,
    "name": "Innisfail",
    "latitude": 52.02688,
    "longitude": -113.95071,
    "category": "City",
    "subcategory": "City",
    "admin1": "01",
    "population": 7672,
    "featured": false,
    "priority": 50
  },
  {
    "geonameId": 5983433,
    "name": "Innisfil",
    "latitude": 44.30011,
    "longitude": -79.64964,
    "category": "City",
    "subcategory": "City",
    "admin1": "08",
    "population": 43326,
    "featured": false,
    "priority": 50
  },
  {
    "geonameId": 5983720,
    "name": "Iqaluit",
    "latitude": 63.74697,
    "longitude": -68.51727,
    "category": "City",
    "subcategory": "Regional Capital",
    "admin1": "14",
    "population": 7429,
    "featured": false,
    "priority": 50
  },
  {
    "geonameId": 5987650,
    "name": "Joliette",
    "latitude": 46.0164,
    "longitude": -73.4236,
    "category": "City",
    "subcategory": "City",
    "admin1": "10",
    "population": 34772,
    "featured": false,
    "priority": 50
  },
  {
    "geonameId": 13546315,
    "name": "Kahnawake",
    "latitude": 45.41076,
    "longitude": -73.68139,
    "category": "City",
    "subcategory": "City",
    "admin1": "10",
    "population": 7965,
    "featured": false,
    "priority": 50
  },
  {
    "geonameId": 5989045,
    "name": "Kamloops",
    "latitude": 50.66648,
    "longitude": -120.3192,
    "category": "City",
    "subcategory": "City",
    "admin1": "02",
    "population": 104460,
    "featured": false,
    "priority": 50
  },
  {
    "geonameId": 5989117,
    "name": "Kanata",
    "latitude": 45.3001,
    "longitude": -75.91606,
    "category": "City",
    "subcategory": "City",
    "admin1": "08",
    "population": 90000,
    "featured": false,
    "priority": 50
  },
  {
    "geonameId": 5989403,
    "name": "Kapuskasing",
    "latitude": 49.41694,
    "longitude": -82.43308,
    "category": "City",
    "subcategory": "City",
    "admin1": "08",
    "population": 8292,
    "featured": false,
    "priority": 50
  },
  {
    "geonameId": 5990579,
    "name": "Kelowna",
    "latitude": 49.88307,
    "longitude": -119.48568,
    "category": "City",
    "subcategory": "City",
    "admin1": "02",
    "population": 144576,
    "featured": false,
    "priority": 50
  },
  {
    "geonameId": 5991055,
    "name": "Kenora",
    "latitude": 49.76741,
    "longitude": -94.48985,
    "category": "City",
    "subcategory": "City",
    "admin1": "08",
    "population": 15096,
    "featured": false,
    "priority": 50
  },
  {
    "geonameId": 5991148,
    "name": "Kentville",
    "latitude": 45.0771,
    "longitude": -64.49605,
    "category": "City",
    "subcategory": "City",
    "admin1": "07",
    "population": 12636,
    "featured": false,
    "priority": 50
  },
  {
    "geonameId": 5992059,
    "name": "Kimberley",
    "latitude": 49.67071,
    "longitude": -115.9776,
    "category": "City",
    "subcategory": "City",
    "admin1": "02",
    "population": 7425,
    "featured": false,
    "priority": 50
  },
  {
    "geonameId": 5992144,
    "name": "Kincardine",
    "latitude": 44.18339,
    "longitude": -81.63307,
    "category": "City",
    "subcategory": "District Seat",
    "admin1": "08",
    "population": 6725,
    "featured": false,
    "priority": 50
  },
  {
    "geonameId": 5992180,
    "name": "King",
    "latitude": 43.96514,
    "longitude": -79.59011,
    "category": "City",
    "subcategory": "City",
    "admin1": "08",
    "population": 6970,
    "featured": false,
    "priority": 50
  },
  {
    "geonameId": 5992211,
    "name": "King City",
    "latitude": 43.92856,
    "longitude": -79.52694,
    "category": "City",
    "subcategory": "City",
    "admin1": "08",
    "population": 8396,
    "featured": false,
    "priority": 50
  },
  {
    "geonameId": 5992500,
    "name": "Kingston",
    "latitude": 44.22976,
    "longitude": -76.48098,
    "category": "City",
    "subcategory": "City",
    "admin1": "08",
    "population": 132485,
    "featured": false,
    "priority": 50
  },
  {
    "geonameId": 5992526,
    "name": "Kingsville",
    "latitude": 42.10009,
    "longitude": -82.73312,
    "category": "City",
    "subcategory": "City",
    "admin1": "08",
    "population": 22119,
    "featured": false,
    "priority": 50
  },
  {
    "geonameId": 5992830,
    "name": "Kirkland",
    "latitude": 45.45008,
    "longitude": -73.86586,
    "category": "City",
    "subcategory": "City",
    "admin1": "10",
    "population": 20491,
    "featured": false,
    "priority": 50
  },
  {
    "geonameId": 5992836,
    "name": "Kirkland Lake",
    "latitude": 48.14461,
    "longitude": -80.03767,
    "category": "City",
    "subcategory": "City",
    "admin1": "08",
    "population": 7775,
    "featured": false,
    "priority": 50
  },
  {
    "geonameId": 5992996,
    "name": "Kitchener",
    "latitude": 43.42537,
    "longitude": -80.5112,
    "category": "City",
    "subcategory": "County Seat",
    "admin1": "08",
    "population": 256885,
    "featured": false,
    "priority": 50
  },
  {
    "geonameId": 5993072,
    "name": "Kitimat",
    "latitude": 54.05244,
    "longitude": -128.65342,
    "category": "City",
    "subcategory": "City",
    "admin1": "02",
    "population": 8987,
    "featured": false,
    "priority": 50
  },
  {
    "geonameId": 6534203,
    "name": "L'Ancienne-Lorette",
    "latitude": 46.79392,
    "longitude": -71.35191,
    "category": "City",
    "subcategory": "City",
    "admin1": "10",
    "population": 16516,
    "featured": false,
    "priority": 50
  },
  {
    "geonameId": 6050263,
    "name": "L'Assomption",
    "latitude": 45.82318,
    "longitude": -73.4294,
    "category": "City",
    "subcategory": "City",
    "admin1": "10",
    "population": 15906,
    "featured": false,
    "priority": 50
  },
  {
    "geonameId": 12626120,
    "name": "L'Île-Bizard–Sainte-Geneviève",
    "latitude": 45.49391,
    "longitude": -73.8956,
    "category": "City",
    "subcategory": "Local Seat",
    "admin1": "10",
    "population": 19857,
    "featured": false,
    "priority": 50
  },
  {
    "geonameId": 6053877,
    "name": "L'Île-Perrot",
    "latitude": 45.38338,
    "longitude": -73.9492,
    "category": "City",
    "subcategory": "City",
    "admin1": "10",
    "population": 9927,
    "featured": false,
    "priority": 50
  },
  {
    "geonameId": 6945986,
    "name": "La Malbaie",
    "latitude": 47.654,
    "longitude": -70.15268,
    "category": "City",
    "subcategory": "City",
    "admin1": "10",
    "population": 8959,
    "featured": false,
    "priority": 50
  },
  {
    "geonameId": 6049863,
    "name": "La Prairie",
    "latitude": 45.41678,
    "longitude": -73.49917,
    "category": "City",
    "subcategory": "City",
    "admin1": "10",
    "population": 23357,
    "featured": false,
    "priority": 50
  },
  {
    "geonameId": 6050066,
    "name": "La Ronge",
    "latitude": 55.10013,
    "longitude": -105.28422,
    "category": "City",
    "subcategory": "City",
    "admin1": "11",
    "population": 5671,
    "featured": false,
    "priority": 50
  },
  {
    "geonameId": 6050194,
    "name": "La Sarre",
    "latitude": 48.80019,
    "longitude": -79.19964,
    "category": "City",
    "subcategory": "City",
    "admin1": "10",
    "population": 7719,
    "featured": false,
    "priority": 50
  },
  {
    "geonameId": 6050416,
    "name": "La Tuque",
    "latitude": 47.43337,
    "longitude": -72.7824,
    "category": "City",
    "subcategory": "City",
    "admin1": "10",
    "population": 11001,
    "featured": false,
    "priority": 50
  },
  {
    "geonameId": 5994839,
    "name": "Labrador City",
    "latitude": 52.94626,
    "longitude": -66.91137,
    "category": "City",
    "subcategory": "City",
    "admin1": "05",
    "population": 7220,
    "featured": false,
    "priority": 50
  },
  {
    "geonameId": 6002133,
    "name": "Lac-Brome",
    "latitude": 45.21678,
    "longitude": -72.51581,
    "category": "City",
    "subcategory": "City",
    "admin1": "10",
    "population": 5629,
    "featured": false,
    "priority": 50
  },
  {
    "geonameId": 6032673,
    "name": "Lac-Mégantic",
    "latitude": 45.58338,
    "longitude": -70.88234,
    "category": "City",
    "subcategory": "City",
    "admin1": "10",
    "population": 5747,
    "featured": false,
    "priority": 50
  },
  {
    "geonameId": 6024829,
    "name": "Lachute",
    "latitude": 45.65008,
    "longitude": -74.33253,
    "category": "City",
    "subcategory": "City",
    "admin1": "10",
    "population": 9562,
    "featured": false,
    "priority": 50
  },
  {
    "geonameId": 6035615,
    "name": "Lacombe",
    "latitude": 52.46681,
    "longitude": -113.7353,
    "category": "City",
    "subcategory": "City",
    "admin1": "01",
    "population": 14258,
    "featured": false,
    "priority": 50
  },
  {
    "geonameId": 6047817,
    "name": "Ladysmith",
    "latitude": 48.99016,
    "longitude": -123.81699,
    "category": "City",
    "subcategory": "City",
    "admin1": "02",
    "population": 8537,
    "featured": false,
    "priority": 50
  },
  {
    "geonameId": 6047861,
    "name": "Laflèche",
    "latitude": 45.50008,
    "longitude": -73.46587,
    "category": "City",
    "subcategory": "City",
    "admin1": "10",
    "population": 17499,
    "featured": false,
    "priority": 50
  },
  {
    "geonameId": 12070755,
    "name": "Lake Country",
    "latitude": 50.0088,
    "longitude": -119.39672,
    "category": "City",
    "subcategory": "City",
    "admin1": "02",
    "population": 15817,
    "featured": false,
    "priority": 50
  },
  {
    "geonameId": 6048360,
    "name": "Lake Erie",
    "latitude": 42.2501,
    "longitude": -80.99973,
    "category": "Lake",
    "subcategory": "Lake",
    "admin1": "00",
    "population": 0,
    "featured": false,
    "priority": 50
  },
  {
    "geonameId": 6048422,
    "name": "Lake Huron",
    "latitude": 44.64083,
    "longitude": -81.76806,
    "category": "Lake",
    "subcategory": "Lake",
    "admin1": "08",
    "population": 0,
    "featured": false,
    "priority": 50
  },
  {
    "geonameId": 6048482,
    "name": "Lake Louise",
    "latitude": 49.03168,
    "longitude": -97.22927,
    "category": "Lake",
    "subcategory": "Lake",
    "admin1": "03",
    "population": 0,
    "featured": false,
    "priority": 50
  },
  {
    "geonameId": 6048611,
    "name": "Lake Ontario",
    "latitude": 43.75012,
    "longitude": -77.99951,
    "category": "Lake",
    "subcategory": "Lake",
    "admin1": "08",
    "population": 0,
    "featured": false,
    "priority": 50
  },
  {
    "geonameId": 6048728,
    "name": "Lake Superior",
    "latitude": 48.33222,
    "longitude": -87.09861,
    "category": "Lake",
    "subcategory": "Lake",
    "admin1": "08",
    "population": 0,
    "featured": false,
    "priority": 50
  },
  {
    "geonameId": 6048292,
    "name": "Lakeburn",
    "latitude": 46.10014,
    "longitude": -64.68205,
    "category": "City",
    "subcategory": "City",
    "admin1": "04",
    "population": 5014,
    "featured": false,
    "priority": 50
  },
  {
    "geonameId": 6049024,
    "name": "Lambton Shores",
    "latitude": 43.16678,
    "longitude": -81.93309,
    "category": "City",
    "subcategory": "City",
    "admin1": "08",
    "population": 10631,
    "featured": false,
    "priority": 50
  },
  {
    "geonameId": 6049388,
    "name": "Langford",
    "latitude": 48.44963,
    "longitude": -123.50261,
    "category": "City",
    "subcategory": "City",
    "admin1": "02",
    "population": 46584,
    "featured": false,
    "priority": 50
  },
  {
    "geonameId": 6049429,
    "name": "Langley",
    "latitude": 49.10107,
    "longitude": -122.65883,
    "category": "City",
    "subcategory": "City",
    "admin1": "02",
    "population": 132603,
    "featured": false,
    "priority": 50
  },
  {
    "geonameId": 6050177,
    "name": "LaSalle",
    "latitude": 42.24481,
    "longitude": -83.06095,
    "category": "City",
    "subcategory": "City",
    "admin1": "08",
    "population": 32721,
    "featured": false,
    "priority": 50
  },
  {
    "geonameId": 6050539,
    "name": "Laurentides",
    "latitude": 47.13336,
    "longitude": -72.28239,
    "category": "City",
    "subcategory": "City",
    "admin1": "10",
    "population": 12710,
    "featured": false,
    "priority": 50
  },
  {
    "geonameId": 6050610,
    "name": "Laval",
    "latitude": 45.56995,
    "longitude": -73.692,
    "category": "City",
    "subcategory": "City",
    "admin1": "10",
    "population": 438366,
    "featured": false,
    "priority": 50
  },
  {
    "geonameId": 6050619,
    "name": "Laval-des-Rapides",
    "latitude": 45.55642,
    "longitude": -73.70007,
    "category": "City",
    "subcategory": "City",
    "admin1": "10",
    "population": 36933,
    "featured": false,
    "priority": 50
  },
  {
    "geonameId": 6050650,
    "name": "Lavaltrie",
    "latitude": 45.88338,
    "longitude": -73.28245,
    "category": "City",
    "subcategory": "City",
    "admin1": "10",
    "population": 8762,
    "featured": false,
    "priority": 50
  },
  {
    "geonameId": 10627796,
    "name": "Le Plateau",
    "latitude": 45.43514,
    "longitude": -75.7803,
    "category": "City",
    "subcategory": "City",
    "admin1": "10",
    "population": 15000,
    "featured": false,
    "priority": 50
  },
  {
    "geonameId": 13546316,
    "name": "Le Plateau-Mont-Royal",
    "latitude": 45.52833,
    "longitude": -73.58081,
    "category": "City",
    "subcategory": "Local Seat",
    "admin1": "10",
    "population": 105813,
    "featured": false,
    "priority": 50
  },
  {
    "geonameId": 13546318,
    "name": "Le Sud-Ouest",
    "latitude": 45.47187,
    "longitude": -73.58986,
    "category": "City",
    "subcategory": "Local Seat",
    "admin1": "10",
    "population": 86347,
    "featured": false,
    "priority": 50
  },
  {
    "geonameId": 6051122,
    "name": "Leamington",
    "latitude": 42.05009,
    "longitude": -82.59981,
    "category": "City",
    "subcategory": "City",
    "admin1": "08",
    "population": 35730,
    "featured": false,
    "priority": 50
  },
  {
    "geonameId": 6051562,
    "name": "Leduc",
    "latitude": 53.26682,
    "longitude": -113.55201,
    "category": "City",
    "subcategory": "City",
    "admin1": "01",
    "population": 15561,
    "featured": false,
    "priority": 50
  },
  {
    "geonameId": 6052788,
    "name": "Les Coteaux",
    "latitude": 45.28338,
    "longitude": -74.23254,
    "category": "City",
    "subcategory": "City",
    "admin1": "10",
    "population": 17396,
    "featured": false,
    "priority": 50
  },
  {
    "geonameId": 6053154,
    "name": "Lethbridge",
    "latitude": 49.69999,
    "longitude": -112.81856,
    "category": "City",
    "subcategory": "City",
    "admin1": "01",
    "population": 103197,
    "featured": false,
    "priority": 50
  },
  {
    "geonameId": 6325521,
    "name": "Lévis",
    "latitude": 46.80326,
    "longitude": -71.17793,
    "category": "City",
    "subcategory": "City",
    "admin1": "10",
    "population": 143414,
    "featured": false,
    "priority": 50
  },
  {
    "geonameId": 6053462,
    "name": "Lewisville",
    "latitude": 46.10437,
    "longitude": -64.7532,
    "category": "City",
    "subcategory": "City",
    "admin1": "04",
    "population": 9060,
    "featured": false,
    "priority": 50
  },
  {
    "geonameId": 6054350,
    "name": "Lindsay",
    "latitude": 44.35012,
    "longitude": -78.73286,
    "category": "City",
    "subcategory": "City",
    "admin1": "08",
    "population": 20354,
    "featured": false,
    "priority": 50
  },
  {
    "geonameId": 6054677,
    "name": "Listowel",
    "latitude": 43.7334,
    "longitude": -80.94973,
    "category": "City",
    "subcategory": "City",
    "admin1": "08",
    "population": 7530,
    "featured": false,
    "priority": 50
  },
  {
    "geonameId": 6057842,
    "name": "Lively",
    "latitude": 46.43338,
    "longitude": -81.14975,
    "category": "City",
    "subcategory": "City",
    "admin1": "08",
    "population": 5608,
    "featured": false,
    "priority": 50
  },
  {
    "geonameId": 6058024,
    "name": "Lloydminster",
    "latitude": 53.27237,
    "longitude": -110.02256,
    "category": "City",
    "subcategory": "County Seat",
    "admin1": "01",
    "population": 31582,
    "featured": false,
    "priority": 50
  },
  {
    "geonameId": 6058560,
    "name": "London",
    "latitude": 42.98339,
    "longitude": -81.23304,
    "category": "City",
    "subcategory": "City",
    "admin1": "08",
    "population": 422324,
    "featured": false,
    "priority": 50
  },
  {
    "geonameId": 6059891,
    "name": "Longueuil",
    "latitude": 45.5152,
    "longitude": -73.46818,
    "category": "City",
    "subcategory": "County Seat",
    "admin1": "10",
    "population": 229330,
    "featured": false,
    "priority": 50
  },
  {
    "geonameId": 6060407,
    "name": "Lorraine",
    "latitude": 45.68338,
    "longitude": -73.78249,
    "category": "City",
    "subcategory": "City",
    "admin1": "10",
    "population": 9613,
    "featured": false,
    "priority": 50
  },
  {
    "geonameId": 6060839,
    "name": "Louiseville",
    "latitude": 46.25594,
    "longitude": -72.94145,
    "category": "City",
    "subcategory": "City",
    "admin1": "10",
    "population": 5819,
    "featured": false,
    "priority": 50
  },
  {
    "geonameId": 10287505,
    "name": "Lower Sackville",
    "latitude": 44.77599,
    "longitude": -63.67865,
    "category": "City",
    "subcategory": "City",
    "admin1": "07",
    "population": 51749,
    "featured": false,
    "priority": 50
  },
  {
    "geonameId": 6061551,
    "name": "Lowertown",
    "latitude": 45.43193,
    "longitude": -75.69319,
    "category": "City",
    "subcategory": "City",
    "admin1": "08",
    "population": 12824,
    "featured": false,
    "priority": 50
  },
  {
    "geonameId": 6062163,
    "name": "Lutes Mountain",
    "latitude": 46.13544,
    "longitude": -64.90504,
    "category": "City",
    "subcategory": "City",
    "admin1": "04",
    "population": 16311,
    "featured": false,
    "priority": 50
  },
  {
    "geonameId": 6064180,
    "name": "Magog",
    "latitude": 45.26678,
    "longitude": -72.14909,
    "category": "City",
    "subcategory": "City",
    "admin1": "10",
    "population": 15550,
    "featured": false,
    "priority": 50
  },
  {
    "geonameId": 13592162,
    "name": "Maple Hills",
    "latitude": 46.21332,
    "longitude": -64.86945,
    "category": "City",
    "subcategory": "City",
    "admin1": "04",
    "population": 9547,
    "featured": false,
    "priority": 50
  },
  {
    "geonameId": 6065686,
    "name": "Maple Ridge",
    "latitude": 49.21939,
    "longitude": -122.60193,
    "category": "City",
    "subcategory": "City",
    "admin1": "02",
    "population": 82256,
    "featured": false,
    "priority": 50
  },
  {
    "geonameId": 6066350,
    "name": "Marieville",
    "latitude": 45.43338,
    "longitude": -73.16585,
    "category": "City",
    "subcategory": "City",
    "admin1": "10",
    "population": 5600,
    "featured": false,
    "priority": 50
  },
  {
    "geonameId": 6066513,
    "name": "Markham",
    "latitude": 43.86682,
    "longitude": -79.2663,
    "category": "City",
    "subcategory": "City",
    "admin1": "08",
    "population": 338503,
    "featured": false,
    "priority": 50
  },
  {
    "geonameId": 6067033,
    "name": "Martensville",
    "latitude": 52.28339,
    "longitude": -106.66792,
    "category": "City",
    "subcategory": "City",
    "admin1": "11",
    "population": 9645,
    "featured": false,
    "priority": 50
  },
  {
    "geonameId": 6067472,
    "name": "Marystown",
    "latitude": 47.16663,
    "longitude": -55.14829,
    "category": "City",
    "subcategory": "City",
    "admin1": "05",
    "population": 5204,
    "featured": false,
    "priority": 50
  },
  {
    "geonameId": 6067494,
    "name": "Mascouche",
    "latitude": 45.74965,
    "longitude": -73.59956,
    "category": "City",
    "subcategory": "City",
    "admin1": "10",
    "population": 34626,
    "featured": false,
    "priority": 50
  },
  {
    "geonameId": 6696260,
    "name": "Matane",
    "latitude": 48.82857,
    "longitude": -67.52197,
    "category": "City",
    "subcategory": "City",
    "admin1": "10",
    "population": 14812,
    "featured": false,
    "priority": 50
  },
  {
    "geonameId": 6070782,
    "name": "McMasterville",
    "latitude": 45.55008,
    "longitude": -73.26585,
    "category": "City",
    "subcategory": "City",
    "admin1": "10",
    "population": 5936,
    "featured": false,
    "priority": 50
  },
  {
    "geonameId": 6071421,
    "name": "Meadow Lake",
    "latitude": 54.13348,
    "longitude": -108.43471,
    "category": "City",
    "subcategory": "City",
    "admin1": "11",
    "population": 5266,
    "featured": false,
    "priority": 50
  },
  {
    "geonameId": 6071618,
    "name": "Medicine Hat",
    "latitude": 50.03928,
    "longitude": -110.67661,
    "category": "City",
    "subcategory": "City",
    "admin1": "01",
    "population": 63138,
    "featured": false,
    "priority": 50
  },
  {
    "geonameId": 6071876,
    "name": "Melfort",
    "latitude": 52.86673,
    "longitude": -104.61768,
    "category": "City",
    "subcategory": "City",
    "admin1": "11",
    "population": 5778,
    "featured": false,
    "priority": 50
  },
  {
    "geonameId": 6072045,
    "name": "Memramcook",
    "latitude": 46.00435,
    "longitude": -64.55156,
    "category": "City",
    "subcategory": "City",
    "admin1": "04",
    "population": 5029,
    "featured": false,
    "priority": 50
  },
  {
    "geonameId": 6072206,
    "name": "Mercier",
    "latitude": 45.3105,
    "longitude": -73.73976,
    "category": "City",
    "subcategory": "District Seat",
    "admin1": "10",
    "population": 10121,
    "featured": false,
    "priority": 50
  },
  {
    "geonameId": 13546319,
    "name": "Mercier–Hochelaga-Maisonneuve",
    "latitude": 45.57194,
    "longitude": -73.54626,
    "category": "City",
    "subcategory": "Local Seat",
    "admin1": "10",
    "population": 142753,
    "featured": false,
    "priority": 50
  },
  {
    "geonameId": 6072350,
    "name": "Merritt",
    "latitude": 50.11225,
    "longitude": -120.7942,
    "category": "City",
    "subcategory": "City",
    "admin1": "02",
    "population": 7139,
    "featured": false,
    "priority": 50
  },
  {
    "geonameId": 6072482,
    "name": "Metchosin",
    "latitude": 48.38293,
    "longitude": -123.53591,
    "category": "City",
    "subcategory": "City",
    "admin1": "02",
    "population": 5067,
    "featured": false,
    "priority": 50
  },
  {
    "geonameId": 6073363,
    "name": "Midland",
    "latitude": 44.7501,
    "longitude": -79.88296,
    "category": "City",
    "subcategory": "City",
    "admin1": "08",
    "population": 24353,
    "featured": false,
    "priority": 50
  },
  {
    "geonameId": 6073743,
    "name": "Mill Bay",
    "latitude": 48.65,
    "longitude": -123.55,
    "category": "City",
    "subcategory": "City",
    "admin1": "02",
    "population": 7200,
    "featured": false,
    "priority": 50
  },
  {
    "geonameId": 6074123,
    "name": "Millidgeville",
    "latitude": 45.3017,
    "longitude": -66.10319,
    "category": "City",
    "subcategory": "City",
    "admin1": "04",
    "population": 6527,
    "featured": false,
    "priority": 50
  },
  {
    "geonameId": 6074377,
    "name": "Milton",
    "latitude": 43.51681,
    "longitude": -79.88294,
    "category": "City",
    "subcategory": "County Seat",
    "admin1": "08",
    "population": 132979,
    "featured": false,
    "priority": 50
  },
  {
    "geonameId": 6075061,
    "name": "Mirabel",
    "latitude": 45.65008,
    "longitude": -74.08251,
    "category": "City",
    "subcategory": "City",
    "admin1": "10",
    "population": 34626,
    "featured": false,
    "priority": 50
  },
  {
    "geonameId": 6075081,
    "name": "Miramichi",
    "latitude": 47.02895,
    "longitude": -65.50186,
    "category": "City",
    "subcategory": "City",
    "admin1": "04",
    "population": 17537,
    "featured": false,
    "priority": 50
  },
  {
    "geonameId": 6075292,
    "name": "Mission",
    "latitude": 49.13298,
    "longitude": -122.30258,
    "category": "City",
    "subcategory": "City",
    "admin1": "02",
    "population": 41519,
    "featured": false,
    "priority": 50
  },
  {
    "geonameId": 6075357,
    "name": "Mississauga",
    "latitude": 43.5789,
    "longitude": -79.6583,
    "category": "City",
    "subcategory": "City",
    "admin1": "08",
    "population": 717961,
    "featured": false,
    "priority": 50
  },
  {
    "geonameId": 6075370,
    "name": "Mississippi Mills",
    "latitude": 45.23341,
    "longitude": -76.19939,
    "category": "City",
    "subcategory": "City",
    "admin1": "08",
    "population": 14740,
    "featured": false,
    "priority": 50
  },
  {
    "geonameId": 6076211,
    "name": "Moncton",
    "latitude": 46.09454,
    "longitude": -64.7965,
    "category": "City",
    "subcategory": "City",
    "admin1": "04",
    "population": 86106,
    "featured": false,
    "priority": 50
  },
  {
    "geonameId": 6077443,
    "name": "Mont Tremblant",
    "latitude": 46.25,
    "longitude": -74.583,
    "category": "Mountain",
    "subcategory": "Mountain",
    "admin1": "10",
    "population": 0,
    "featured": false,
    "priority": 50
  },
  {
    "geonameId": 6944113,
    "name": "Mont-Joli",
    "latitude": 48.58388,
    "longitude": -68.19214,
    "category": "City",
    "subcategory": "City",
    "admin1": "10",
    "population": 6568,
    "featured": false,
    "priority": 50
  },
  {
    "geonameId": 6077128,
    "name": "Mont-Laurier",
    "latitude": 46.55011,
    "longitude": -75.4993,
    "category": "City",
    "subcategory": "City",
    "admin1": "10",
    "population": 13405,
    "featured": false,
    "priority": 50
  },
  {
    "geonameId": 6077315,
    "name": "Mont-Royal",
    "latitude": 45.51675,
    "longitude": -73.64918,
    "category": "City",
    "subcategory": "City",
    "admin1": "10",
    "population": 18933,
    "featured": false,
    "priority": 50
  },
  {
    "geonameId": 6077340,
    "name": "Mont-Saint-Hilaire",
    "latitude": 45.56515,
    "longitude": -73.1868,
    "category": "City",
    "subcategory": "City",
    "admin1": "10",
    "population": 15720,
    "featured": false,
    "priority": 50
  },
  {
    "geonameId": 6077445,
    "name": "Mont-Tremblant",
    "latitude": 46.21274,
    "longitude": -74.58438,
    "category": "City",
    "subcategory": "City",
    "admin1": "10",
    "population": 8892,
    "featured": false,
    "priority": 50
  },
  {
    "geonameId": 6325529,
    "name": "Montmagny",
    "latitude": 46.98043,
    "longitude": -70.55493,
    "category": "City",
    "subcategory": "City",
    "admin1": "10",
    "population": 11724,
    "featured": false,
    "priority": 50
  },
  {
    "geonameId": 6077243,
    "name": "Montréal",
    "latitude": 45.50884,
    "longitude": -73.58781,
    "category": "City",
    "subcategory": "County Seat",
    "admin1": "10",
    "population": 1762949,
    "featured": false,
    "priority": 50
  },
  {
    "geonameId": 13546320,
    "name": "Montréal-Nord",
    "latitude": 45.6016,
    "longitude": -73.63063,
    "category": "City",
    "subcategory": "Local Seat",
    "admin1": "10",
    "population": 86857,
    "featured": false,
    "priority": 50
  },
  {
    "geonameId": 6077265,
    "name": "Montréal-Ouest",
    "latitude": 45.45286,
    "longitude": -73.64918,
    "category": "City",
    "subcategory": "City",
    "admin1": "10",
    "population": 5184,
    "featured": false,
    "priority": 50
  },
  {
    "geonameId": 6078112,
    "name": "Moose Jaw",
    "latitude": 50.40005,
    "longitude": -105.53445,
    "category": "City",
    "subcategory": "City",
    "admin1": "11",
    "population": 33890,
    "featured": false,
    "priority": 50
  },
  {
    "geonameId": 6078404,
    "name": "Moraine Lake",
    "latitude": 48.98836,
    "longitude": -88.85198,
    "category": "Lake",
    "subcategory": "Lake",
    "admin1": "08",
    "population": 0,
    "featured": false,
    "priority": 50
  },
  {
    "geonameId": 6078447,
    "name": "Morden",
    "latitude": 49.1919,
    "longitude": -98.10136,
    "category": "City",
    "subcategory": "City",
    "admin1": "03",
    "population": 8668,
    "featured": false,
    "priority": 50
  },
  {
    "geonameId": 6078636,
    "name": "Morinville",
    "latitude": 53.80014,
    "longitude": -113.65203,
    "category": "City",
    "subcategory": "City",
    "admin1": "01",
    "population": 9848,
    "featured": false,
    "priority": 50
  },
  {
    "geonameId": 6080782,
    "name": "Mount Forest",
    "latitude": 43.97948,
    "longitude": -80.72205,
    "category": "City",
    "subcategory": "City",
    "admin1": "08",
    "population": 5040,
    "featured": false,
    "priority": 50
  },
  {
    "geonameId": 6081183,
    "name": "Mount Hood",
    "latitude": 50.75006,
    "longitude": -115.08531,
    "category": "Mountain",
    "subcategory": "Mountain",
    "admin1": "01",
    "population": 0,
    "featured": false,
    "priority": 50
  },
  {
    "geonameId": 6082231,
    "name": "Mount Pearl",
    "latitude": 47.51659,
    "longitude": -52.78135,
    "category": "City",
    "subcategory": "City",
    "admin1": "05",
    "population": 22477,
    "featured": false,
    "priority": 50
  },
  {
    "geonameId": 6082494,
    "name": "Mount Robson",
    "latitude": 53.11034,
    "longitude": -119.15661,
    "category": "Mountain",
    "subcategory": "Mountain",
    "admin1": "02",
    "population": 0,
    "featured": false,
    "priority": 50
  },
  {
    "geonameId": 6083199,
    "name": "Mount Whitney",
    "latitude": 65.6231,
    "longitude": -139.62977,
    "category": "Mountain",
    "subcategory": "Mountain",
    "admin1": "12",
    "population": 0,
    "featured": false,
    "priority": 50
  },
  {
    "geonameId": 6085772,
    "name": "Nanaimo",
    "latitude": 49.16638,
    "longitude": -123.94003,
    "category": "City",
    "subcategory": "City",
    "admin1": "02",
    "population": 90504,
    "featured": false,
    "priority": 50
  },
  {
    "geonameId": 8504652,
    "name": "Nanoose Bay",
    "latitude": 49.27237,
    "longitude": -124.19332,
    "category": "City",
    "subcategory": "City",
    "admin1": "02",
    "population": 6540,
    "featured": false,
    "priority": 50
  },
  {
    "geonameId": 6085931,
    "name": "Napanee",
    "latitude": 44.25012,
    "longitude": -76.94944,
    "category": "City",
    "subcategory": "City",
    "admin1": "08",
    "population": 7439,
    "featured": false,
    "priority": 50
  },
  {
    "geonameId": 6086871,
    "name": "Nelson",
    "latitude": 49.49985,
    "longitude": -117.28553,
    "category": "City",
    "subcategory": "City",
    "admin1": "02",
    "population": 10664,
    "featured": false,
    "priority": 50
  },
  {
    "geonameId": 6087029,
    "name": "Nepean",
    "latitude": 45.33619,
    "longitude": -75.7225,
    "category": "City",
    "subcategory": "City",
    "admin1": "08",
    "population": 180000,
    "featured": false,
    "priority": 50
  },
  {
    "geonameId": 11838437,
    "name": "Neufchâtel-Est–Lebourgneuf",
    "latitude": 46.85436,
    "longitude": -71.34191,
    "category": "City",
    "subcategory": "City",
    "admin1": "10",
    "population": 37540,
    "featured": false,
    "priority": 50
  },
  {
    "geonameId": 6087579,
    "name": "New Glasgow",
    "latitude": 45.58344,
    "longitude": -62.64863,
    "category": "City",
    "subcategory": "City",
    "admin1": "07",
    "population": 18665,
    "featured": false,
    "priority": 50
  },
  {
    "geonameId": 6087591,
    "name": "New Hamburg",
    "latitude": 43.38339,
    "longitude": -80.6997,
    "category": "City",
    "subcategory": "City",
    "admin1": "08",
    "population": 13595,
    "featured": false,
    "priority": 50
  },
  {
    "geonameId": 6087843,
    "name": "New Waterford",
    "latitude": 46.25014,
    "longitude": -60.08175,
    "category": "City",
    "subcategory": "City",
    "admin1": "07",
    "population": 6723,
    "featured": false,
    "priority": 50
  },
  {
    "geonameId": 6087844,
    "name": "New Westminster",
    "latitude": 49.20678,
    "longitude": -122.91092,
    "category": "City",
    "subcategory": "City",
    "admin1": "02",
    "population": 78916,
    "featured": false,
    "priority": 50
  },
  {
    "geonameId": 6087701,
    "name": "Newmarket",
    "latitude": 44.05011,
    "longitude": -79.46631,
    "category": "City",
    "subcategory": "City",
    "admin1": "08",
    "population": 91034,
    "featured": false,
    "priority": 50
  },
  {
    "geonameId": 6087891,
    "name": "Niagara Falls",
    "latitude": 43.08342,
    "longitude": -79.06627,
    "category": "Waterfall",
    "subcategory": "Waterfall",
    "admin1": "08",
    "population": 0,
    "featured": false,
    "priority": 50
  },
  {
    "geonameId": 6087892,
    "name": "Niagara Falls",
    "latitude": 43.10012,
    "longitude": -79.06627,
    "category": "City",
    "subcategory": "City",
    "admin1": "08",
    "population": 99818,
    "featured": false,
    "priority": 50
  },
  {
    "geonameId": 6087905,
    "name": "Niagara-on-the-Lake",
    "latitude": 43.25655,
    "longitude": -79.08527,
    "category": "City",
    "subcategory": "City",
    "admin1": "08",
    "population": 17511,
    "featured": false,
    "priority": 50
  },
  {
    "geonameId": 6088132,
    "name": "Nicolet",
    "latitude": 46.23085,
    "longitude": -72.61292,
    "category": "City",
    "subcategory": "City",
    "admin1": "10",
    "population": 5669,
    "featured": false,
    "priority": 50
  },
  {
    "geonameId": 6089125,
    "name": "Norfolk County",
    "latitude": 42.8334,
    "longitude": -80.38297,
    "category": "City",
    "subcategory": "City",
    "admin1": "08",
    "population": 60847,
    "featured": false,
    "priority": 50
  },
  {
    "geonameId": 6089404,
    "name": "North Battleford",
    "latitude": 52.77972,
    "longitude": -108.2967,
    "category": "City",
    "subcategory": "City",
    "admin1": "11",
    "population": 19440,
    "featured": false,
    "priority": 50
  },
  {
    "geonameId": 6089426,
    "name": "North Bay",
    "latitude": 46.3168,
    "longitude": -79.46633,
    "category": "City",
    "subcategory": "City",
    "admin1": "08",
    "population": 50396,
    "featured": false,
    "priority": 50
  },
  {
    "geonameId": 6089661,
    "name": "North Cowichan",
    "latitude": 48.84133,
    "longitude": -123.68596,
    "category": "City",
    "subcategory": "City",
    "admin1": "02",
    "population": 29676,
    "featured": false,
    "priority": 50
  },
  {
    "geonameId": 6090405,
    "name": "North Perth",
    "latitude": 43.7251,
    "longitude": -80.96723,
    "category": "City",
    "subcategory": "City",
    "admin1": "08",
    "population": 13130,
    "featured": false,
    "priority": 50
  },
  {
    "geonameId": 6090579,
    "name": "North Saanich",
    "latitude": 48.66634,
    "longitude": -123.41933,
    "category": "City",
    "subcategory": "City",
    "admin1": "02",
    "population": 11089,
    "featured": false,
    "priority": 50
  },
  {
    "geonameId": 6090698,
    "name": "North Sydney",
    "latitude": 46.20777,
    "longitude": -60.25489,
    "category": "City",
    "subcategory": "City",
    "admin1": "07",
    "population": 5699,
    "featured": false,
    "priority": 50
  },
  {
    "geonameId": 6090785,
    "name": "North Vancouver",
    "latitude": 49.31636,
    "longitude": -123.06934,
    "category": "City",
    "subcategory": "City",
    "admin1": "02",
    "population": 88168,
    "featured": false,
    "priority": 50
  },
  {
    "geonameId": 7732488,
    "name": "Norway House",
    "latitude": 53.98214,
    "longitude": -97.83265,
    "category": "City",
    "subcategory": "City",
    "admin1": "03",
    "population": 5753,
    "featured": false,
    "priority": 50
  },
  {
    "geonameId": 6091369,
    "name": "Notre-Dame-de-l'Île-Perrot",
    "latitude": 45.36678,
    "longitude": -73.9325,
    "category": "City",
    "subcategory": "City",
    "admin1": "10",
    "population": 9885,
    "featured": false,
    "priority": 50
  },
  {
    "geonameId": 6091422,
    "name": "Notre-Dame-des-Prairies",
    "latitude": 46.05007,
    "longitude": -73.43245,
    "category": "City",
    "subcategory": "City",
    "admin1": "10",
    "population": 8230,
    "featured": false,
    "priority": 50
  },
  {
    "geonameId": 6091919,
    "name": "Oak Bay",
    "latitude": 48.44964,
    "longitude": -123.3026,
    "category": "City",
    "subcategory": "City",
    "admin1": "02",
    "population": 18015,
    "featured": false,
    "priority": 50
  },
  {
    "geonameId": 6092122,
    "name": "Oakville",
    "latitude": 43.45011,
    "longitude": -79.68292,
    "category": "City",
    "subcategory": "City",
    "admin1": "08",
    "population": 213759,
    "featured": false,
    "priority": 50
  },
  {
    "geonameId": 6093010,
    "name": "Okotoks",
    "latitude": 50.72885,
    "longitude": -113.98281,
    "category": "City",
    "subcategory": "City",
    "admin1": "01",
    "population": 30214,
    "featured": false,
    "priority": 50
  },
  {
    "geonameId": 6093347,
    "name": "Olds",
    "latitude": 51.78341,
    "longitude": -114.10199,
    "category": "City",
    "subcategory": "City",
    "admin1": "01",
    "population": 9209,
    "featured": false,
    "priority": 50
  },
  {
    "geonameId": 6093514,
    "name": "Oliver",
    "latitude": 49.18306,
    "longitude": -119.5524,
    "category": "City",
    "subcategory": "City",
    "admin1": "02",
    "population": 5094,
    "featured": false,
    "priority": 50
  },