[
  {
    "geonameId": 1547348,
    "name": "Cocos Islands",
    "latitude": -12,
    "longitude": 96.83333,
    "category": "Island",
    "subcategory": "Island Group",
    "featured": false,
    "priority": 50
  },
  {
    "geonameId": 1547375,
    "name": "Direction Island",
    "latitude": -12.08888,
    "longitude": 96.88355,
    "category": "Island",
    "subcategory": "Island",
    "featured": false,
    "priority": 50
  },
  {
    "geonameId": 1547372,
    "name": "Home Island",
    "latitude": -12.11792,
    "longitude": 96.89785,
    "category": "Island",
    "subcategory": "Island",
    "featured": false,
    "priority": 50
  },
  {
    "geonameId": 1547371,
    "name": "Horsburgh Island",
    "latitude": -12.07695,
    "longitude": 96.84021,
    "category": "Island",
    "subcategory": "Island",
    "featured": false,
    "priority": 50
  },
  {
    "geonameId": 1547366,
    "name": "North Keeling Island",
    "latitude": -11.83062,
    "longitude": 96.82515,
    "category": "Island",
    "subcategory": "Island",
    "featured": false,
    "priority": 50
  },
  {
    "geonameId": 1547362,
    "name": "Prison Island",
    "latitude": -12.10367,
    "longitude": 96.88699,
    "category": "Island",
    "subcategory": "Island",
    "featured": false,
    "priority": 50
  },
  {
    "geonameId": 1547377,
    "name": "Pulo Cheplok",
    "latitude": -12.14129,
    "longitude": 96.91787,
    "category": "Island",
    "subcategory": "Island",
    "featured": false,
    "priority": 50
  },
  {
    "geonameId": 1547373,
    "name": "Pulo Gangsa",
    "latitude": -12.10586,
    "longitude": 96.88838,
    "category": "Island",
    "subcategory": "Island",
    "featured": false,
    "priority": 50
  },
  {
    "geonameId": 1547369,
    "name": "Pulo Kambing",
    "latitude": -12.19502,
    "longitude": 96.85111,
    "category": "Island",
    "subcategory": "Island",
    "featured": false,
    "priority": 50
  },
  {
    "geonameId": 1547368,
    "name": "Pulo Klapa Satu",
    "latitude": -12.19995,
    "longitude": 96.88388,
    "category": "Island",
    "subcategory": "Island",
    "featured": false,
    "priority": 50
  },
  {
    "geonameId": 1547413,
    "name": "Pulu Ampang",
    "latitude": -12.12692,
    "longitude": 96.90849,
    "category": "Island",
    "subcategory": "Island",
    "featured": false,
    "priority": 50
  },
  {
    "geonameId": 1547412,
    "name": "Pulu Ampang Kechil",
    "latitude": -12.12418,
    "longitude": 96.90802,
    "category": "Island",
    "subcategory": "Island",
    "featured": false,
    "priority": 50
  },
  {
    "geonameId": 1547380,
    "name": "Pulu Belan",
    "latitude": -12.19736,
    "longitude": 96.87911,
    "category": "Island",
    "subcategory": "Island",
    "featured": false,
    "priority": 50
  },
  {
    "geonameId": 1547379,
    "name": "Pulu Belan Madar",
    "latitude": -12.20107,
    "longitude": 96.87922,
    "category": "Island",
    "subcategory": "Island",
    "featured": false,
    "priority": 50
  },
  {
    "geonameId": 1547415,
    "name": "Pulu Blekok",
    "latitude": -12.13045,
    "longitude": 96.91049,
    "category": "Island",
    "subcategory": "Island",
    "featured": false,
    "priority": 50
  },
  {
    "geonameId": 1547370,
    "name": "Pulu Jembatan",
    "latitude": -12.15521,
    "longitude": 96.91589,
    "category": "Island",
    "subcategory": "Island",
    "featured": false,
    "priority": 50
  },
  {
    "geonameId": 1547416,
    "name": "Pulu Kembang",
    "latitude": -12.13334,
    "longitude": 96.91059,
    "category": "Island",
    "subcategory": "Island",
    "featured": false,
    "priority": 50
  },
  {
    "geonameId": 1547417,
    "name": "Pulu Labu",
    "latitude": -12.15754,
    "longitude": 96.91874,
    "category": "Island",
    "subcategory": "Island",
    "featured": false,
    "priority": 50
  },
  {
    "geonameId": 1547367,
    "name": "Pulu Maria",
    "latitude": -12.19963,
    "longitude": 96.86599,
    "category": "Island",
    "subcategory": "Island",
    "featured": false,
    "priority": 50
  },
  {
    "geonameId": 1547364,
    "name": "Pulu Pandan",
    "latitude": -12.14677,
    "longitude": 96.92006,
    "category": "Island",
    "subcategory": "Island",
    "featured": false,
    "priority": 50
  },
  {
    "geonameId": 8178721,
    "name": "Pulu Pasir",
    "latitude": -12.09568,
    "longitude": 96.88675,
    "category": "Island",
    "subcategory": "Island",
    "featured": false,
    "priority": 50
  },
  {
    "geonameId": 1547358,
    "name": "Pulu Siput",
    "latitude": -12.15342,
    "longitude": 96.91805,
    "category": "Island",
    "subcategory": "Island",
    "featured": false,
    "priority": 50
  },
  {
    "geonameId": 1547414,
    "name": "Pulu Wa-idas",
    "latitude": -12.12906,
    "longitude": 96.90982,
    "category": "Island",
    "subcategory": "Island",
    "featured": false,
    "priority": 50
  },
  {
    "geonameId": 8178720,
    "name": "Pulu Wak Banka",
    "latitude": -12.14231,
    "longitude": 96.919,
    "category": "Island",
    "subcategory": "Island",
    "featured": false,
    "priority": 50
  },
  {
    "geonameId": 1547357,
    "name": "South Island",
    "latitude": -12.19161,
    "longitude": 96.92288,
    "category": "Island",
    "subcategory": "Island",
    "featured": false,
    "priority": 50
  },
  {
    "geonameId": 1547356,
    "name": "South Keeling Islands",
    "latitude": -12.1572,
    "longitude": 96.87387,
    "category": "Island",
    "subcategory": "Island Group",
    "featured": false,
    "priority": 50
  },
  {
    "geonameId": 1547351,
    "name": "West Island",
    "latitude": -12.18233,
    "longitude": 96.82596,
    "category": "Island",
    "subcategory": "Island",
    "featured": false,
    "priority": 50
  },
  {
    "geonameId": 1547350,
    "name": "Workhouse Island",
    "latitude": -12.1,
    "longitude": 96.88333,
    "category": "Island",
    "subcategory": "Island",
    "featured": false,
    "priority": 50
  }
]