[
  {
    "geonameId": 3876988,
    "name": "Abra de los Patos",
    "latitude": -23.45188,
    "longitude": -67.76854,
    "category": "Mountain",
    "subcategory": "Mountain Pass",
    "featured": false,
    "priority": 50
  },
  {
    "geonameId": 3889958,
    "name": "Abra Escarhalla",
    "latitude": -19.51941,
    "longitude": -68.86374,
    "category": "Mountain",
    "subcategory": "Mountain Pass",
    "featured": false,
    "priority": 50
  },
  {
    "geonameId": 3878957,
    "name": "Abra Negra",
    "latitude": -21.62467,
    "longitude": -68.84707,
    "category": "Mountain",
    "subcategory": "Mountain Pass",
    "featured": false,
    "priority": 50
  },
  {
    "geonameId": 3887294,
    "name": "Abra Paso del Inca",
    "latitude": -21.71667,
    "longitude": -68.11667,
    "category": "Mountain",
    "subcategory": "Mountain Pass",
    "featured": false,
    "priority": 50
  },
  {
    "geonameId": 3899244,
    "name": "Abra Ramaditas",
    "latitude": -21.66667,
    "longitude": -68.13333,
    "category": "Mountain",
    "subcategory": "Mountain Pass",
    "featured": false,
    "priority": 50
  },
  {
    "geonameId": 3872387,
    "name": "Abra San Antonio",
    "latitude": -21.59537,
    "longitude": -68.93012,
    "category": "Mountain",
    "subcategory": "Mountain Pass",
    "featured": false,
    "priority": 50
  },
  {
    "geonameId": 3870422,
    "name": "Abra Surumana",
    "latitude": -19.65048,
    "longitude": -68.72706,
    "category": "Mountain",
    "subcategory": "Mountain Pass",
    "featured": false,
    "priority": 50
  },
  {
    "geonameId": 3868002,
    "name": "Abra Vizcachilla",
    "latitude": -21.66167,
    "longitude": -68.85231,
    "category": "Mountain",
    "subcategory": "Mountain Pass",
    "featured": false,
    "priority": 50
  },
  {
    "geonameId": 3900578,
    "name": "Agua Buena",
    "latitude": -33.95816,
    "longitude": -71.03045,
    "category": "Mountain",
    "subcategory": "Mountain",
    "featured": false,
    "priority": 50
  },
  {
    "geonameId": 3900510,
    "name": "Agua del Sol",
    "latitude": -26.85,
    "longitude": -70.05,
    "category": "Mountain",
    "subcategory": "Mountain",
    "featured": false,
    "priority": 50
  },
  {
    "geonameId": 12625066,
    "name": "Aguja Bífida",
    "latitude": -49.27918,
    "longitude": -73.09886,
    "category": "Mountain",
    "subcategory": "Mountain",
    "featured": false,
    "priority": 50
  },
  {
    "geonameId": 12625078,
    "name": "Aguja CAT",
    "latitude": -49.27089,
    "longitude": -73.10156,
    "category": "Mountain",
    "subcategory": "Mountain",
    "featured": false,
    "priority": 50
  },
  {
    "geonameId": 12493928,
    "name": "Aguja Chata",
    "latitude": -49.34923,
    "longitude": -73.1192,
    "category": "Mountain",
    "subcategory": "Mountain",
    "featured": false,
    "priority": 50
  },
  {
    "geonameId": 12625077,
    "name": "Aguja Cuatro Dedos",
    "latitude": -49.27363,
    "longitude": -73.09817,
    "category": "Mountain",
    "subcategory": "Mountain",
    "featured": false,
    "priority": 50
  },
  {
    "geonameId": 12625065,
    "name": "Aguja de la Silla",
    "latitude": -49.27559,
    "longitude": -73.04798,
    "category": "Mountain",
    "subcategory": "Mountain",
    "featured": false,
    "priority": 50
  },
  {
    "geonameId": 12510897,
    "name": "Aguja Desmochada",
    "latitude": -49.27822,
    "longitude": -73.04886,
    "category": "Mountain",
    "subcategory": "Mountain",
    "featured": false,
    "priority": 50
  },
  {
    "geonameId": 12493926,
    "name": "Aguja Leo",
    "latitude": -49.34547,
    "longitude": -73.11359,
    "category": "Mountain",
    "subcategory": "Mountain",
    "featured": false,
    "priority": 50
  },
  {
    "geonameId": 12493927,
    "name": "Aguja Lise",
    "latitude": -49.3522,
    "longitude": -73.1256,
    "category": "Mountain",
    "subcategory": "Mountain Pass",
    "featured": false,
    "priority": 50
  },
  {
    "geonameId": 3900244,
    "name": "Alcón",
    "latitude": -33.05,
    "longitude": -70.5275,
    "category": "Mountain",
    "subcategory": "Mountain",
    "featured": false,
    "priority": 50
  },
  {
    "geonameId": 6941810,
    "name": "Alerce Andino National Park",
    "latitude": -41.35,
    "longitude": -72.35,
    "category": "Park",
    "subcategory": "Nature Reserve",
    "featured": false,
    "priority": 50
  },
  {
    "geonameId": 3900138,
    "name": "Algarrobo",
    "latitude": -33.36952,
    "longitude": -71.67654,
    "category": "City",
    "subcategory": "City",
    "featured": false,
    "priority": 50
  },
  {
    "geonameId": 3900396,
    "name": "Alto Águila",
    "latitude": -38.13232,
    "longitude": -72.67874,
    "category": "Mountain",
    "subcategory": "Mountain",
    "featured": false,
    "priority": 50
  },
  {
    "geonameId": 3900234,
    "name": "Alto Alcones",
    "latitude": -32.98333,
    "longitude": -70.58333,
    "category": "Mountain",
    "subcategory": "Peak",
    "featured": false,
    "priority": 50
  },
  {
    "geonameId": 3899399,
    "name": "Alto Arenales",
    "latitude": -33.32259,
    "longitude": -70.174,
    "category": "Mountain",
    "subcategory": "Mountain",
    "featured": false,
    "priority": 50
  },
  {
    "geonameId": 3895479,
    "name": "Alto Chandia",
    "latitude": -36.36779,
    "longitude": -71.39331,
    "category": "Mountain",
    "subcategory": "Mountain",
    "featured": false,
    "priority": 50
  },
  {
    "geonameId": 3894103,
    "name": "Alto Colorado",
    "latitude": -34.61698,
    "longitude": -71.84407,
    "category": "Mountain",
    "subcategory": "Mountain",
    "featured": false,
    "priority": 50
  },
  {
    "geonameId": 3893260,
    "name": "Alto Cruceros",
    "latitude": -35.16217,
    "longitude": -72.06505,
    "category": "Mountain",
    "subcategory": "Mountain",
    "featured": false,
    "priority": 50
  },
  {
    "geonameId": 3897233,
    "name": "Alto de Callihue",
    "latitude": -34.65,
    "longitude": -71.46667,
    "category": "Mountain",
    "subcategory": "Mountain",
    "featured": false,
    "priority": 50
  },
  {
    "geonameId": 12013557,
    "name": "Alto de Caune",
    "latitude": -34.97969,
    "longitude": -71.50857,
    "category": "Mountain",
    "subcategory": "Mountain",
    "featured": false,
    "priority": 50
  },
  {
    "geonameId": 3895060,
    "name": "Alto de Chimbarongo",
    "latitude": -34.68746,
    "longitude": -71.09928,
    "category": "Mountain",
    "subcategory": "Mountain",
    "featured": false,
    "priority": 50
  },
  {
    "geonameId": 3887339,
    "name": "Alto de Iloca",
    "latitude": -34.94684,
    "longitude": -72.1546,
    "category": "Mountain",
    "subcategory": "Mountain",
    "featured": false,
    "priority": 50
  },
  {
    "geonameId": 3886729,
    "name": "Alto de Juncal",
    "latitude": -32.9,
    "longitude": -70.18333,
    "category": "Mountain",
    "subcategory": "Mountain",
    "featured": false,
    "priority": 50
  },
  {
    "geonameId": 3900106,
    "name": "Alto de la Alianza",
    "latitude": -21.08333,
    "longitude": -68.7,
    "category": "Mountain",
    "subcategory": "Mountain",
    "featured": false,
    "priority": 50
  },
  {
    "geonameId": 3893252,
    "name": "Alto de la Cruz",
    "latitude": -41.3282,
    "longitude": -72.23635,
    "category": "Mountain",
    "subcategory": "Mountain",
    "featured": false,
    "priority": 50
  },
  {
    "geonameId": 3893116,
    "name": "Alto de la Cueva",
    "latitude": -37.70289,
    "longitude": -73.11383,
    "category": "Mountain",
    "subcategory": "Mountain",
    "featured": false,
    "priority": 50
  },
  {
    "geonameId": 3885803,
    "name": "Alto de La Guardia",
    "latitude": -32.33923,
    "longitude": -70.2996,
    "category": "Mountain",
    "subcategory": "Mountain",
    "featured": false,
    "priority": 50
  },
  {
    "geonameId": 3885646,
    "name": "Alto de La Hornilla",
    "latitude": -32.46667,
    "longitude": -71.05,
    "category": "Mountain",
    "subcategory": "Peak",
    "featured": false,
    "priority": 50
  },
  {
    "geonameId": 3883369,
    "name": "Alto de la Leona",
    "latitude": -34.96527,
    "longitude": -70.78707,
    "category": "Mountain",
    "subcategory": "Mountain",
    "featured": false,
    "priority": 50
  },
  {
    "geonameId": 3880039,
    "name": "Alto de la Mera",
    "latitude": -34.38981,
    "longitude": -71.07277,
    "category": "Mountain",
    "subcategory": "Mountain",
    "featured": false,
    "priority": 50
  },
  {
    "geonameId": 3885002,
    "name": "Alto de La Pitra",
    "latitude": -34.84139,
    "longitude": -72.10689,
    "category": "Mountain",
    "subcategory": "Mountain",
    "featured": false,
    "priority": 50
  },
  {
    "geonameId": 3875680,
    "name": "Alto de la Planchada",
    "latitude": -34.57468,
    "longitude": -70.58211,
    "category": "Mountain",
    "subcategory": "Mountain",
    "featured": false,
    "priority": 50
  },
  {
    "geonameId": 3883676,
    "name": "Alto de La Tranquilidad",
    "latitude": -36.15331,
    "longitude": -72.61288,
    "category": "Mountain",
    "subcategory": "Mountain",
    "featured": false,
    "priority": 50
  },
  {
    "geonameId": 3883486,
    "name": "Alto de La Yareta",
    "latitude": -33.6833,
    "longitude": -70.44059,
    "category": "Mountain",
    "subcategory": "Mountain",
    "featured": false,
    "priority": 50
  },
  {
    "geonameId": 3884724,
    "name": "Alto de Lari",
    "latitude": -23.59702,
    "longitude": -67.41203,
    "category": "Mountain",
    "subcategory": "Mountain",
    "featured": false,
    "priority": 50
  },
  {
    "geonameId": 3884499,
    "name": "Alto de Las Catalinas",
    "latitude": -35.21592,
    "longitude": -72.10175,
    "category": "Mountain",
    "subcategory": "Mountain",
    "featured": false,
    "priority": 50
  },
  {
    "geonameId": 3879986,
    "name": "Alto de las Mesas",
    "latitude": -34.92628,
    "longitude": -70.69434,
    "category": "Mountain",
    "subcategory": "Mountain",
    "featured": false,
    "priority": 50
  },
  {
    "geonameId": 3879822,
    "name": "Alto de las Minas",
    "latitude": -34.51667,
    "longitude": -71.01667,
    "category": "Mountain",
    "subcategory": "Mountain",
    "featured": false,
    "priority": 50
  },
  {
    "geonameId": 3883925,
    "name": "Alto de Las Rosas",
    "latitude": -33.66399,
    "longitude": -71.43028,
    "category": "Mountain",
    "subcategory": "Mountain",
    "featured": false,
    "priority": 50
  },
  {
    "geonameId": 3868739,
    "name": "Alto de las Vacas",
    "latitude": -34.60152,
    "longitude": -71.5651,
    "category": "Mountain",
    "subcategory": "Mountain",
    "featured": false,
    "priority": 50
  },
  {
    "geonameId": 3882681,
    "name": "Alto de Loica",
    "latitude": -34.03481,
    "longitude": -71.41384,
    "category": "Mountain",
    "subcategory": "Mountain",
    "featured": false,
    "priority": 50
  },
  {
    "geonameId": 3888235,
    "name": "Alto de los Gusanos",
    "latitude": -34.1,
    "longitude": -70.95,
    "category": "Mountain",
    "subcategory": "Mountain",
    "featured": false,
    "priority": 50
  },
  {
    "geonameId": 3881800,
    "name": "Alto de Los Maquis",
    "latitude": -32.75,
    "longitude": -71.31667,
    "category": "Mountain",
    "subcategory": "Mountain",
    "featured": false,
    "priority": 50
  },
  {
    "geonameId": 3881612,
    "name": "Alto de Los Pejerreyes",
    "latitude": -34.49207,
    "longitude": -70.31466,
    "category": "Mountain",
    "subcategory": "Mountain",
    "featured": false,
    "priority": 50
  },
  {
    "geonameId": 3867591,
    "name": "Alto de los Yuyos",
    "latitude": -33.78333,
    "longitude": -71.2,
    "category": "Mountain",
    "subcategory": "Mountain",
    "featured": false,
    "priority": 50
  },
  {
    "geonameId": 3880589,
    "name": "Alto de Maquegua",
    "latitude": -35.38911,
    "longitude": -72.24748,
    "category": "Mountain",
    "subcategory": "Mountain",
    "featured": false,
    "priority": 50
  },
  {
    "geonameId": 3879095,
    "name": "Alto de Nahuelbuta",
    "latitude": -37.78277,
    "longitude": -73.04228,
    "category": "Mountain",
    "subcategory": "Mountain",
    "featured": false,
    "priority": 50
  },
  {
    "geonameId": 3878650,
    "name": "Alto de Nilahue",
    "latitude": -34.54333,
    "longitude": -71.75611,
    "category": "Mountain",
    "subcategory": "Mountain",
    "featured": false,
    "priority": 50
  },
  {
    "geonameId": 3876965,
    "name": "Alto de Paula",
    "latitude": -35.02996,
    "longitude": -71.86165,
    "category": "Mountain",
    "subcategory": "Mountain",
    "featured": false,
    "priority": 50
  },
  {
    "geonameId": 3876163,
    "name": "Alto de Piedra",
    "latitude": -32.61571,
    "longitude": -71.12154,
    "category": "Mountain",
    "subcategory": "Mountain",
    "featured": false,
    "priority": 50
  },
  {
    "geonameId": 3874635,
    "name": "Alto de Puquios",
    "latitude": -18.19484,
    "longitude": -69.77643,
    "category": "Mountain",
    "subcategory": "Mountain",
    "featured": false,
    "priority": 50
  },
  {
    "geonameId": 3874592,
    "name": "Alto de Puripica",
    "latitude": -22.49335,
    "longitude": -68.09823,
    "category": "Mountain",
    "subcategory": "Mountain",
    "featured": false,
    "priority": 50
  },
  {
    "geonameId": 3870272,
    "name": "Alto de Talcaregua",
    "latitude": -34.60129,
    "longitude": -70.86587,
    "category": "Mountain",
    "subcategory": "Mountain",
    "featured": false,
    "priority": 50
  },
  {
    "geonameId": 3869842,
    "name": "Alto de Tilicura",
    "latitude": -34.91255,
    "longitude": -71.35507,
    "category": "Mountain",
    "subcategory": "Mountain",
    "featured": false,
    "priority": 50
  },
  {
    "geonameId": 3869633,
    "name": "Alto de Tonlemo",
    "latitude": -35.10914,
    "longitude": -71.79029,
    "category": "Mountain",
    "subcategory": "Mountain",
    "featured": false,
    "priority": 50
  },
  {
    "geonameId": 11955909,
    "name": "Alto del Agua",
    "latitude": -37.69645,
    "longitude": -72.69497,
    "category": "Mountain",
    "subcategory": "Mountain",
    "featured": false,
    "priority": 50
  },
  {
    "geonameId": 3897767,
    "name": "Alto del Buitre",
    "latitude": -32.99827,
    "longitude": -70.40387,
    "category": "Mountain",
    "subcategory": "Mountain",
    "featured": false,
    "priority": 50
  },
  {
    "geonameId": 3897468,
    "name": "Alto del Cachu",
    "latitude": -35.05187,
    "longitude": -70.77236,
    "category": "Mountain",
    "subcategory": "Mountain",
    "featured": false,
    "priority": 50
  },
  {
    "geonameId": 11956011,
    "name": "Alto del Camarón",
    "latitude": -37.87433,
    "longitude": -73.21081,
    "category": "Mountain",
    "subcategory": "Mountain",
    "featured": false,
    "priority": 50
  },
  {
    "geonameId": 3899924,
    "name": "Alto del Carmen",
    "latitude": -28.75946,
    "longitude": -70.48651,
    "category": "City",
    "subcategory": "City",
    "featured": false,
    "priority": 50
  },
  {
    "geonameId": 3899939,
    "name": "Alto del Carrizalillo",
    "latitude": -34.8558,
    "longitude": -71.63003,
    "category": "Mountain",
    "subcategory": "Mountain",
    "featured": false,
    "priority": 50
  },
  {
    "geonameId": 3895585,
    "name": "Alto del Chamizal",
    "latitude": -35.35723,
    "longitude": -72.18708,
    "category": "Mountain",
    "subcategory": "Mountain",
    "featured": false,
    "priority": 50
  },
  {
    "geonameId": 3892128,
    "name": "Alto del Durazno",
    "latitude": -33.85,
    "longitude": -71.31667,
    "category": "Mountain",
    "subcategory": "Mountain",
    "featured": false,
    "priority": 50
  },
  {
    "geonameId": 3890059,
    "name": "Alto del Entierro",
    "latitude": -33.99539,
    "longitude": -71.21527,
    "category": "Mountain",
    "subcategory": "Mountain",
    "featured": false,
    "priority": 50
  },
  {
    "geonameId": 3889811,
    "name": "Alto del Espino",
    "latitude": -33.73333,
    "longitude": -71.16667,
    "category": "Mountain",
    "subcategory": "Mountain",
    "featured": false,
    "priority": 50
  },
  {
    "geonameId": 3889354,
    "name": "Alto del Francés",
    "latitude": -32.83328,
    "longitude": -71.32083,
    "category": "Mountain",
    "subcategory": "Mountain",
    "featured": false,
    "priority": 50
  },
  {
    "geonameId": 3889057,
    "name": "Alto del Gaucho",
    "latitude": -32.35,
    "longitude": -70.7,
    "category": "Mountain",
    "subcategory": "Peak",
    "featured": false,
    "priority": 50
  },
  {
    "geonameId": 3887633,
    "name": "Alto del Hueque",
    "latitude": -33.95033,
    "longitude": -71.11317,
    "category": "Mountain",
    "subcategory": "Mountain",
    "featured": false,
    "priority": 50
  },
  {
    "geonameId": 3887301,
    "name": "Alto del Inca",
    "latitude": -24.25,
    "longitude": -68.5,
    "category": "Mountain",
    "subcategory": "Mountain",
    "featured": false,
    "priority": 50
  },
  {
    "geonameId": 3881165,
    "name": "Alto del Lun",
    "latitude": -34.55,
    "longitude": -70.81667,
    "category": "Mountain",
    "subcategory": "Mountain",
    "featured": false,
    "priority": 50
  },
  {
    "geonameId": 3880072,
    "name": "Alto del Membrillo",
    "latitude": -34.05815,
    "longitude": -71.86645,
    "category": "Mountain",
    "subcategory": "Mountain",
    "featured": false,
    "priority": 50
  },
  {
    "geonameId": 3879607,
    "name": "Alto del Molino",
    "latitude": -37.11077,
    "longitude": -73.04751,
    "category": "Mountain",
    "subcategory": "Mountain",
    "featured": false,
    "priority": 50
  },
  {
    "geonameId": 3877798,
    "name": "Alto del Padre",
    "latitude": -36.69361,
    "longitude": -71.68704,
    "category": "Mountain",
    "subcategory": "Mountain",
    "featured": false,
    "priority": 50
  },
  {
    "geonameId": 3875403,
    "name": "Alto del Portezuelo",
    "latitude": -25.3,
    "longitude": -70.16667,
    "category": "Mountain",
    "subcategory": "Mountain",
    "featured": false,
    "priority": 50
  },
  {
    "geonameId": 3874999,
    "name": "Alto del Puerto",
    "latitude": -33.08246,
    "longitude": -71.61641,
    "category": "Mountain",
    "subcategory": "Mountain",
    "featured": false,
    "priority": 50
  },
  {
    "geonameId": 3874162,
    "name": "Alto del Quillay",
    "latitude": -32.7782,
    "longitude": -71.27557,
    "category": "Mountain",
    "subcategory": "Mountain",
    "featured": false,
    "priority": 50
  },
  {
    "geonameId": 3873154,
    "name": "Alto del Río",
    "latitude": -34.57768,
    "longitude": -70.85826,
    "category": "Mountain",
    "subcategory": "Mountain",
    "featured": false,
    "priority": 50
  },
  {
    "geonameId": 3838913,
    "name": "Alto del Río Blanco",
    "latitude": -32.95171,
    "longitude": -70.00789,
    "category": "Mountain",
    "subcategory": "Mountain",
    "featured": false,
    "priority": 50
  },
  {
    "geonameId": 3873078,
    "name": "Alto del Risco",
    "latitude": -34.3329,
    "longitude": -71.02379,
    "category": "Mountain",
    "subcategory": "Mountain",
    "featured": false,
    "priority": 50
  },
  {
    "geonameId": 3873017,
    "name": "Alto del Roble",
    "latitude": -35.38333,
    "longitude": -72,
    "category": "Mountain",
    "subcategory": "Mountain",
    "featured": false,
    "priority": 50
  },
  {
    "geonameId": 3871208,
    "name": "Alto del Sauce",
    "latitude": -34.26667,
    "longitude": -71.25,
    "category": "Mountain",
    "subcategory": "Mountain",
    "featured": false,
    "priority": 50
  },
  {
    "geonameId": 3869591,
    "name": "Alto del Toro",
    "latitude": -35.51239,
    "longitude": -72.28415,
    "category": "Mountain",
    "subcategory": "Mountain",
    "featured": false,
    "priority": 50
  },
  {
    "geonameId": 3891908,
    "name": "Alto El Barco",
    "latitude": -32.90272,
    "longitude": -71.1439,
    "category": "Mountain",
    "subcategory": "Mountain",
    "featured": false,
    "priority": 50
  },
  {
    "geonameId": 3891872,
    "name": "Alto El Boldo",
    "latitude": -32.53687,
    "longitude": -71.45315,
    "category": "Mountain",
    "subcategory": "Mountain",
    "featured": false,
    "priority": 50
  },
  {
    "geonameId": 3891455,
    "name": "Alto El Durazno",
    "latitude": -32.53657,
    "longitude": -71.062,
    "category": "Mountain",
    "subcategory": "Peak",
    "featured": false,
    "priority": 50
  },
  {
    "geonameId": 3890882,
    "name": "Alto El Olivillo",
    "latitude": -33.34898,
    "longitude": -70.3898,
    "category": "Mountain",
    "subcategory": "Mountain",
    "featured": false,
    "priority": 50
  },
  {
    "geonameId": 3890712,
    "name": "Alto El Peumo",
    "latitude": -35.21103,
    "longitude": -71.4992,
    "category": "Mountain",
    "subcategory": "Mountain",
    "featured": false,
    "priority": 50
  },
  {
    "geonameId": 3890601,
    "name": "Alto El Quilo",
    "latitude": -32.55286,
    "longitude": -71.06833,
    "category": "Mountain",
    "subcategory": "Peak",
    "featured": false,
    "priority": 50
  },
  {
    "geonameId": 3890264,
    "name": "Alto El Toro",
    "latitude": -33.36685,
    "longitude": -70.34052,
    "category": "Mountain",
    "subcategory": "Mountain",
    "featured": false,
    "priority": 50
  },
  {
    "geonameId": 3890111,
    "name": "Alto Encañada",
    "latitude": -19.17234,
    "longitude": -69.96662,
    "category": "Mountain",
    "subcategory": "Mountain",
    "featured": false,
    "priority": 50
  },
  {
    "geonameId": 3889249,
    "name": "Alto Fuente de Agua",
    "latitude": -35.1623,
    "longitude": -72.00799,
    "category": "Mountain",
    "subcategory": "Mountain",
    "featured": false,
    "priority": 50
  },
  {
    "geonameId": 3888762,
    "name": "Alto Grande de Pailimo",
    "latitude": -34.32923,
    "longitude": -71.77928,
    "category": "Mountain",
    "subcategory": "Mountain",
    "featured": false,
    "priority": 50
  },
  {
    "geonameId": 3899887,
    "name": "Alto Hospicio",
    "latitude": -20.26871,
    "longitude": -70.1049,
    "category": "City",
    "subcategory": "County Seat",
    "featured": false,
    "priority": 50
  },
  {
    "geonameId": 3887820,
    "name": "Alto Hospital",
    "latitude": -25.25,
    "longitude": -70.08333,
    "category": "Mountain",
    "subcategory": "Mountain",
    "featured": false,
    "priority": 50
  },
  {
    "geonameId": 3886438,
    "name": "Alto La Cabra",
    "latitude": -32.35,
    "longitude": -70.66667,
    "category": "Mountain",
    "subcategory": "Peak",
    "featured": false,
    "priority": 50
  },
  {
    "geonameId": 3884696,
    "name": "Alto La Rosilla",
    "latitude": -32.51573,
    "longitude": -71.05273,
    "category": "Mountain",
    "subcategory": "Peak",
    "featured": false,
    "priority": 50
  },
  {
    "geonameId": 3883701,
    "name": "Alto La Torre",
    "latitude": -32.33333,
    "longitude": -70.61667,
    "category": "Mountain",
    "subcategory": "Peak",
    "featured": false,
    "priority": 50
  },
  {
    "geonameId": 3883646,
    "name": "Alto La Turqueza",
    "latitude": -33.75,
    "longitude": -70.95,
    "category": "Mountain",
    "subcategory": "Mountain",
    "featured": false,
    "priority": 50
  },
  {
    "geonameId": 3884167,
    "name": "Alto Las Minas",
    "latitude": -32.35791,
    "longitude": -70.63921,
    "category": "Mountain",
    "subcategory": "Mountain",
    "featured": false,
    "priority": 50
  },
  {
    "geonameId": 3884011,
    "name": "Alto Las Pircas",
    "latitude": -37.67553,
    "longitude": -72.76147,
    "category": "Mountain",
    "subcategory": "Mountain",
    "featured": false,
    "priority": 50
  },
  {
    "geonameId": 3883139,
    "name": "Alto Linga",
    "latitude": -32.32692,
    "longitude": -70.61712,
    "category": "Mountain",
    "subcategory": "Mountain",
    "featured": false,
    "priority": 50
  },
  {
    "geonameId": 3882150,
    "name": "Alto Los Cóndores",
    "latitude": -37.54002,
    "longitude": -73.2641,
    "category": "Mountain",
    "subcategory": "Mountain",
    "featured": false,
    "priority": 50
  },
  {
    "geonameId": 3882099,
    "name": "Alto Los Culenes",
    "latitude": -33.99439,
    "longitude": -70.91256,
    "category": "Mountain",
    "subcategory": "Mountain",
    "featured": false,
    "priority": 50
  },
  {
    "geonameId": 3881770,
    "name": "Alto Los Mayos",
    "latitude": -37.64712,
    "longitude": -72.02541,
    "category": "Mountain",
    "subcategory": "Peak",
    "featured": false,
    "priority": 50
  },
  {
    "geonameId": 3881565,
    "name": "Alto Los Peumos",
    "latitude": -35.08181,
    "longitude": -72.1366,
    "category": "Mountain",
    "subcategory": "Mountain",
    "featured": false,
    "priority": 50
  },
  {
    "geonameId": 3883992,
    "name": "Alto Los Pocillos",
    "latitude": -34.59054,
    "longitude": -70.80968,
    "category": "Mountain",
    "subcategory": "Mountain",
    "featured": false,
    "priority": 50
  },
  {
    "geonameId": 3878726,
    "name": "Alto Neurara",
    "latitude": -24.21667,
    "longitude": -68.5,
    "category": "Mountain",
    "subcategory": "Mountain",
    "featured": false,
    "priority": 50
  },
  {
    "geonameId": 3878139,
    "name": "Alto Ojo de Cáblor",
    "latitude": -22.40494,
    "longitude": -68.07281,
    "category": "Mountain",
    "subcategory": "Mountain",
    "featured": false,
    "priority": 50
  },
  {
    "geonameId": 3877438,
    "name": "Alto Pan de Azúcar",
    "latitude": -32.49146,
    "longitude": -71.04171,
    "category": "Mountain",
    "subcategory": "Peak",
    "featured": false,
    "priority": 50
  },
  {
    "geonameId": 3875588,
    "name": "Alto Poblete",
    "latitude": -35.12298,
    "longitude": -70.88093,
    "category": "Mountain",
    "subcategory": "Mountain",
    "featured": false,
    "priority": 50
  },
  {
    "geonameId": 3875574,
    "name": "Alto Pocollo",
    "latitude": -18.2407,
    "longitude": -69.35771,
    "category": "Mountain",
    "subcategory": "Mountain",
    "featured": false,
    "priority": 50
  },
  {
    "geonameId": 3872899,
    "name": "Alto Romeral",
    "latitude": -34.0385,
    "longitude": -70.88868,
    "category": "Mountain",
    "subcategory": "Mountain",
    "featured": false,
    "priority": 50
  },
  {
    "geonameId": 3869248,
    "name": "Alto Treiles",
    "latitude": -35.10132,
    "longitude": -70.93107,
    "category": "Mountain",
    "subcategory": "Mountain",
    "featured": false,
    "priority": 50
  },
  {
    "geonameId": 3869159,
    "name": "Alto Tres Pinos",
    "latitude": -37.62936,
    "longitude": -73.11921,
    "category": "Mountain",
    "subcategory": "Mountain",
    "featured": false,
    "priority": 50
  },
  {
    "geonameId": 3868065,
    "name": "Alto Viscachas",
    "latitude": -34.25,
    "longitude": -71.16667,
    "category": "Mountain",
    "subcategory": "Mountain",
    "featured": false,
    "priority": 50
  },
  {
    "geonameId": 3886404,
    "name": "Altos de La Calera",
    "latitude": -32.51667,
    "longitude": -70.38333,
    "category": "Mountain",
    "subcategory": "Mountain",
    "featured": false,
    "priority": 50
  },
  {
    "geonameId": 3887300,
    "name": "Altos del Inca",
    "latitude": -22.57943,
    "longitude": -68.43899,
    "category": "Mountain",
    "subcategory": "Mountain",
    "featured": false,
    "priority": 50
  },
  {
    "geonameId": 11778285,
    "name": "Ancoa Dam",
    "latitude": -35.8539,
    "longitude": -71.17594,
    "category": "Lake",
    "subcategory": "Reservoir",
    "featured": false,
    "priority": 50
  },
  {
    "geonameId": 3899695,
    "name": "Ancud",
    "latitude": -41.8707,
    "longitude": -73.81622,
    "category": "City",
    "subcategory": "City",
    "featured": false,
    "priority": 50
  },
  {
    "geonameId": 3899680,
    "name": "Andacollo",
    "latitude": -30.23449,
    "longitude": -71.08534,
    "category": "City",
    "subcategory": "City",
    "featured": false,
    "priority": 50
  },
  {
    "geonameId": 3899629,
    "name": "Angol",
    "latitude": -37.79519,
    "longitude": -72.71636,
    "category": "City",
    "subcategory": "County Seat",
    "featured": false,
    "priority": 50
  },
  {
    "geonameId": 3899539,
    "name": "Antofagasta",
    "latitude": -23.65094,
    "longitude": -70.39752,
    "category": "City",
    "subcategory": "Regional Capital",
    "featured": false,
    "priority": 50
  },
  {
    "geonameId": 3899462,
    "name": "Arauco",
    "latitude": -37.2463,
    "longitude": -73.31752,
    "category": "City",
    "subcategory": "City",
    "featured": false,
    "priority": 50
  },
  {
    "geonameId": 3897107,
    "name": "Archipiélago Campana",
    "latitude": -48.63416,
    "longitude": -75.33097,
    "category": "Island",
    "subcategory": "Island Group",
    "featured": false,
    "priority": 50
  },
  {
    "geonameId": 3895072,
    "name": "Archipiélago de Chiloé",
    "latitude": -42.66667,
    "longitude": -73.91667,
    "category": "Island",
    "subcategory": "Island Group",
    "featured": false,
    "priority": 50
  },
  {
    "geonameId": 3888184,
    "name": "Archipiélago de Hanover",
    "latitude": -51.16667,
    "longitude": -74.83333,
    "category": "Island",
    "subcategory": "Island Group",
    "featured": false,
    "priority": 50
  },
  {
    "geonameId": 3894869,
    "name": "Archipiélago de Los Chonos",
    "latitude": -44.75634,
    "longitude": -74.09444,
    "category": "Island",
    "subcategory": "Island Group",
    "featured": false,
    "priority": 50
  },
  {
    "geonameId": 3888305,
    "name": "Archipiélago Guayaneco",
    "latitude": -47.7735,
    "longitude": -75.03551,
    "category": "Island",
    "subcategory": "Island Group",
    "featured": false,
    "priority": 50
  },
  {
    "geonameId": 3886788,
    "name": "Archipiélago Juan Fernández",
    "latitude": -33.67064,
    "longitude": -78.87703,
    "category": "Island",
    "subcategory": "Island Group",
    "featured": false,
    "priority": 50
  },
  {
    "geonameId": 3881052,
    "name": "Archipiélago Madre de Dios",
    "latitude": -50.27241,
    "longitude": -75.20787,
    "category": "Island",
    "subcategory": "Island Group",
    "featured": false,
    "priority": 50
  },
  {
    "geonameId": 3880016,
    "name": "Archipiélago Meric",
    "latitude": -52.72999,
    "longitude": -72.61267,
    "category": "Island",
    "subcategory": "Island Group",
    "featured": false,
    "priority": 50
  },
  {
    "geonameId": 3879328,
    "name": "Archipiélago Mornington",
    "latitude": -49.75,
    "longitude": -75.33333,
    "category": "Island",
    "subcategory": "Island Group",
    "featured": false,
    "priority": 50
  },
  {
    "geonameId": 3878501,
    "name": "Archipiélago North",
    "latitude": -49.46667,
    "longitude": -75.5,
    "category": "Island",
    "subcategory": "Island Group",
    "featured": false,
    "priority": 50
  },
  {
    "geonameId": 3873529,
    "name": "Archipiélago Reina Adelaida",
    "latitude": -52.50073,
    "longitude": -74.22548,
    "category": "Island",
    "subcategory": "Island Group",
    "featured": false,
    "priority": 50
  },
  {
    "geonameId": 11325819,
    "name": "Archipiélago Santa Inés",
    "latitude": -54.12948,
    "longitude": -72.31445,
    "category": "Island",
    "subcategory": "Island Group",
    "featured": false,
    "priority": 50
  },
  {
    "geonameId": 3871022,
    "name": "Archipiélago Señoret",
    "latitude": -52.58288,
    "longitude": -72.65268,
    "category": "Island",
    "subcategory": "Island Group",
    "featured": false,
    "priority": 50
  },
  {
    "geonameId": 11132068,
    "name": "Archipielago Wellington",
    "latitude": -47.95846,
    "longitude": -74.95136,
    "category": "Island",
    "subcategory": "Island Group",
    "featured": false,
    "priority": 50
  },
  {
    "geonameId": 3867899,
    "name": "Archipiélago Wellington",
    "latitude": -49.20978,
    "longitude": -75.02305,
    "category": "Island",
    "subcategory": "Island Group",
    "featured": false,
    "priority": 50
  },
  {
    "geonameId": 3899361,
    "name": "Arica",
    "latitude": -18.47552,
    "longitude": -70.30058,
    "category": "City",
    "subcategory": "Regional Capital",
    "featured": false,
    "priority": 50
  },
  {
    "geonameId": 11778254,
    "name": "Aromos Dam",
    "latitude": -32.95398,
    "longitude": -71.39407,
    "category": "Lake",
    "subcategory": "Reservoir",
    "featured": false,
    "priority": 50
  },
  {
    "geonameId": 3899195,
    "name": "Atacalco",
    "latitude": -37.23333,
    "longitude": -71.16667,
    "category": "Mountain",
    "subcategory": "Mountain Pass",
    "featured": false,
    "priority": 50
  },
  {
    "geonameId": 3899192,
    "name": "Atacama Desert",
    "latitude": -24.5,
    "longitude": -69.25,
    "category": "Desert",
    "subcategory": "Desert",
    "featured": false,
    "priority": 50
  },
  {
    "geonameId": 3899104,
    "name": "Avanzada Caman",
    "latitude": -36.61312,
    "longitude": -71.31663,
    "category": "Mountain",
    "subcategory": "Mountain",
    "featured": false,
    "priority": 50
  },
  {
    "geonameId": 3898854,
    "name": "Bandera",
    "latitude": -33.85894,
    "longitude": -71.13038,
    "category": "Mountain",
    "subcategory": "Mountain",
    "featured": false,
    "priority": 50
  },
  {
    "geonameId": 3898830,
    "name": "Bandurrias",
    "latitude": -34.54697,
    "longitude": -71.09342,
    "category": "Mountain",
    "subcategory": "Mountain",
    "featured": false,
    "priority": 50
  },
  {
    "geonameId": 3898793,
    "name": "Baquedano",
    "latitude": -23.33374,
    "longitude": -69.84055,
    "category": "City",
    "subcategory": "District Seat",
    "featured": false,
    "priority": 50
  },
  {
    "geonameId": 3898763,
    "name": "Barda de Piedra",
    "latitude": -32.63333,
    "longitude": -70.8,
    "category": "Mountain",
    "subcategory": "Mountain",
    "featured": false,
    "priority": 50
  },
  {
    "geonameId": 3898129,
    "name": "Boldo",
    "latitude": -32.41667,
    "longitude": -71.26667,
    "category": "Mountain",
    "subcategory": "Peak",
    "featured": false,
    "priority": 50
  },
  {
    "geonameId": 3898111,
    "name": "Bolsico",
    "latitude": -32.5994,
    "longitude": -70.9679,
    "category": "Mountain",
    "subcategory": "Mountain",
    "featured": false,
    "priority": 50
  },
  {
    "geonameId": 3898011,
    "name": "Bosques",
    "latitude": -32.38333,
    "longitude": -71.28333,
    "category": "Mountain",
    "subcategory": "Peak",
    "featured": false,
    "priority": 50
  },
  {
    "geonameId": 11821346,
    "name": "Boyce Island",
    "latitude": -53.36607,
    "longitude": -72.90772,
    "category": "Island",
    "subcategory": "Island",
    "featured": false,
    "priority": 50
  },
  {
    "geonameId": 12510895,
    "name": "Brecha de los Italianos",
    "latitude": -49.27656,
    "longitude": -73.04017,
    "category": "Mountain",
    "subcategory": "Mountain Pass",
    "featured": false,
    "priority": 50
  },
  {
    "geonameId": 3897774,
    "name": "Buin",
    "latitude": -33.73257,
    "longitude": -70.74281,
    "category": "City",
    "subcategory": "City",
    "featured": false,
    "priority": 50
  },
  {
    "geonameId": 11778272,
    "name": "Bullileo Dam",
    "latitude": -36.29534,
    "longitude": -71.40476,
    "category": "Lake",
    "subcategory": "Reservoir",
    "featured": false,
    "priority": 50
  },
  {
    "geonameId": 3897724,
    "name": "Bulnes",
    "latitude": -36.74232,
    "longitude": -72.29854,
    "category": "City",
    "subcategory": "County Seat",
    "featured": false,
    "priority": 50
  },
  {
    "geonameId": 3897595,
    "name": "Cabildo",
    "latitude": -32.43134,
    "longitude": -71.07167,
    "category": "City",
    "subcategory": "City",
    "featured": false,
    "priority": 50
  },
  {
    "geonameId": 3897557,
    "name": "Cabrero",
    "latitude": -37.03394,
    "longitude": -72.40468,
    "category": "City",
    "subcategory": "City",
    "featured": false,
    "priority": 50
  },
  {
    "geonameId": 11981905,
    "name": "Cajón de Las Vegas",
    "latitude": -34.35706,
    "longitude": -70.07208,
    "category": "Mountain",
    "subcategory": "Canyon",
    "featured": false,
    "priority": 50
  },
  {
    "geonameId": 12468759,
    "name": "Cajón de Las Yeguas",
    "latitude": -32.23586,
    "longitude": -71.38174,
    "category": "Mountain",
    "subcategory": "Mountain Pass",
    "featured": false,
    "priority": 50
  },
  {
    "geonameId": 3897347,
    "name": "Calama",
    "latitude": -22.45667,
    "longitude": -68.92371,
    "category": "City",
    "subcategory": "County Seat",
    "featured": false,
    "priority": 50
  },
  {
    "geonameId": 3897334,
    "name": "Calbuco",
    "latitude": -41.77338,
    "longitude": -73.13049,
    "category": "City",
    "subcategory": "City",
    "featured": false,
    "priority": 50
  },
  {
    "geonameId": 3897322,
    "name": "Caldera",
    "latitude": -27.06812,
    "longitude": -70.81921,
    "category": "City",
    "subcategory": "City",
    "featured": false,
    "priority": 50
  },
  {
    "geonameId": 3897300,
    "name": "Calería",
    "latitude": -34.48723,
    "longitude": -70.94921,
    "category": "Mountain",
    "subcategory": "Mountain",
    "featured": false,
    "priority": 50
  },
  {
    "geonameId": 3897243,
    "name": "Calle Larga",
    "latitude": -32.85473,
    "longitude": -70.62595,
    "category": "City",
    "subcategory": "City",
    "featured": false,
    "priority": 50
  },
  {
    "geonameId": 8365444,
    "name": "Callejón de Salín",
    "latitude": -24.33481,
    "longitude": -68.18868,
    "category": "Mountain",
    "subcategory": "Mountain Pass",
    "featured": false,
    "priority": 50
  },
  {
    "geonameId": 12468712,
    "name": "Callejón de Varela",
    "latitude": -23.75726,
    "longitude": -67.84004,
    "category": "Mountain",
    "subcategory": "Mountain Pass",
    "featured": false,
    "priority": 50
  },
  {
    "geonameId": 8365436,
    "name": "Callejón del Rincón",
    "latitude": -23.95424,
    "longitude": -67.31885,
    "category": "Mountain",
    "subcategory": "Mountain Pass",
    "featured": false,
    "priority": 50
  },
  {
    "geonameId": 8365438,
    "name": "Callejón Laguna Seca",
    "latitude": -24.04038,
    "longitude": -67.45495,
    "category": "Mountain",
    "subcategory": "Mountain Pass",
    "featured": false,
    "priority": 50
  },
  {
    "geonameId": 8365423,
    "name": "Callejón Las Torres",
    "latitude": -23.90245,
    "longitude": -67.42908,
    "category": "Mountain",
    "subcategory": "Mountain Pass",
    "featured": false,
    "priority": 50
  },
  {
    "geonameId": 3897148,
    "name": "Cámeron",
    "latitude": -53.63988,
    "longitude": -69.64693,
    "category": "City",
    "subcategory": "District Seat",
    "featured": false,
    "priority": 50
  },
  {
    "geonameId": 3897143,
    "name": "Camiña",
    "latitude": -19.31286,
    "longitude": -69.4261,
    "category": "City",
    "subcategory": "District Seat",
    "featured": false,
    "priority": 50
  },
  {
    "geonameId": 3897082,
    "name": "Campanario",
    "latitude": -33.80991,
    "longitude": -71.10941,
    "category": "Mountain",
    "subcategory": "Mountain",
    "featured": false,
    "priority": 50
  },
  {
    "geonameId": 11333941,
    "name": "Cañadón Carlota",
    "latitude": -52.04596,
    "longitude": -70.5163,
    "category": "Mountain",
    "subcategory": "Canyon",
    "featured": false,
    "priority": 50
  },
  {
    "geonameId": 11333940,
    "name": "Cañadón de La Vega",
    "latitude": -52.01907,
    "longitude": -70.59516,
    "category": "Mountain",
    "subcategory": "Canyon",
    "featured": false,
    "priority": 50
  },
  {
    "geonameId": 11333884,
    "name": "Cañadón El Molino",
    "latitude": -52.0698,
    "longitude": -70.74314,
    "category": "Mountain",
    "subcategory": "Canyon",
    "featured": false,
    "priority": 50
  },
  {
    "geonameId": 11326106,
    "name": "Cañadón Grande",
    "latitude": -53.28594,
    "longitude": -68.88028,
    "category": "Mountain",
    "subcategory": "Canyon",
    "featured": false,
    "priority": 50
  },
  {
    "geonameId": 11333961,
    "name": "Cañadón Malo",
    "latitude": -52.58879,
    "longitude": -71.03945,
    "category": "Mountain",
    "subcategory": "Canyon",
    "featured": false,
    "priority": 50
  },
  {
    "geonameId": 11329363,
    "name": "Cañadón Seco",
    "latitude": -52.16403,
    "longitude": -69.89021,
    "category": "Mountain",
    "subcategory": "Canyon",
    "featured": false,
    "priority": 50
  },
  {
    "geonameId": 3897004,
    "name": "Cancha de Chueca",
    "latitude": -32.35,
    "longitude": -70.68333,
    "category": "Mountain",
    "subcategory": "Peak",
    "featured": false,
    "priority": 50
  },
  {
    "geonameId": 3896951,
    "name": "Canela",
    "latitude": -31.58333,
    "longitude": -70.85,
    "category": "City",
    "subcategory": "City",
    "featured": false,
    "priority": 50
  },
  {
    "geonameId": 3950116,
    "name": "Cañete",
    "latitude": -37.8,
    "longitude": -73.38333,
    "category": "City",
    "subcategory": "City",
    "featured": false,
    "priority": 50
  },
  {
    "geonameId": 11233064,
    "name": "Cañón La Enredadera",
    "latitude": -43.47414,
    "longitude": -71.94714,
    "category": "Mountain",
    "subcategory": "Canyon",
    "featured": false,
    "priority": 50
  },
  {
    "geonameId": 12076715,
    "name": "Capitán del Quempo",
    "latitude": -33.39073,
    "longitude": -70.20283,
    "category": "Mountain",
    "subcategory": "Mountain Pass",
    "featured": false,
    "priority": 50
  },
  {
    "geonameId": 3896774,
    "name": "Carahue",
    "latitude": -38.71122,
    "longitude": -73.16101,
    "category": "City",
    "subcategory": "City",
    "featured": false,
    "priority": 50
  },
  {
    "geonameId": 3896718,
    "name": "Cardo",
    "latitude": -32.45,
    "longitude": -70.98333,
    "category": "Mountain",
    "subcategory": "Mountain",
    "featured": false,
    "priority": 50
  },
  {
    "geonameId": 3896693,
    "name": "Cardones",
    "latitude": -32.43333,
    "longitude": -71.3,
    "category": "Mountain",
    "subcategory": "Peak",
    "featured": false,
    "priority": 50
  },
  {
    "geonameId": 3896433,
    "name": "Cartagena",
    "latitude": -33.55384,
    "longitude": -71.60761,
    "category": "City",
    "subcategory": "City",
    "featured": false,
    "priority": 50
  },
  {
    "geonameId": 3862428,
    "name": "Casa de Piedra",
    "latitude": -33.11667,
    "longitude": -70.08333,
    "category": "Mountain",
    "subcategory": "Mountain",
    "featured": false,
    "priority": 50
  },
  {
    "geonameId": 3896410,
    "name": "Casablanca",
    "latitude": -33.31712,
    "longitude": -71.40311,
    "category": "City",
    "subcategory": "City",
    "featured": false,
    "priority": 50
  },
  {
    "geonameId": 11279272,
    "name": "Cascada de Ventisquero Colgante",
    "latitude": -44.43456,
    "longitude": -72.5017,
    "category": "Waterfall",
    "subcategory": "Waterfall",
    "featured": false,
    "priority": 50
  },
  {
    "geonameId": 3896305,
    "name": "Cascajal",
    "latitude": -40.21155,
    "longitude": -73.65433,
    "category": "Mountain",
    "subcategory": "Mountain",
    "featured": false,
    "priority": 50
  },
  {
    "geonameId": 3896294,
    "name": "Caserones",
    "latitude": -32.41667,
    "longitude": -70.53333,
    "category": "Mountain",
    "subcategory": "Peak",
    "featured": false,
    "priority": 50
  },
  {
    "geonameId": 3896218,
    "name": "Castro",
    "latitude": -42.4721,
    "longitude": -73.77319,
    "category": "City",
    "subcategory": "City",
    "featured": false,
    "priority": 50
  },
  {
    "geonameId": 7536040,
    "name": "Catedral de Mármol",
    "latitude": -46.64001,
    "longitude": -72.64709,
    "category": "Lake",
    "subcategory": "Reservoir",
    "featured": false,
    "priority": 50
  },
  {
    "geonameId": 3896161,
    "name": "Catemu",
    "latitude": -32.63333,
    "longitude": -71.03333,
    "category": "City",
    "subcategory": "City",
    "featured": false,
    "priority": 50
  },
  {
    "geonameId": 3896105,
    "name": "Cauquenes",
    "latitude": -35.9671,
    "longitude": -72.32248,
    "category": "City",
    "subcategory": "City",
    "featured": false,
    "priority": 50
  },
  {
    "geonameId": 3892271,
    "name": "Cerrillo Doñihue",
    "latitude": -34.23414,
    "longitude": -70.99214,
    "category": "Mountain",
    "subcategory": "Mountain",
    "featured": false,
    "priority": 50
  },
  {
    "geonameId": 3891336,
    "name": "Cerrillo El Gallo",
    "latitude": -19.30561,
    "longitude": -69.6827,
    "category": "Mountain",
    "subcategory": "Mountain",
    "featured": false,
    "priority": 50
  },
  {
    "geonameId": 3877480,
    "name": "Cerrillo Pampa Elvira",
    "latitude": -23.4154,
    "longitude": -68.80594,
    "category": "Mountain",
    "subcategory": "Mountain",
    "featured": false,
    "priority": 50
  },
  {
    "geonameId": 3870178,
    "name": "Cerrillo Tana",
    "latitude": -19.45981,
    "longitude": -70.00325,
    "category": "Mountain",
    "subcategory": "Mountain",
    "featured": false,
    "priority": 50
  },
  {
    "geonameId": 3888348,
    "name": "Cerrito del Guasco",
    "latitude": -20.30875,
    "longitude": -68.80081,
    "category": "Mountain",
    "subcategory": "Mountain",
    "featured": false,
    "priority": 50
  },
  {
    "geonameId": 3889084,
    "name": "Cerrito Garuma",
    "latitude": -20.96013,
    "longitude": -70.04864,
    "category": "Mountain",
    "subcategory": "Mountain",
    "featured": false,
    "priority": 50
  },
  {
    "geonameId": 3900721,
    "name": "Cerro Acacha",
    "latitude": -20.87394,
    "longitude": -68.85027,
    "category": "Mountain",
    "subcategory": "Mountain",
    "featured": false,
    "priority": 50
  },
  {
    "geonameId": 3900718,
    "name": "Cerro Acamarachi",
    "latitude": -23.29256,
    "longitude": -67.61789,
    "category": "Mountain",
    "subcategory": "Mountain",
    "featured": false,
    "priority": 50
  },
  {
    "geonameId": 3900709,
    "name": "Cerro Acerillo",
    "latitude": -26.10979,
    "longitude": -69.31345,
    "category": "Mountain",
    "subcategory": "Mountain",
    "featured": false,
    "priority": 50
  },
  {
    "geonameId": 3900693,
    "name": "Cerro Achechamayo",
    "latitude": -18.79463,
    "longitude": -69.09717,
    "category": "Mountain",
    "subcategory": "Mountain",
    "featured": false,
    "priority": 50
  },
  {
    "geonameId": 11176875,
    "name": "Cerro Achuldri",
    "latitude": -24.04861,
    "longitude": -68.02416,
    "category": "Mountain",
    "subcategory": "Mountain",
    "featured": false,
    "priority": 50
  },
  {
    "geonameId": 3900688,
    "name": "Cerro Achupalla",
    "latitude": -32.5,
    "longitude": -70.61667,
    "category": "Mountain",
    "subcategory": "Peak",
    "featured": false,
    "priority": 50
  },
  {
    "geonameId": 3899673,
    "name": "Cerro Adamito",
    "latitude": -21.52673,
    "longitude": -69.89288,
    "category": "Mountain",
    "subcategory": "Mountain",
    "featured": false,
    "priority": 50
  },
  {
    "geonameId": 11885146,
    "name": "Cerro Adán",
    "latitude": -41.8985,
    "longitude": -72.10882,
    "category": "Mountain",
    "subcategory": "Mountain",
    "featured": false,
    "priority": 50
  },
  {
    "geonameId": 12493908,
    "name": "Cerro Adela Central",
    "latitude": -49.30504,
    "longitude": -73.10281,
    "category": "Mountain",
    "subcategory": "Mountain",
    "featured": false,
    "priority": 50
  },
  {
    "geonameId": 12493907,
    "name": "Cerro Adela Norte",
    "latitude": -49.29869,
    "longitude": -73.10403,
    "category": "Mountain",
    "subcategory": "Mountain",
    "featured": false,
    "priority": 50
  },
  {
    "geonameId": 12493909,
    "name": "Cerro Adela Sur",
    "latitude": -49.31089,
    "longitude": -73.10276,
    "category": "Mountain",
    "subcategory": "Mountain",
    "featured": false,
    "priority": 50
  },
  {
    "geonameId": 12493700,
    "name": "Cerro Agassiz",
    "latitude": -49.96108,
    "longitude": -73.45135,
    "category": "Mountain",
    "subcategory": "Mountain",
    "featured": false,
    "priority": 50
  },
  {
    "geonameId": 3900623,
    "name": "Cerro Agua",
    "latitude": -29.41667,
    "longitude": -70.98333,
    "category": "Mountain",
    "subcategory": "Mountain",
    "featured": false,
    "priority": 50
  },
  {
    "geonameId": 3900605,
    "name": "Cerro Agua Amarga",
    "latitude": -26.21288,
    "longitude": -69.45996,
    "category": "Mountain",
    "subcategory": "Mountain",
    "featured": false,
    "priority": 50
  },
  {
    "geonameId": 3900586,
    "name": "Cerro Agua Blanca",
    "latitude": -37.7663,
    "longitude": -71.65858,
    "category": "Mountain",
    "subcategory": "Mountain",
    "featured": false,
    "priority": 50
  },
  {
    "geonameId": 3900568,
    "name": "Cerro Agua Chica",
    "latitude": -26.62699,
    "longitude": -69.53861,
    "category": "Mountain",
    "subcategory": "Mountain",
    "featured": false,
    "priority": 50
  },
  {
    "geonameId": 3900539,
    "name": "Cerro Agua de la Brea",
    "latitude": -26.65984,
    "longitude": -70.57304,
    "category": "Mountain",
    "subcategory": "Mountain",
    "featured": false,
    "priority": 50
  },
  {
    "geonameId": 11111573,
    "name": "Cerro Agua de la Falda",
    "latitude": -26.59241,
    "longitude": -68.85988,
    "category": "Mountain",
    "subcategory": "Mountain",
    "featured": false,
    "priority": 50
  },
  {
    "geonameId": 3900530,
    "name": "Cerro Agua de la Piedra",
    "latitude": -26.43288,
    "longitude": -69.32743,
    "category": "Mountain",
    "subcategory": "Mountain",
    "featured": false,
    "priority": 50
  },
  {
    "geonameId": 3900507,
    "name": "Cerro Agua de Morales",
    "latitude": -26.175,
    "longitude": -68.69784,
    "category": "Mountain",
    "subcategory": "Mountain",
    "featured": false,
    "priority": 50
  },
  {
    "geonameId": 3900504,
    "name": "Cerro Agua de Pedernales",
    "latitude": -26.40939,
    "longitude": -69.26429,
    "category": "Mountain",
    "subcategory": "Mountain",
    "featured": false,
    "priority": 50
  },
  {
    "geonameId": 11111778,
    "name": "Cerro Agua del Rincón",
    "latitude": -26.22667,
    "longitude": -68.88121,
    "category": "Mountain",
    "subcategory": "Mountain",
    "featured": false,
    "priority": 50
  },
  {
    "geonameId": 11176870,
    "name": "Cerro Agua Delgada",
    "latitude": -24.19878,
    "longitude": -67.83641,
    "category": "Mountain",
    "subcategory": "Mountain",
    "featured": false,
    "priority": 50
  },
  {
    "geonameId": 3900496,
    "name": "Cerro Agua Dulce",
    "latitude": -23.04359,
    "longitude": -68.83143,
    "category": "Mountain",
    "subcategory": "Mountain",
    "featured": false,
    "priority": 50
  },
  {
    "geonameId": 3900469,
    "name": "Cerro Agua Grande",
    "latitude": -29.72097,
    "longitude": -71.06145,
    "category": "Mountain",
    "subcategory": "Mountain",
    "featured": false,
    "priority": 50
  },
  {
    "geonameId": 3900448,
    "name": "Cerro Agua Salada",
    "latitude": -29.40021,
    "longitude": -71.0766,
    "category": "Mountain",
    "subcategory": "Mountain",
    "featured": false,
    "priority": 50
  },
  {
    "geonameId": 3900406,
    "name": "Cerro Agua Verde",
    "latitude": -25.38958,
    "longitude": -70.01348,
    "category": "Mountain",
    "subcategory": "Mountain",
    "featured": false,
    "priority": 50
  },
  {
    "geonameId": 3900554,
    "name": "Cerro Aguada",
    "latitude": -19.75,
    "longitude": -69.83333,
    "category": "Mountain",
    "subcategory": "Mountain",
    "featured": false,
    "priority": 50
  },
  {
    "geonameId": 3900441,
    "name": "Cerro Aguas Blancas",
    "latitude": -27.78609,
    "longitude": -69.34075,
    "category": "Mountain",
    "subcategory": "Mountain",
    "featured": false,
    "priority": 50
  },
  {
    "geonameId": 3900424,
    "name": "Cerro Aguas Calientes",
    "latitude": -24.89542,
    "longitude": -68.67375,
    "category": "Mountain",
    "subcategory": "Mountain",
    "featured": false,
    "priority": 50
  },
  {
    "geonameId": 11176868,
    "name": "Cerro Aguas Delgadas",
    "latitude": -24.14334,
    "longitude": -67.85729,
    "category": "Mountain",
    "subcategory": "Mountain",
    "featured": false,
    "priority": 50
  },
  {
    "geonameId": 11894651,
    "name": "Cerro Aguas Malas",
    "latitude": -40.85666,
    "longitude": -72.09841,
    "category": "Mountain",
    "subcategory": "Mountain",
    "featured": false,
    "priority": 50
  },
  {
    "geonameId": 3900400,
    "name": "Cerro Agudo",
    "latitude": -50.80975,
    "longitude": -73.05049,
    "category": "Mountain",
    "subcategory": "Mountain",
    "featured": false,
    "priority": 50
  },
  {
    "geonameId": 3900389,
    "name": "Cerro Águila",
    "latitude": -32.73333,
    "longitude": -71.06667,
    "category": "Mountain",
    "subcategory": "Peak",
    "featured": false,
    "priority": 50
  },
  {
    "geonameId": 3900378,
    "name": "Cerro Aguilar",
    "latitude": -28.37713,
    "longitude": -70.91417,
    "category": "Mountain",
    "subcategory": "Mountain",
    "featured": false,
    "priority": 50
  },
  {
    "geonameId": 3900376,
    "name": "Cerro Aguilas",
    "latitude": -33.44759,
    "longitude": -71.13987,
    "category": "Mountain",
    "subcategory": "Mountain",
    "featured": false,
    "priority": 50
  },
  {
    "geonameId": 3900372,
    "name": "Cerro Aguilucho",
    "latitude": -21.82887,
    "longitude": -68.20211,
    "category": "Mountain",
    "subcategory": "Mountain",
    "featured": false,
    "priority": 50
  },
  {
    "geonameId": 3900362,
    "name": "Cerro Aguja",
    "latitude": -55.13327,
    "longitude": -69.01039,
    "category": "Mountain",
    "subcategory": "Mountain",
    "featured": false,
    "priority": 50
  },
  {
    "geonameId": 3969814,
    "name": "Cerro Aguja Norte",
    "latitude": -42.05361,
    "longitude": -71.72944,
    "category": "Mountain",
    "subcategory": "Mountain",
    "featured": false,
    "priority": 50
  },
  {
    "geonameId": 3900329,
    "name": "Cerro Aislado",
    "latitude": -45.94929,
    "longitude": -72.07783,
    "category": "Mountain",
    "subcategory": "Mountain",
    "featured": false,
    "priority": 50
  },
  {
    "geonameId": 3900319,
    "name": "Cerro Ajial",
    "latitude": -34.79139,
    "longitude": -71.27957,
    "category": "Mountain",
    "subcategory": "Mountain",
    "featured": false,
    "priority": 50
  },
  {
    "geonameId": 3900313,
    "name": "Cerro Alacrán",
    "latitude": -20.11594,
    "longitude": -70.01641,
    "category": "Mountain",
    "subcategory": "Mountain",
    "featured": false,
    "priority": 50
  },
  {
    "geonameId": 3900300,
    "name": "Cerro Álamo",
    "latitude": -33.22682,
    "longitude": -71.23204,
    "category": "Mountain",
    "subcategory": "Mountain",
    "featured": false,
    "priority": 50
  },
  {
    "geonameId": 3900288,
    "name": "Cerro Alantaya",
    "latitude": -19.91646,
    "longitude": -69.00983,
    "category": "Mountain",
    "subcategory": "Mountain",
    "featured": false,
    "priority": 50
  },
  {
    "geonameId": 3900281,
    "name": "Cerro Alargado",
    "latitude": -45.5673,
    "longitude": -72.58942,
    "category": "Mountain",
    "subcategory": "Mountain",
    "featured": false,
    "priority": 50
  },
  {
    "geonameId": 3900259,
    "name": "Cerro Alboyanco",
    "latitude": -37.98687,
    "longitude": -72.58315,
    "category": "Mountain",
    "subcategory": "Mountain",
    "featured": false,
    "priority": 50
  },
  {
    "geonameId": 11178251,
    "name": "Cerro Alcalde Poblete",
    "latitude": -23.83747,
    "longitude": -70.25561,
    "category": "Mountain",
    "subcategory": "Mountain",
    "featured": false,
    "priority": 50
  },
  {
    "geonameId": 11200541,
    "name": "Cerro Alcaparra",
    "latitude": -28.91315,
    "longitude": -70.98071,
    "category": "Mountain",
    "subcategory": "Mountain",
    "featured": false,
    "priority": 50
  },
  {
    "geonameId": 3900241,
    "name": "Cerro Alconcha",
    "latitude": -21.06499,
    "longitude": -68.53555,
    "category": "Mountain",
    "subcategory": "Mountain",
    "featured": false,
    "priority": 50
  },
  {
    "geonameId": 3900228,
    "name": "Cerro Alcota",
    "latitude": -27.28722,
    "longitude": -69.84003,
    "category": "Mountain",
    "subcategory": "Mountain",
    "featured": false,
    "priority": 50
  },
  {
    "geonameId": 3900221,
    "name": "Cerro Aldea",
    "latitude": -20.23361,
    "longitude": -70.1111,
    "category": "Mountain",
    "subcategory": "Mountain",
    "featured": false,
    "priority": 50
  },
  {
    "geonameId": 3900184,
    "name": "Cerro Alesna",
    "latitude": -48.74652,
    "longitude": -73.09383,
    "category": "Mountain",
    "subcategory": "Mountain",
    "featured": false,
    "priority": 50
  },
  {
    "geonameId": 3900178,
    "name": "Cerro Alfalfa",
    "latitude": -32.43567,
    "longitude": -71.04675,
    "category": "Mountain",
    "subcategory": "Mountain",
    "featured": false,
    "priority": 50
  },
  {
    "geonameId": 3900159,
    "name": "Cerro Algarrobal",
    "latitude": -28.93516,
    "longitude": -70.85595,
    "category": "Mountain",
    "subcategory": "Mountain",
    "featured": false,
    "priority": 50
  },
  {
    "geonameId": 3900151,
    "name": "Cerro Algarrobilla",
    "latitude": -29.93356,
    "longitude": -70.7711,
    "category": "Mountain",
    "subcategory": "Mountain",
    "featured": false,
    "priority": 50
  },
  {
    "geonameId": 3900143,
    "name": "Cerro Algarrobito",
    "latitude": -27.97705,
    "longitude": -70.28202,
    "category": "Mountain",
    "subcategory": "Mountain",
    "featured": false,
    "priority": 50
  },
  {
    "geonameId": 3900132,
    "name": "Cerro Algarrobo",
    "latitude": -27.03886,
    "longitude": -70.55016,
    "category": "Mountain",
    "subcategory": "Mountain",
    "featured": false,
    "priority": 50
  },
  {
    "geonameId": 3900126,
    "name": "Cerro Algarrota",
    "latitude": -28.57608,
    "longitude": -70.76981,
    "category": "Mountain",
    "subcategory": "Mountain",
    "featured": false,
    "priority": 50
  },
  {
    "geonameId": 3900122,
    "name": "Cerro Algodones",
    "latitude": -28.12644,
    "longitude": -71.03356,
    "category": "Mountain",
    "subcategory": "Mountain",
    "featured": false,
    "priority": 50
  },
  {
    "geonameId": 3900100,
    "name": "Cerro Alibaud",
    "latitude": -23.3872,
    "longitude": -70.05764,
    "category": "Mountain",
    "subcategory": "Mountain",
    "featured": false,
    "priority": 50
  },
  {
    "geonameId": 3900083,
    "name": "Cerro Alitar",
    "latitude": -23.14369,
    "longitude": -67.63647,
    "category": "Mountain",
    "subcategory": "Mountain",
    "featured": false,
    "priority": 50
  },
  {
    "geonameId": 3900073,
    "name": "Cerro Allillonco",
    "latitude": -38.74203,
    "longitude": -71.51998,
    "category": "Mountain",
    "subcategory": "Mountain",
    "featured": false,
    "priority": 50
  },
  {
    "geonameId": 11405464,
    "name": "Cerro Almirante Óscar Viel",
    "latitude": -50.6377,
    "longitude": -73.17162,
    "category": "Mountain",
    "subcategory": "Mountain",
    "featured": false,
    "priority": 50
  },
  {
    "geonameId": 3899970,
    "name": "Cerro Altar",
    "latitude": -33.18601,
    "longitude": -70.24331,
    "category": "Mountain",
    "subcategory": "Mountain",
    "featured": false,
    "priority": 50
  },
  {
    "geonameId": 3899950,
    "name": "Cerro Alto",
    "latitude": -38.35978,
    "longitude": -71.39494,
    "category": "Mountain",
    "subcategory": "Mountain",
    "featured": false,
    "priority": 50
  },
  {
    "geonameId": 3899937,
    "name": "Cerro Alto Colorado",
    "latitude": -33.86667,
    "longitude": -71.3,
    "category": "Mountain",
    "subcategory": "Mountain",
    "featured": false,
    "priority": 50
  },
  {
    "geonameId": 11981972,
    "name": "Cerro Alto de Contreras",
    "latitude": -34.71466,
    "longitude": -70.67747,
    "category": "Mountain",
    "subcategory": "Mountain",
    "featured": false,
    "priority": 50
  },
  {
    "geonameId": 3899932,
    "name": "Cerro Alto de Huechún",
    "latitude": -32.99604,
    "longitude": -70.80558,
    "category": "Mountain",
    "subcategory": "Mountain",
    "featured": false,
    "priority": 50
  },
  {
    "geonameId": 11981935,
    "name": "Cerro Alto de La Campana",
    "latitude": -34.55791,
    "longitude": -70.64973,
    "category": "Mountain",
    "subcategory": "Mountain",
    "featured": false,
    "priority": 50
  },
  {
    "geonameId": 3875644,
    "name": "Cerro Alto de La Plaza",
    "latitude": -34.85606,
    "longitude": -70.73176,
    "category": "Mountain",
    "subcategory": "Mountain",
    "featured": false,
    "priority": 50
  },
  {
    "geonameId": 3891502,
    "name": "Cerro Alto de Las Cabras",
    "latitude": -34.64099,
    "longitude": -70.6996,
    "category": "Mountain",
    "subcategory": "Mountain",
    "featured": false,
    "priority": 50
  },
  {
    "geonameId": 11363822,
    "name": "Cerro Alto de Las Lagunas",
    "latitude": -34.5271,
    "longitude": -70.48461,
    "category": "Mountain",
    "subcategory": "Mountain",
    "featured": false,
    "priority": 50
  },
  {
    "geonameId": 3899927,
    "name": "Cerro Alto de Las Mesas",
    "latitude": -33.31667,
    "longitude": -70.5,
    "category": "Mountain",
    "subcategory": "Mountain",
    "featured": false,
    "priority": 50
  },
  {
    "geonameId": 3899926,
    "name": "Cerro Alto de las Minas",
    "latitude": -33.66667,
    "longitude": -71.1,
    "category": "Mountain",
    "subcategory": "Mountain",
    "featured": false,
    "priority": 50
  },
  {
    "geonameId": 3884111,
    "name": "Cerro Alto de Las Ovejas",
    "latitude": -34.27892,
    "longitude": -71.18614,
    "category": "Mountain",
    "subcategory": "Mountain",
    "featured": false,
    "priority": 50
  },
  {
    "geonameId": 11981937,
    "name": "Cerro Alto de Las Verdolagas",
    "latitude": -34.52168,
    "longitude": -70.6088,
    "category": "Mountain",
    "subcategory": "Mountain",
    "featured": false,
    "priority": 50
  },
  {
    "geonameId": 11369214,
    "name": "Cerro Alto de las Vizcachas",
    "latitude": -33.42396,
    "longitude": -70.47859,
    "category": "Mountain",
    "subcategory": "Mountain",
    "featured": false,
    "priority": 50
  },
  {
    "geonameId": 3883033,
    "name": "Cerro Alto de Llaillay",
    "latitude": -32.82337,
    "longitude": -70.94768,
    "category": "Mountain",
    "subcategory": "Mountain",
    "featured": false,
    "priority": 50
  },
  {
    "geonameId": 3899293,
    "name": "Cerro Alto de Los Arrieros",
    "latitude": -34.61202,
    "longitude": -70.37888,
    "category": "Mountain",
    "subcategory": "Mountain",
    "featured": false,
    "priority": 50
  },
  {
    "geonameId": 3899912,
    "name": "Cerro Alto de Los Bronces",
    "latitude": -33.54339,
    "longitude": -70.16562,
    "category": "Mountain",
    "subcategory": "Mountain",
    "featured": false,
    "priority": 50
  },
  {
    "geonameId": 3899911,
    "name": "Cerro Alto de Los Lirios",
    "latitude": -34.62856,
    "longitude": -70.65967,
    "category": "Mountain",
    "subcategory": "Mountain",
    "featured": false,
    "priority": 50
  },
  {
    "geonameId": 3899909,
    "name": "Cerro Alto de los Sapos",
    "latitude": -33.9064,
    "longitude": -70.15541,
    "category": "Mountain",
    "subcategory": "Mountain",
    "featured": false,
    "priority": 50
  },
  {
    "geonameId": 3877856,
    "name": "Cerro Alto de Pablo",
    "latitude": -34.8994,
    "longitude": -70.87152,
    "category": "Mountain",
    "subcategory": "Mountain",
    "featured": false,
    "priority": 50
  },
  {
    "geonameId": 11981454,
    "name": "Cerro Alto de Pangalillo",
    "latitude": -34.21803,
    "longitude": -70.5934,
    "category": "Mountain",
    "subcategory": "Mountain",
    "featured": false,
    "priority": 50
  },
  {
    "geonameId": 11981973,
    "name": "Cerro Alto de Pellejo",
    "latitude": -34.63414,
    "longitude": -70.58565,
    "category": "Mountain",
    "subcategory": "Mountain",
    "featured": false,
    "priority": 50
  },
  {
    "geonameId": 3899899,
    "name": "Cerro Alto de Piedra",
    "latitude": -33.32147,
    "longitude": -71.52206,
    "category": "Mountain",
    "subcategory": "Mountain",
    "featured": false,
    "priority": 50
  },
  {
    "geonameId": 3899898,
    "name": "Cerro Alto de Pulpica",
    "latitude": -30.88839,
    "longitude": -70.82149,
    "category": "Mountain",
    "subcategory": "Mountain",
    "featured": false,
    "priority": 50
  },
  {
    "geonameId": 3874257,
    "name": "Cerro Alto de Quilamuta",
    "latitude": -34.14801,
    "longitude": -71.24005,
    "category": "Mountain",
    "subcategory": "Mountain",
    "featured": false,
    "priority": 50
  },
  {
    "geonameId": 3899894,
    "name": "Cerro Alto de Varas",
    "latitude": -24.74625,
    "longitude": -69.15708,
    "category": "Mountain",
    "subcategory": "Mountain",
    "featured": false,
    "priority": 50
  },
  {
    "geonameId": 3867665,
    "name": "Cerro Alto de Yerbas Buenas",
    "latitude": -32.73288,
    "longitude": -71.30798,
    "category": "Mountain",
    "subcategory": "Mountain",
    "featured": false,
    "priority": 50
  },
  {
    "geonameId": 11208869,
    "name": "Cerro Alto del Burro",
    "latitude": -28.63197,
    "longitude": -70.26898,
    "category": "Mountain",
    "subcategory": "Mountain",
    "featured": false,
    "priority": 50
  },
  {
    "geonameId": 11981927,
    "name": "Cerro Alto del Cepillo",
    "latitude": -34.49776,
    "longitude": -70.55971,
    "category": "Mountain",
    "subcategory": "Mountain",
    "featured": false,
    "priority": 50
  },
  {
    "geonameId": 3899922,
    "name": "Cerro Alto del Cobre",
    "latitude": -32.67319,
    "longitude": -70.4637,
    "category": "Mountain",
    "subcategory": "Mountain",
    "featured": false,
    "priority": 50
  },
  {
    "geonameId": 3899921,
    "name": "Cerro Alto del Coironal",
    "latitude": -33.36015,
    "longitude": -70.08466,
    "category": "Mountain",
    "subcategory": "Mountain",
    "featured": false,
    "priority": 50
  },
  {
    "geonameId": 3894216,
    "name": "Cerro Alto del Collay",
    "latitude": -34.39135,
    "longitude": -70.35977,
    "category": "Mountain",
    "subcategory": "Mountain",
    "featured": false,
    "priority": 50
  },
  {
    "geonameId": 3891513,
    "name": "Cerro Alto del Cuzco",
    "latitude": -32.33538,
    "longitude": -70.46555,
    "category": "Mountain",
    "subcategory": "Mountain",
    "featured": false,
    "priority": 50
  },
  {
    "geonameId": 3950114,
    "name": "Cerro Alto del Dihueño",
    "latitude": -36.8372,
    "longitude": -72.84487,
    "category": "Mountain",
    "subcategory": "Mountain",
    "featured": false,
    "priority": 50
  },
  {
    "geonameId": 3899920,
    "name": "Cerro Alto del Espino",
    "latitude": -33.87653,
    "longitude": -71.29852,
    "category": "Mountain",
    "subcategory": "Mountain",
    "featured": false,
    "priority": 50
  },
  {
    "geonameId": 3899917,
    "name": "Cerro Alto del Guindo",
    "latitude": -32.73644,
    "longitude": -70.50788,
    "category": "Mountain",
    "subcategory": "Mountain",
    "featured": false,
    "priority": 50
  },
  {
    "geonameId": 3899915,
    "name": "Cerro Alto del Huique",
    "latitude": -34.52133,
    "longitude": -71.25818,
    "category": "Mountain",
    "subcategory": "Mountain",
    "featured": false,
    "priority": 50
  },
  {
    "geonameId": 3880624,
    "name": "Cerro Alto del Manzano",
    "latitude": -32.82371,
    "longitude": -71.32903,
    "category": "Mountain",
    "subcategory": "Mountain",
    "featured": false,
    "priority": 50
  },
  {
    "geonameId": 3899907,
    "name": "Cerro Alto del Padre",
    "latitude": -38.45729,
    "longitude": -71.64253,
    "category": "Mountain",
    "subcategory": "Mountain",
    "featured": false,
    "priority": 50
  },
  {
    "geonameId": 3899905,
    "name": "Cerro Alto del Peumo",
    "latitude": -34.65839,
    "longitude": -71.60459,
    "category": "Mountain",
    "subcategory": "Mountain",
    "featured": false,
    "priority": 50
  },
  {
    "geonameId": 3899900,
    "name": "Cerro Alto del Pico",
    "latitude": -33.62825,
    "longitude": -71.121,
    "category": "Mountain",
    "subcategory": "Mountain",
    "featured": false,
    "priority": 50
  },
  {
    "geonameId": 11369131,
    "name": "Cerro Alto del Yeso",
    "latitude": -33.52431,
    "longitude": -69.89846,
    "category": "Mountain",
    "subcategory": "Mountain",
    "featured": false,
    "priority": 50
  },
  {
    "geonameId": 3900395,
    "name": "Cerro Alto el Águila",
    "latitude": -34.92293,
    "longitude": -70.97236,
    "category": "Mountain",
    "subcategory": "Mountain",
    "featured": false,
    "priority": 50
  },
  {
    "geonameId": 3899892,
    "name": "Cerro Alto El Espino",
    "latitude": -33.51667,
    "longitude": -71.31667,
    "category": "Mountain",
    "subcategory": "Mountain",
    "featured": false,
    "priority": 50
  },
  {
    "geonameId": 11981440,
    "name": "Cerro Alto El Paico",
    "latitude": -34.13127,
    "longitude": -70.56717,
    "category": "Mountain",
    "subcategory": "Mountain",
    "featured": false,
    "priority": 50
  },
  {
    "geonameId": 3881417,
    "name": "Cerro Alto El Sauce",
    "latitude": -34.07809,
    "longitude": -70.918,
    "category": "Mountain",
    "subcategory": "Mountain",
    "featured": false,
    "priority": 50
  },
  {
    "geonameId": 11405562,
    "name": "Cerro Alto Gallardo",
    "latitude": -49.69785,
    "longitude": -73.66122,
    "category": "Mountain",
    "subcategory": "Mountain",
    "featured": false,
    "priority": 50
  },
  {
    "geonameId": 3899884,
    "name": "Cerro Alto La Torre",
    "latitude": -33.79995,
    "longitude": -70.6169,
    "category": "Mountain",
    "subcategory": "Mountain",
    "featured": false,
    "priority": 50
  },
  {
    "geonameId": 3884668,
    "name": "Cerro Alto Las Águilas",
    "latitude": -34.82057,
    "longitude": -70.64543,
    "category": "Mountain",
    "subcategory": "Mountain",
    "featured": false,
    "priority": 50
  },
  {
    "geonameId": 3881872,
    "name": "Cerro Alto Los Lunes",
    "latitude": -34.09719,
    "longitude": -70.54281,
    "category": "Mountain",
    "subcategory": "Mountain",
    "featured": false,
    "priority": 50
  },
  {
    "geonameId": 11956258,
    "name": "Cerro Alto Macal",
    "latitude": -36.1126,
    "longitude": -71.32886,
    "category": "Mountain",
    "subcategory": "Mountain",
    "featured": false,
    "priority": 50
  },
  {
    "geonameId": 11956919,
    "name": "Cerro Alto Muñoz",
    "latitude": -36.22933,
    "longitude": -71.28716,
    "category": "Mountain",
    "subcategory": "Mountain",
    "featured": false,
    "priority": 50
  },
  {
    "geonameId": 3899882,
    "name": "Cerro Alto Nevado",
    "latitude": -44.81608,
    "longitude": -72.53653,
    "category": "Mountain",
    "subcategory": "Mountain",
    "featured": false,
    "priority": 50
  },
  {
    "geonameId": 3877451,
    "name": "Cerro Alto Panantalla",
    "latitude": -19.6,
    "longitude": -68.56667,
    "category": "Mountain",
    "subcategory": "Mountain",
    "featured": false,
    "priority": 50
  },
  {
    "geonameId": 3872964,
    "name": "Cerro Alto Rodeillo",
    "latitude": -33.9516,
    "longitude": -70.47664,
    "category": "Mountain",
    "subcategory": "Mountain",
    "featured": false,
    "priority": 50
  },
  {
    "geonameId": 3899871,
    "name": "Cerro Alto Tumaya",
    "latitude": -18.58604,
    "longitude": -69.45307,
    "category": "Mountain",
    "subcategory": "Mountain",
    "featured": false,
    "priority": 50
  },
  {
    "geonameId": 3875855,
    "name": "Cerro Altos Piopío",
    "latitude": -34.30376,
    "longitude": -71.18953,
    "category": "Mountain",
    "subcategory": "Mountain",
    "featured": false,
    "priority": 50
  },
  {
    "geonameId": 3891971,
    "name": "Cerro Aluminio",
    "latitude": -26.11081,
    "longitude": -69.01839,
    "category": "Mountain",
    "subcategory": "Mountain",
    "featured": false,
    "priority": 50
  },
  {
    "geonameId": 3886991,
    "name": "Cerro Amachuma",
    "latitude": -18.99955,
    "longitude": -69.27458,
    "category": "Mountain",
    "subcategory": "Mountain",
    "featured": false,
    "priority": 50
  },
  {
    "geonameId": 3899851,
    "name": "Cerro Amaculla",
    "latitude": -21.02871,
    "longitude": -68.87662,
    "category": "Mountain",
    "subcategory": "Mountain",
    "featured": false,
    "priority": 50
  },
  {
    "geonameId": 11899693,
    "name": "Cerro Amargo",
    "latitude": -39.1973,
    "longitude": -71.83361,
    "category": "Mountain",
    "subcategory": "Mountain",
    "featured": false,
    "priority": 50
  },
  {
    "geonameId": 3899804,
    "name": "Cerro Amarillo",
    "latitude": -34.06667,
    "longitude": -70.26667,
    "category": "Mountain",
    "subcategory": "Mountain",
    "featured": false,
    "priority": 50
  },
  {
    "geonameId": 11233062,
    "name": "Cerro Amaro",
    "latitude": -43.56441,
    "longitude": -72.02446,
    "category": "Mountain",
    "subcategory": "Mountain",
    "featured": false,
    "priority": 50
  },
  {
    "geonameId": 3899337,
    "name": "Cerro Amazonas",
    "latitude": -24.58931,
    "longitude": -70.19197,
    "category": "Mountain",
    "subcategory": "Mountain",
    "featured": false,
    "priority": 50
  },
  {
    "geonameId": 3899785,
    "name": "Cerro Americano",
    "latitude": -45.03333,
    "longitude": -73.7,
    "category": "Mountain",
    "subcategory": "Mountain",
    "featured": false,
    "priority": 50
  },
  {
    "geonameId": 3899778,
    "name": "Cerro Amincha",
    "latitude": -21.1739,
    "longitude": -68.34918,
    "category": "Mountain",
    "subcategory": "Mountain",
    "featured": false,
    "priority": 50
  },
  {
    "geonameId": 3899768,
    "name": "Cerro Amolanas",
    "latitude": -28.03186,
    "longitude": -70.03456,
    "category": "Mountain",
    "subcategory": "Mountain",
    "featured": false,
    "priority": 50
  },
  {
    "geonameId": 3899751,
    "name": "Cerro Anacopata",
    "latitude": -18.91548,
    "longitude": -69.29392,
    "category": "Mountain",
    "subcategory": "Mountain",
    "featured": false,
    "priority": 50
  },
  {
    "geonameId": 11145778,
    "name": "Cerro Añaguaya",
    "latitude": -21.32338,
    "longitude": -68.84835,
    "category": "Mountain",
    "subcategory": "Mountain",
    "featured": false,
    "priority": 50
  },
  {
    "geonameId": 3899746,
    "name": "Cerro Anarabe",
    "latitude": -18.57233,
    "longitude": -69.39753,
    "category": "Mountain",
    "subcategory": "Mountain",
    "featured": false,
    "priority": 50
  },
  {
    "geonameId": 3899745,
    "name": "Cerro Anaranjado",
    "latitude": -26.00876,
    "longitude": -68.92026,
    "category": "Mountain",
    "subcategory": "Mountain",
    "featured": false,
    "priority": 50
  },
  {
    "geonameId": 3899744,
    "name": "Cerro Anay",
    "latitude": -37.78989,
    "longitude": -72.99815,
    "category": "Mountain",
    "subcategory": "Mountain",
    "featured": false,
    "priority": 50
  },
  {
    "geonameId": 3899737,
    "name": "Cerro Ancalle",
    "latitude": -18.55,
    "longitude": -69.28333,
    "category": "Mountain",
    "subcategory": "Mountain",
    "featured": false,
    "priority": 50
  },
  {
    "geonameId": 3899735,
    "name": "Cerro Ancapulli",
    "latitude": -38.54033,
    "longitude": -72.99754,
    "category": "Mountain",
    "subcategory": "Mountain",
    "featured": false,
    "priority": 50
  },
  {
    "geonameId": 3949122,
    "name": "Cerro Ancochaullane",
    "latitude": -17.5775,
    "longitude": -69.78583,
    "category": "Mountain",
    "subcategory": "Mountain",
    "featured": false,
    "priority": 50
  },
  {
    "geonameId": 3949089,
    "name": "Cerro Ancopujo",
    "latitude": -17.82444,
    "longitude": -69.86167,
    "category": "Mountain",
    "subcategory": "Mountain",
    "featured": false,
    "priority": 50
  },
  {
    "geonameId": 12493798,
    "name": "Cerro Anders",
    "latitude": -49.67173,
    "longitude": -73.1525,
    "category": "Mountain",
    "subcategory": "Mountain",
    "featured": false,
    "priority": 50
  },
  {
    "geonameId": 11370774,
    "name": "Cerro Andrés",
    "latitude": -46.43868,
    "longitude": -75.27302,
    "category": "Mountain",
    "subcategory": "Mountain",
    "featured": false,
    "priority": 50
  },
  {
    "geonameId": 3899658,
    "name": "Cerro Andrés Jiguata",
    "latitude": -19.80383,
    "longitude": -68.7896,
    "category": "Mountain",
    "subcategory": "Mountain",
    "featured": false,
    "priority": 50
  },
  {
    "geonameId": 3899655,
    "name": "Cerro Anec",
    "latitude": -33.10955,
    "longitude": -70.19985,
    "category": "Mountain",
    "subcategory": "Mountain",
    "featured": false,
    "priority": 50
  },
  {
    "geonameId": 3899649,
    "name": "Cerro Angamos",
    "latitude": -46.76781,
    "longitude": -74.55054,
    "category": "Mountain",
    "subcategory": "Mountain",
    "featured": false,
    "priority": 50
  },
  {
    "geonameId": 3882426,
    "name": "Cerro Ángeles",
    "latitude": -33.41883,
    "longitude": -71.34315,
    "category": "Mountain",
    "subcategory": "Mountain",
    "featured": false,
    "priority": 50
  },
  {
    "geonameId": 3899638,
    "name": "Cerro Angelino",
    "latitude": -31.97794,
    "longitude": -70.8018,
    "category": "Mountain",
    "subcategory": "Mountain",
    "featured": false,
    "priority": 50
  },
  {
    "geonameId": 3899605,
    "name": "Cerro Angostura",
    "latitude": -41.43576,
    "longitude": -72.24012,
    "category": "Mountain",
    "subcategory": "Mountain",
    "featured": false,
    "priority": 50
  },
  {
    "geonameId": 3899584,
    "name": "Cerro Anillos",
    "latitude": -19.2896,
    "longitude": -68.8058,
    "category": "Mountain",
    "subcategory": "Mountain",
    "featured": false,
    "priority": 50
  },
  {
    "geonameId": 3899579,
    "name": "Cerro Ánimas",
    "latitude": -34.98171,
    "longitude": -71.54922,
    "category": "Mountain",
    "subcategory": "Mountain",
    "featured": false,
    "priority": 50
  },
  {
    "geonameId": 3899570,
    "name": "Cerro Añique",
    "latitude": -39.63757,
    "longitude": -71.90816,
    "category": "Mountain",
    "subcategory": "Mountain",
    "featured": false,
    "priority": 50
  },
  {
    "geonameId": 11208742,
    "name": "Cerro Antivillaco",
    "latitude": -28.11729,
    "longitude": -70.01705,
    "category": "Mountain",
    "subcategory": "Mountain",
    "featured": false,
    "priority": 50
  },
  {
    "geonameId": 3899524,
    "name": "Cerro Antuco",
    "latitude": -37.4,
    "longitude": -71.33333,
    "category": "Mountain",
    "subcategory": "Mountain",
    "featured": false,
    "priority": 50
  },
  {
    "geonameId": 3899515,
    "name": "Cerro Anzuelo",
    "latitude": -20.11422,
    "longitude": -70.10244,
    "category": "Mountain",
    "subcategory": "Mountain",
    "featured": false,
    "priority": 50
  },
  {
    "geonameId": 3899509,
    "name": "Cerro Apacheta",
    "latitude": -27.84424,
    "longitude": -70.06599,
    "category": "Mountain",
    "subcategory": "Mountain",
    "featured": false,
    "priority": 50
  },
  {
    "geonameId": 3899505,
    "name": "Cerro Apacheta Choquelimpie",
    "latitude": -18.29542,
    "longitude": -69.26665,
    "category": "Mountain",
    "subcategory": "Mountain",
    "featured": false,
    "priority": 50
  },
  {
    "geonameId": 11369203,
    "name": "Cerro Aparejo",
    "latitude": -33.53812,
    "longitude": -69.99098,
    "category": "Mountain",
    "subcategory": "Mountain",
    "featured": false,
    "priority": 50
  },
  {
    "geonameId": 3899496,
    "name": "Cerro Aperreadero",
    "latitude": -28.29671,
    "longitude": -69.76488,
    "category": "Mountain",
    "subcategory": "Mountain",
    "featured": false,
    "priority": 50
  },
  {
    "geonameId": 3899478,
    "name": "Cerro Arabilla",
    "latitude": -19.23333,
    "longitude": -68.93333,
    "category": "Mountain",
    "subcategory": "Mountain",
    "featured": false,
    "priority": 50
  },
  {
    "geonameId": 11274739,
    "name": "Cerro Aragay",
    "latitude": -55.59627,
    "longitude": -67.4197,
    "category": "Mountain",
    "subcategory": "Mountain",
    "featured": false,
    "priority": 50
  },
  {
    "geonameId": 3899469,
    "name": "Cerro Araña",
    "latitude": -30.96015,
    "longitude": -70.60181,
    "category": "Mountain",
    "subcategory": "Mountain",
    "featured": false,
    "priority": 50
  },
  {
    "geonameId": 3899468,
    "name": "Cerro Arañas",
    "latitude": -34.43333,
    "longitude": -71.83333,
    "category": "Mountain",
    "subcategory": "Mountain",
    "featured": false,
    "priority": 50
  },
  {
    "geonameId": 3899456,
    "name": "Cerro Araya",
    "latitude": -32.85,
    "longitude": -70.76667,
    "category": "Mountain",
    "subcategory": "Mountain",
    "featured": false,
    "priority": 50
  },
  {
    "geonameId": 3899431,
    "name": "Cerro Árbol Seco",
    "latitude": -34.76301,
    "longitude": -71.5446,
    "category": "Mountain",
    "subcategory": "Mountain",
    "featured": false,
    "priority": 50
  },
  {
    "geonameId": 3899437,
    "name": "Cerro Arboleda",
    "latitude": -28.78576,
    "longitude": -71.06541,
    "category": "Mountain",
    "subcategory": "Mountain",
    "featured": false,
    "priority": 50
  },
  {
    "geonameId": 3899272,
    "name": "Cerro Arburo",
    "latitude": -46.76432,
    "longitude": -74.50427,
    "category": "Mountain",
    "subcategory": "Mountain",
    "featured": false,
    "priority": 50
  },
  {
    "geonameId": 3899419,
    "name": "Cerro Arco",
    "latitude": -47.27714,
    "longitude": -73.44069,
    "category": "Mountain",
    "subcategory": "Mountain",
    "featured": false,
    "priority": 50
  },
  {
    "geonameId": 3899410,
    "name": "Cerro Arena",
    "latitude": -32.5093,
    "longitude": -70.63081,
    "category": "Mountain",
    "subcategory": "Peak",
    "featured": false,
    "priority": 50
  },
  {
    "geonameId": 3899396,
    "name": "Cerro Arenales",
    "latitude": -47.18079,
    "longitude": -73.02903,
    "category": "Mountain",
    "subcategory": "Mountain",
    "featured": false,
    "priority": 50
  },
  {
    "geonameId": 11353094,
    "name": "Cerro Arenas",
    "latitude": -33.75796,
    "longitude": -70.01312,
    "category": "Mountain",
    "subcategory": "Mountain",
    "featured": false,
    "priority": 50
  },
  {
    "geonameId": 3899380,
    "name": "Cerro Arenoso",
    "latitude": -23.39666,
    "longitude": -67.49241,
    "category": "Mountain",
    "subcategory": "Mountain",
    "featured": false,
    "priority": 50
  },
  {
    "geonameId": 3899369,
    "name": "Cerro Argolla",
    "latitude": -25.5017,
    "longitude": -70.46044,
    "category": "Mountain",
    "subcategory": "Mountain",
    "featured": false,
    "priority": 50
  },
  {
    "geonameId": 3899352,
    "name": "Cerro Arintica",
    "latitude": -18.74592,
    "longitude": -69.04746,
    "category": "Mountain",
    "subcategory": "Mountain",
    "featured": false,
    "priority": 50
  },
  {
    "geonameId": 3899347,
    "name": "Cerro Ariquilda",
    "latitude": -19.63622,
    "longitude": -69.48981,
    "category": "Mountain",
    "subcategory": "Mountain",
    "featured": false,
    "priority": 50
  },
  {
    "geonameId": 3899326,
    "name": "Cerro Aroma",
    "latitude": -19.73579,
    "longitude": -68.84068,
    "category": "Mountain",
    "subcategory": "Mountain",
    "featured": false,
    "priority": 50
  },
  {
    "geonameId": 3899320,
    "name": "Cerro Arqueado de Barrera",
    "latitude": -33.21667,
    "longitude": -70.5,
    "category": "Mountain",
    "subcategory": "Mountain",
    "featured": false,
    "priority": 50
  },
  {
    "geonameId": 3899315,
    "name": "Cerro Arqueros",
    "latitude": -29.83911,
    "longitude": -70.95357,
    "category": "Mountain",
    "subcategory": "Mountain",
    "featured": false,
    "priority": 50
  },
  {
    "geonameId": 3899307,
    "name": "Cerro Arrayán",
    "latitude": -31.25997,
    "longitude": -71.2602,
    "category": "Mountain",
    "subcategory": "Mountain",
    "featured": false,
    "priority": 50
  },
  {
    "geonameId": 3899275,
    "name": "Cerro Artillero",
    "latitude": -35.37333,
    "longitude": -71.14546,
    "category": "Mountain",
    "subcategory": "Mountain",
    "featured": false,
    "priority": 50
  },
  {
    "geonameId": 12503728,
    "name": "Cerro Arturo Merino Benítez",
    "latitude": -49.72742,
    "longitude": -73.38811,
    "category": "Mountain",
    "subcategory": "Mountain",
    "featured": false,
    "priority": 50
  },
  {
    "geonameId": 12469256,
    "name": "Cerro Aspero",
    "latitude": -30.4934,
    "longitude": -70.92788,
    "category": "Mountain",
    "subcategory": "Mountain",
    "featured": false,
    "priority": 50
  },
  {
    "geonameId": 3899222,
    "name": "Cerro Áspero",
    "latitude": -44.56518,
    "longitude": -72.1508,
    "category": "Mountain",
    "subcategory": "Mountain",
    "featured": false,
    "priority": 50
  },
  {
    "geonameId": 3899217,
    "name": "Cerro Asta",
    "latitude": -32.38987,
    "longitude": -70.93252,
    "category": "Mountain",
    "subcategory": "Mountain",
    "featured": false,
    "priority": 50
  },
  {
    "geonameId": 3899214,
    "name": "Cerro Astagani",
    "latitude": -19.59826,
    "longitude": -69.28354,
    "category": "Mountain",
    "subcategory": "Mountain",
    "featured": false,
    "priority": 50
  },
  {
    "geonameId": 3899209,
    "name": "Cerro Astillas",
    "latitude": -28.27979,
    "longitude": -70.87913,
    "category": "Mountain",
    "subcategory": "Mountain",
    "featured": false,
    "priority": 50
  },
  {
    "geonameId": 11176215,
    "name": "Cerro Atahualpa",
    "latitude": -22.15677,
    "longitude": -68.94608,
    "category": "Mountain",
    "subcategory": "Mountain",
    "featured": false,
    "priority": 50
  },
  {
    "geonameId": 3899187,
    "name": "Cerro Atajaña",
    "latitude": -19.30169,
    "longitude": -70.1401,
    "category": "Mountain",
    "subcategory": "Mountain",
    "featured": false,
    "priority": 50
  },
  {
    "geonameId": 3899182,
    "name": "Cerro Atalaya",
    "latitude": -52.75127,
    "longitude": -72.68798,
    "category": "Mountain",
    "subcategory": "Mountain",
    "featured": false,
    "priority": 50
  },
  {
    "geonameId": 3899178,
    "name": "Cerro Ataúd",
    "latitude": -47.30552,
    "longitude": -72.63218,
    "category": "Mountain",
    "subcategory": "Mountain",
    "featured": false,
    "priority": 50
  },
  {
    "geonameId": 3899165,
    "name": "Cerro Atravesadero",
    "latitude": -47.46257,
    "longitude": -72.8644,
    "category": "Mountain",
    "subcategory": "Mountain",
    "featured": false,
    "priority": 50
  },
  {
    "geonameId": 3899159,
    "name": "Cerro Aucanquilcha",
    "latitude": -21.22,
    "longitude": -68.46833,
    "category": "Mountain",
    "subcategory": "Mountain",
    "featured": false,
    "priority": 50
  },
  {
    "geonameId": 3899138,
    "name": "Cerro Augusta Victoria",
    "latitude": -24.08181,
    "longitude": -69.3929,
    "category": "Mountain",
    "subcategory": "Mountain",
    "featured": false,
    "priority": 50
  },
  {
    "geonameId": 3899128,
    "name": "Cerro Auquel",
    "latitude": -35.16388,
    "longitude": -70.9852,
    "category": "Mountain",
    "subcategory": "Mountain",
    "featured": false,
    "priority": 50
  },
  {
    "geonameId": 3899124,
    "name": "Cerro Auquinco",
    "latitude": -34.7726,
    "longitude": -71.21731,
    "category": "Mountain",
    "subcategory": "Mountain",
    "featured": false,
    "priority": 50
  },
  {
    "geonameId": 3899069,
    "name": "Cerro Azabache",
    "latitude": -23.91635,
    "longitude": -69.24796,
    "category": "Mountain",
    "subcategory": "Mountain",
    "featured": false,
    "priority": 50
  },
  {
    "geonameId": 3949090,
    "name": "Cerro Azanguno",
    "latitude": -17.83861,
    "longitude": -69.88667,
    "category": "Mountain",
    "subcategory": "Mountain",
    "featured": false,
    "priority": 50
  },
  {
    "geonameId": 12493917,
    "name": "Cerro Azara",
    "latitude": -49.37833,
    "longitude": -73.12776,
    "category": "Mountain",
    "subcategory": "Mountain",
    "featured": false,
    "priority": 50
  },
  {
    "geonameId": 3899057,
    "name": "Cerro Azufre",
    "latitude": -27.30646,
    "longitude": -69.13088,
    "category": "Mountain",
    "subcategory": "Mountain",
    "featured": false,
    "priority": 50
  },
  {
    "geonameId": 8365525,
    "name": "Cerro Azufrera de Los Cuyanos",
    "latitude": -26.44932,
    "longitude": -68.73911,
    "category": "Mountain",
    "subcategory": "Mountain",
    "featured": false,
    "priority": 50
  },
  {
    "geonameId": 3899036,
    "name": "Cerro Azul",
    "latitude": -48.51539,
    "longitude": -73.16991,
    "category": "Mountain",
    "subcategory": "Mountain",
    "featured": false,
    "priority": 50
  },
  {
    "geonameId": 3899023,
    "name": "Cerro Azules",
    "latitude": -32.17542,
    "longitude": -70.47353,
    "category": "Mountain",
    "subcategory": "Mountain",
    "featured": false,
    "priority": 50
  },
  {
    "geonameId": 12468990,
    "name": "Cerro Baculomo",
    "latitude": -32.02178,
    "longitude": -70.73993,
    "category": "Mountain",
    "subcategory": "Mountain",
    "featured": false,
    "priority": 50
  },
  {
    "geonameId": 3898990,
    "name": "Cerro Bahamonde",
    "latitude": -33.11785,
    "longitude": -70.27657,
    "category": "Mountain",
    "subcategory": "Mountain",
    "featured": false,
    "priority": 50
  },
  {
    "geonameId": 3898951,
    "name": "Cerro Bajada de Lepirco",
    "latitude": -32.29389,
    "longitude": -70.75494,
    "category": "Mountain",
    "subcategory": "Peak",
    "featured": false,
    "priority": 50
  },
  {
    "geonameId": 3898922,
    "name": "Cerro Balcón",
    "latitude": -25.89401,
    "longitude": -69.90605,
    "category": "Mountain",
    "subcategory": "Mountain",
    "featured": false,
    "priority": 50
  },
  {
    "geonameId": 3898919,
    "name": "Cerro Baleadero",
    "latitude": -29.15156,
    "longitude": -70.62174,
    "category": "Mountain",
    "subcategory": "Mountain",
    "featured": false,
    "priority": 50
  },
  {
    "geonameId": 3898909,
    "name": "Cerro Ballena",
    "latitude": -51.67411,
    "longitude": -72.72804,
    "category": "Mountain",
    "subcategory": "Mountain",
    "featured": false,
    "priority": 50
  },
  {
    "geonameId": 3898888,
    "name": "Cerro Ballenato",
    "latitude": -24.02945,
    "longitude": -68.81552,
    "category": "Mountain",
    "subcategory": "Mountain",
    "featured": false,
    "priority": 50
  },
  {
    "geonameId": 3898877,
    "name": "Cerro Balmaceda",
    "latitude": -51.41976,
    "longitude": -73.19671,
    "category": "Mountain",
    "subcategory": "Mountain",
    "featured": false,
    "priority": 50
  },
  {
    "geonameId": 3898871,
    "name": "Cerro Balsas",
    "latitude": -32.66014,
    "longitude": -70.80632,
    "category": "Mountain",
    "subcategory": "Peak",
    "featured": false,
    "priority": 50
  },
  {
    "geonameId": 12468958,
    "name": "Cerro Baltazar",
    "latitude": -32.11895,
    "longitude": -70.75486,
    "category": "Mountain",
    "subcategory": "Mountain",
    "featured": false,
    "priority": 50
  },
  {
    "geonameId": 3898862,
    "name": "Cerro Bañados",
    "latitude": -46.56137,
    "longitude": -74.75369,
    "category": "Mountain",
    "subcategory": "Mountain",
    "featured": false,
    "priority": 50
  },
  {
    "geonameId": 3898851,
    "name": "Cerro Bandera",
    "latitude": -46.02216,
    "longitude": -71.8681,
    "category": "Mountain",
    "subcategory": "Mountain",
    "featured": false,
    "priority": 50
  },
  {
    "geonameId": 3898847,
    "name": "Cerro Banderita",
    "latitude": -26.89296,
    "longitude": -69.67849,
    "category": "Mountain",
    "subcategory": "Mountain",
    "featured": false,
    "priority": 50
  },
  {
    "geonameId": 3898841,
    "name": "Cerro Bandurria",
    "latitude": -23.36079,
    "longitude": -70.54773,
    "category": "Mountain",
    "subcategory": "Mountain",
    "featured": false,
    "priority": 50
  },
  {
    "geonameId": 3884615,
    "name": "Cerro Bandurrias",
    "latitude": -34.26094,
    "longitude": -71.26619,
    "category": "Mountain",
    "subcategory": "Mountain",
    "featured": false,
    "priority": 50
  },
  {
    "geonameId": 3898801,
    "name": "Cerro Baños del Azufre",
    "latitude": -35.3059,
    "longitude": -70.59175,
    "category": "Mountain",
    "subcategory": "Mountain",
    "featured": false,
    "priority": 50
  },
  {
    "geonameId": 3898774,
    "name": "Cerro Barbones",
    "latitude": -33.2,
    "longitude": -71.35,
    "category": "Mountain",
    "subcategory": "Mountain",
    "featured": false,
    "priority": 50
  },
  {
    "geonameId": 11231728,
    "name": "Cerro Bardas Negras",
    "latitude": -31.94454,
    "longitude": -70.46677,
    "category": "Mountain",
    "subcategory": "Mountain",
    "featured": false,
    "priority": 50
  },
  {
    "geonameId": 3898759,
    "name": "Cerro Bari",
    "latitude": -34.3843,
    "longitude": -71.29516,
    "category": "Mountain",
    "subcategory": "Mountain",
    "featured": false,
    "priority": 50
  },
  {
    "geonameId": 11363096,
    "name": "Cerro Barracita",
    "latitude": -32.02519,
    "longitude": -70.39573,
    "category": "Mountain",
    "subcategory": "Mountain",
    "featured": false,
    "priority": 50
  },
  {
    "geonameId": 3898743,
    "name": "Cerro Barrales",
    "latitude": -30.19585,
    "longitude": -71.33025,
    "category": "Mountain",
    "subcategory": "Mountain",
    "featured": false,
    "priority": 50
  },
  {
    "geonameId": 3864724,
    "name": "Cerro Barrancas",
    "latitude": -36.18333,
    "longitude": -70.41667,
    "category": "Mountain",
    "subcategory": "Mountain",
    "featured": false,
    "priority": 50
  },
  {
    "geonameId": 3898723,
    "name": "Cerro Barranco",
    "latitude": -20.25,
    "longitude": -68.71667,
    "category": "Mountain",
    "subcategory": "Mountain",
    "featured": false,
    "priority": 50
  },
  {
    "geonameId": 3898689,
    "name": "Cerro Barreales",
    "latitude": -34.59033,
    "longitude": -70.94542,
    "category": "Mountain",
    "subcategory": "Mountain",
    "featured": false,
    "priority": 50
  },
  {
    "geonameId": 3969795,
    "name": "Cerro Barrientos",
    "latitude": -42.61472,
    "longitude": -72.12444,
    "category": "Mountain",
    "subcategory": "Mountain",
    "featured": false,
    "priority": 50
  },
  {
    "geonameId": 3898661,
    "name": "Cerro Barros Arana",
    "latitude": -50.81565,
    "longitude": -73.35909,
    "category": "Mountain",
    "subcategory": "Mountain",
    "featured": false,
    "priority": 50
  },
  {
    "geonameId": 3898656,
    "name": "Cerro Barros Luco",
    "latitude": -43.84145,
    "longitude": -72.27748,
    "category": "Mountain",
    "subcategory": "Mountain",
    "featured": false,
    "priority": 50
  },
  {
    "geonameId": 3898650,
    "name": "Cerro Barros Negros",
    "latitude": -26.61147,
    "longitude": -69.26223,
    "category": "Mountain",
    "subcategory": "Mountain",
    "featured": false,
    "priority": 50
  },
  {
    "geonameId": 11956262,
    "name": "Cerro Bartolillo",
    "latitude": -36.08039,
    "longitude": -71.08441,
    "category": "Mountain",
    "subcategory": "Mountain",
    "featured": false,
    "priority": 50
  },
  {
    "geonameId": 11405449,
    "name": "Cerro Bastión",
    "latitude": -50.39305,
    "longitude": -73.45373,
    "category": "Mountain",
    "subcategory": "Mountain",
    "featured": false,
    "priority": 50
  },
  {
    "geonameId": 11142600,
    "name": "Cerro Batea",
    "latitude": -20.04948,
    "longitude": -68.82599,
    "category": "Mountain",
    "subcategory": "Mountain",
    "featured": false,
    "priority": 50
  },
  {
    "geonameId": 11966037,
    "name": "Cerro Batral",
    "latitude": -36.61046,
    "longitude": -72.58654,
    "category": "Mountain",
    "subcategory": "Mountain",
    "featured": false,
    "priority": 50
  },
  {
    "geonameId": 3898552,
    "name": "Cerro Bayo",
    "latitude": -32.06171,
    "longitude": -70.88495,
    "category": "Mountain",
    "subcategory": "Mountain",
    "featured": false,
    "priority": 50
  },
  {
    "geonameId": 8365441,
    "name": "Cerro Bayo Sur",
    "latitude": -24.27384,
    "longitude": -68.04889,
    "category": "Mountain",
    "subcategory": "Mountain",
    "featured": false,
    "priority": 50
  },
  {
    "geonameId": 3898547,
    "name": "Cerro Bayos",
    "latitude": -25.57246,
    "longitude": -69.23661,
    "category": "Mountain",
    "subcategory": "Mountain",
    "featured": false,
    "priority": 50
  },
  {
    "geonameId": 11193898,
    "name": "Cerro Bayos Chicos",
    "latitude": -27.90005,
    "longitude": -70.57035,
    "category": "Mountain",
    "subcategory": "Mountain",
    "featured": false,
    "priority": 50
  },
  {
    "geonameId": 3891895,
    "name": "Cerro Bayos Grandes",
    "latitude": -27.91014,
    "longitude": -70.60827,
    "category": "Mountain",
    "subcategory": "Mountain",
    "featured": false,
    "priority": 50
  },
  {
    "geonameId": 3898544,
    "name": "Cerro Bazurto",
    "latitude": -32.53324,
    "longitude": -70.75529,
    "category": "Mountain",
    "subcategory": "Peak",
    "featured": false,
    "priority": 50
  },
  {
    "geonameId": 3898516,
    "name": "Cerro Belén",
    "latitude": -18.47881,
    "longitude": -69.44313,
    "category": "Mountain",
    "subcategory": "Mountain",
    "featured": false,
    "priority": 50
  },
  {
    "geonameId": 3898470,
    "name": "Cerro Bella Vista",
    "latitude": -45.51117,
    "longitude": -71.59494,
    "category": "Mountain",
    "subcategory": "Mountain",
    "featured": false,
    "priority": 50
  },