[
  {
    "geonameId": 146841,
    "name": "Achna Reservoir",
    "latitude": 35.05324,
    "longitude": 33.81154,
    "category": "Lake",
    "subcategory": "Reservoir",
    "featured": false,
    "priority": 50
  },
  {
    "geonameId": 146357,
    "name": "Adelfoí",
    "latitude": 34.95502,
    "longitude": 32.99441,
    "category": "Mountain",
    "subcategory": "Mountain",
    "featured": false,
    "priority": 50
  },
  {
    "geonameId": 7646173,
    "name": "Adonis Baths",
    "latitude": 34.87129,
    "longitude": 32.43581,
    "category": "Waterfall",
    "subcategory": "Waterfall",
    "featured": false,
    "priority": 50
  },
  {
    "geonameId": 4904,
    "name": "Aetomoutti",
    "latitude": 34.86548,
    "longitude": 33.43282,
    "category": "Mountain",
    "subcategory": "Mountain",
    "featured": false,
    "priority": 50
  },
  {
    "geonameId": 4881,
    "name": "Aetomoutti tis Vavlas",
    "latitude": 34.81613,
    "longitude": 33.29083,
    "category": "Mountain",
    "subcategory": "Mountain",
    "featured": false,
    "priority": 50
  },
  {
    "geonameId": 12491,
    "name": "Afamis",
    "latitude": 34.85145,
    "longitude": 32.84078,
    "category": "Mountain",
    "subcategory": "Mountain",
    "featured": false,
    "priority": 50
  },
  {
    "geonameId": 12399,
    "name": "Agía",
    "latitude": 34.80979,
    "longitude": 32.93204,
    "category": "Mountain",
    "subcategory": "Mountain",
    "featured": false,
    "priority": 50
  },
  {
    "geonameId": 12488,
    "name": "Agía Paraskeví",
    "latitude": 34.87573,
    "longitude": 32.85696,
    "category": "Mountain",
    "subcategory": "Mountain",
    "featured": false,
    "priority": 50
  },
  {
    "geonameId": 12641,
    "name": "Agía Triáda",
    "latitude": 34.99653,
    "longitude": 32.79505,
    "category": "Mountain",
    "subcategory": "Mountain",
    "featured": false,
    "priority": 50
  },
  {
    "geonameId": 146732,
    "name": "Ágios Dométios",
    "latitude": 35.17346,
    "longitude": 33.34045,
    "category": "City",
    "subcategory": "City",
    "featured": false,
    "priority": 50
  },
  {
    "geonameId": 12427,
    "name": "Ágios Geórgios",
    "latitude": 34.81271,
    "longitude": 32.82535,
    "category": "Mountain",
    "subcategory": "Mountain",
    "featured": false,
    "priority": 50
  },
  {
    "geonameId": 19801,
    "name": "Ágios Iákovos",
    "latitude": 35.32383,
    "longitude": 33.80166,
    "category": "Mountain",
    "subcategory": "Mountain",
    "featured": false,
    "priority": 50
  },
  {
    "geonameId": 12606,
    "name": "Ágios Ilías",
    "latitude": 34.944,
    "longitude": 32.78979,
    "category": "Mountain",
    "subcategory": "Mountain",
    "featured": false,
    "priority": 50
  },
  {
    "geonameId": 16743,
    "name": "Ágios Ioánnis",
    "latitude": 34.86987,
    "longitude": 32.70298,
    "category": "Mountain",
    "subcategory": "Mountain",
    "featured": false,
    "priority": 50
  },
  {
    "geonameId": 146619,
    "name": "Aglantziá",
    "latitude": 35.15422,
    "longitude": 33.39643,
    "category": "City",
    "subcategory": "City",
    "featured": false,
    "priority": 50
  },
  {
    "geonameId": 12373,
    "name": "Akradies",
    "latitude": 34.75355,
    "longitude": 32.77874,
    "category": "Mountain",
    "subcategory": "Mountain",
    "featured": false,
    "priority": 50
  },
  {
    "geonameId": 16371,
    "name": "Alesto",
    "latitude": 35.03298,
    "longitude": 33.022,
    "category": "Mountain",
    "subcategory": "Mountain",
    "featured": false,
    "priority": 50
  },
  {
    "geonameId": 4814,
    "name": "Amala",
    "latitude": 34.78898,
    "longitude": 33.35658,
    "category": "Mountain",
    "subcategory": "Mountain",
    "featured": false,
    "priority": 50
  },
  {
    "geonameId": 414323,
    "name": "Ampelikoú",
    "latitude": 35.1069,
    "longitude": 32.83129,
    "category": "Lake",
    "subcategory": "Reservoir",
    "featured": false,
    "priority": 50
  },
  {
    "geonameId": 18370,
    "name": "Anemómylos",
    "latitude": 35.16312,
    "longitude": 32.57511,
    "category": "Mountain",
    "subcategory": "Mountain",
    "featured": false,
    "priority": 50
  },
  {
    "geonameId": 12095,
    "name": "Antonides",
    "latitude": 34.84948,
    "longitude": 33.19796,
    "category": "Mountain",
    "subcategory": "Mountain",
    "featured": false,
    "priority": 50
  },
  {
    "geonameId": 4961,
    "name": "Appidaki",
    "latitude": 34.93301,
    "longitude": 33.46062,
    "category": "Mountain",
    "subcategory": "Mountain",
    "featured": false,
    "priority": 50
  },
  {
    "geonameId": 146796,
    "name": "Aradíppou",
    "latitude": 34.94779,
    "longitude": 33.58813,
    "category": "City",
    "subcategory": "City",
    "featured": false,
    "priority": 50
  },
  {
    "geonameId": 12111815,
    "name": "Argaka Reservoir",
    "latitude": 35.04847,
    "longitude": 32.50314,
    "category": "Lake",
    "subcategory": "Reservoir",
    "featured": false,
    "priority": 50
  },
  {
    "geonameId": 12351,
    "name": "Arkolia",
    "latitude": 34.77796,
    "longitude": 32.91557,
    "category": "Mountain",
    "subcategory": "Mountain",
    "featured": false,
    "priority": 50
  },
  {
    "geonameId": 12139,
    "name": "Arkoliromoutti",
    "latitude": 34.85735,
    "longitude": 33.24347,
    "category": "Mountain",
    "subcategory": "Mountain",
    "featured": false,
    "priority": 50
  },
  {
    "geonameId": 5076,
    "name": "Arkoloudia",
    "latitude": 34.98946,
    "longitude": 33.26476,
    "category": "Mountain",
    "subcategory": "Mountain",
    "featured": false,
    "priority": 50
  },
  {
    "geonameId": 16931,
    "name": "Arminiatis",
    "latitude": 34.78459,
    "longitude": 32.50236,
    "category": "Mountain",
    "subcategory": "Mountain",
    "featured": false,
    "priority": 50
  },
  {
    "geonameId": 12111261,
    "name": "Arminou Reservoir",
    "latitude": 34.87727,
    "longitude": 32.73778,
    "category": "Lake",
    "subcategory": "Reservoir",
    "featured": false,
    "priority": 50
  },
  {
    "geonameId": 12036110,
    "name": "Asprokremmos Reservoir",
    "latitude": 34.73548,
    "longitude": 32.55914,
    "category": "Lake",
    "subcategory": "Reservoir",
    "featured": false,
    "priority": 50
  },
  {
    "geonameId": 20677,
    "name": "Aspros",
    "latitude": 35.02377,
    "longitude": 33.35992,
    "category": "Mountain",
    "subcategory": "Mountain",
    "featured": false,
    "priority": 50
  },
  {
    "geonameId": 12060441,
    "name": "Asprovounaro",
    "latitude": 34.85741,
    "longitude": 32.4716,
    "category": "Mountain",
    "subcategory": "Peak",
    "featured": false,
    "priority": 50
  },
  {
    "geonameId": 10645686,
    "name": "Atatürk Parkı",
    "latitude": 35.20156,
    "longitude": 32.99064,
    "category": "Park",
    "subcategory": "Park",
    "featured": false,
    "priority": 50
  },
  {
    "geonameId": 146768,
    "name": "Athíenou",
    "latitude": 35.06183,
    "longitude": 33.54166,
    "category": "City",
    "subcategory": "City",
    "featured": false,
    "priority": 50
  },
  {
    "geonameId": 16534,
    "name": "Atrátsa",
    "latitude": 35.05828,
    "longitude": 32.82399,
    "category": "Mountain",
    "subcategory": "Mountain",
    "featured": false,
    "priority": 50
  },
  {
    "geonameId": 16693,
    "name": "Axylon",
    "latitude": 34.80618,
    "longitude": 32.55669,
    "category": "Mountain",
    "subcategory": "Mountain",
    "featured": false,
    "priority": 50
  },
  {
    "geonameId": 12122210,
    "name": "Ayia Marina Reservoir",
    "latitude": 35.11721,
    "longitude": 32.5416,
    "category": "Lake",
    "subcategory": "Reservoir",
    "featured": false,
    "priority": 50
  },
  {
    "geonameId": 414557,
    "name": "Bostundere Göleti",
    "latitude": 35.32083,
    "longitude": 33.45417,
    "category": "Lake",
    "subcategory": "Reservoir",
    "featured": false,
    "priority": 50
  },
  {
    "geonameId": 414555,
    "name": "Çataldere Göleti",
    "latitude": 35.31667,
    "longitude": 33.475,
    "category": "Lake",
    "subcategory": "Reservoir",
    "featured": false,
    "priority": 50
  },
  {
    "geonameId": 12238,
    "name": "Chainátos",
    "latitude": 34.94648,
    "longitude": 33.07497,
    "category": "Mountain",
    "subcategory": "Mountain",
    "featured": false,
    "priority": 50
  },
  {
    "geonameId": 12292,
    "name": "Chaláris",
    "latitude": 34.97919,
    "longitude": 33.11422,
    "category": "Mountain",
    "subcategory": "Mountain",
    "featured": false,
    "priority": 50
  },
  {
    "geonameId": 12523,
    "name": "Chardachi",
    "latitude": 34.89476,
    "longitude": 32.94984,
    "category": "Mountain",
    "subcategory": "Mountain",
    "featured": false,
    "priority": 50
  },
  {
    "geonameId": 12480,
    "name": "Charkeia",
    "latitude": 34.83661,
    "longitude": 32.87314,
    "category": "Mountain",
    "subcategory": "Mountain",
    "featured": false,
    "priority": 50
  },
  {
    "geonameId": 4928,
    "name": "Chchinnokefalos",
    "latitude": 34.87237,
    "longitude": 33.35228,
    "category": "Mountain",
    "subcategory": "Mountain",
    "featured": false,
    "priority": 50
  },
  {
    "geonameId": 5014,
    "name": "Chchinnomoutti",
    "latitude": 34.96854,
    "longitude": 33.48446,
    "category": "Mountain",
    "subcategory": "Mountain",
    "featured": false,
    "priority": 50
  },
  {
    "geonameId": 19544,
    "name": "Chernos",
    "latitude": 35.47577,
    "longitude": 34.04586,
    "category": "Island",
    "subcategory": "Island",
    "featured": false,
    "priority": 50
  },
  {
    "geonameId": 18478,
    "name": "Chinnovounos",
    "latitude": 35.13374,
    "longitude": 32.54191,
    "category": "Mountain",
    "subcategory": "Mountain",
    "featured": false,
    "priority": 50
  },
  {
    "geonameId": 414586,
    "name": "Chinoas",
    "latitude": 34.80562,
    "longitude": 33.17429,
    "category": "Mountain",
    "subcategory": "Mountain",
    "featured": false,
    "priority": 50
  },
  {
    "geonameId": 5827,
    "name": "Chistron Vounon",
    "latitude": 34.73498,
    "longitude": 32.84488,
    "category": "Mountain",
    "subcategory": "Mountain",
    "featured": false,
    "priority": 50
  },
  {
    "geonameId": 146490,
    "name": "Chlórakas",
    "latitude": 34.79836,
    "longitude": 32.40653,
    "category": "City",
    "subcategory": "City",
    "featured": false,
    "priority": 50
  },
  {
    "geonameId": 5801,
    "name": "Chortovounos",
    "latitude": 34.72696,
    "longitude": 32.95988,
    "category": "Mountain",
    "subcategory": "Mountain",
    "featured": false,
    "priority": 50
  },
  {
    "geonameId": 146670,
    "name": "Cyprus",
    "latitude": 35.00304,
    "longitude": 32.98791,
    "category": "Island",
    "subcategory": "Island",
    "featured": false,
    "priority": 50
  },
  {
    "geonameId": 19466,
    "name": "Daimoniaris",
    "latitude": 35.55698,
    "longitude": 34.17115,
    "category": "Island",
    "subcategory": "Island",
    "featured": false,
    "priority": 50
  },
  {
    "geonameId": 146666,
    "name": "Dáli",
    "latitude": 35.02294,
    "longitude": 33.42195,
    "category": "City",
    "subcategory": "City",
    "featured": false,
    "priority": 50
  },
  {
    "geonameId": 146661,
    "name": "Derýneia",
    "latitude": 35.06484,
    "longitude": 33.96083,
    "category": "City",
    "subcategory": "City",
    "featured": false,
    "priority": 50
  },
  {
    "geonameId": 146654,
    "name": "Dhromolaxia",
    "latitude": 34.87551,
    "longitude": 33.58684,
    "category": "City",
    "subcategory": "City",
    "featured": false,
    "priority": 50
  },
  {
    "geonameId": 12036117,
    "name": "Dipotamos Reservoir",
    "latitude": 34.85487,
    "longitude": 33.3578,
    "category": "Lake",
    "subcategory": "Reservoir",
    "featured": false,
    "priority": 50
  },
  {
    "geonameId": 414554,
    "name": "Dolunay Göleti",
    "latitude": 35.32917,
    "longitude": 33.4375,
    "category": "Lake",
    "subcategory": "Reservoir",
    "featured": false,
    "priority": 50
  },
  {
    "geonameId": 146638,
    "name": "Égkomi",
    "latitude": 35.16272,
    "longitude": 33.88322,
    "category": "City",
    "subcategory": "City",
    "featured": false,
    "priority": 50
  },
  {
    "geonameId": 414564,
    "name": "Eğridere Göleti",
    "latitude": 35.29031,
    "longitude": 33.72254,
    "category": "Lake",
    "subcategory": "Reservoir",
    "featured": false,
    "priority": 50
  },
  {
    "geonameId": 12127,
    "name": "Éloros",
    "latitude": 34.8208,
    "longitude": 33.05237,
    "category": "Mountain",
    "subcategory": "Mountain",
    "featured": false,
    "priority": 50
  },
  {
    "geonameId": 146639,
    "name": "Emba",
    "latitude": 34.807,
    "longitude": 32.42406,
    "category": "City",
    "subcategory": "City",
    "featured": false,
    "priority": 50
  },
  {
    "geonameId": 15988,
    "name": "Enteálo",
    "latitude": 35.00811,
    "longitude": 33.54377,
    "category": "Mountain",
    "subcategory": "Mountain",
    "featured": false,
    "priority": 50
  },
  {
    "geonameId": 12032,
    "name": "Épilas",
    "latitude": 34.77057,
    "longitude": 33.2031,
    "category": "Mountain",
    "subcategory": "Mountain",
    "featured": false,
    "priority": 50
  },
  {
    "geonameId": 16255,
    "name": "Épsilos",
    "latitude": 35.09333,
    "longitude": 33.15479,
    "category": "Mountain",
    "subcategory": "Mountain",
    "featured": false,
    "priority": 50
  },
  {
    "geonameId": 414565,
    "name": "Ergazi Göleti",
    "latitude": 35.37149,
    "longitude": 33.94365,
    "category": "Lake",
    "subcategory": "Reservoir",
    "featured": false,
    "priority": 50
  },
  {
    "geonameId": 146623,
    "name": "Evrétou Reservoir",
    "latitude": 34.96438,
    "longitude": 32.47154,
    "category": "Lake",
    "subcategory": "Reservoir",
    "featured": false,
    "priority": 50
  },
  {
    "geonameId": 146617,
    "name": "Famagusta",
    "latitude": 35.12489,
    "longitude": 33.94135,
    "category": "City",
    "subcategory": "Regional Capital",
    "featured": false,
    "priority": 50
  },
  {
    "geonameId": 20672,
    "name": "Faraklos",
    "latitude": 35.00297,
    "longitude": 33.37361,
    "category": "Mountain",
    "subcategory": "Mountain",
    "featured": false,
    "priority": 50
  },
  {
    "geonameId": 12256,
    "name": "Fteriki",
    "latitude": 34.91667,
    "longitude": 33.00281,
    "category": "Mountain",
    "subcategory": "Mountain",
    "featured": false,
    "priority": 50
  },
  {
    "geonameId": 16584,
    "name": "Geraki",
    "latitude": 35.01296,
    "longitude": 32.77391,
    "category": "Mountain",
    "subcategory": "Mountain",
    "featured": false,
    "priority": 50
  },
  {
    "geonameId": 5056,
    "name": "Gerakies",
    "latitude": 34.95804,
    "longitude": 33.31669,
    "category": "Mountain",
    "subcategory": "Mountain",
    "featured": false,
    "priority": 50
  },
  {
    "geonameId": 16731,
    "name": "Geránia",
    "latitude": 34.83634,
    "longitude": 32.59865,
    "category": "Mountain",
    "subcategory": "Mountain",
    "featured": false,
    "priority": 50
  },
  {
    "geonameId": 145964,
    "name": "Géri",
    "latitude": 35.1056,
    "longitude": 33.41977,
    "category": "City",
    "subcategory": "City",
    "featured": false,
    "priority": 50
  },
  {
    "geonameId": 145963,
    "name": "Germasógeia",
    "latitude": 34.72073,
    "longitude": 33.08447,
    "category": "City",
    "subcategory": "City",
    "featured": false,
    "priority": 50
  },
  {
    "geonameId": 12036245,
    "name": "Germasogeia Reservoir",
    "latitude": 34.74807,
    "longitude": 33.08707,
    "category": "Lake",
    "subcategory": "Reservoir",
    "featured": false,
    "priority": 50
  },
  {
    "geonameId": 11919534,
    "name": "Geroskipou",
    "latitude": 34.76091,
    "longitude": 32.44844,
    "category": "City",
    "subcategory": "City",
    "featured": false,
    "priority": 50
  },
  {
    "geonameId": 145959,
    "name": "Geroskípou (quarter)",
    "latitude": 34.75581,
    "longitude": 32.44915,
    "category": "City",
    "subcategory": "District Seat",
    "featured": false,
    "priority": 50
  },
  {
    "geonameId": 145970,
    "name": "Giailás",
    "latitude": 35.29278,
    "longitude": 33.54507,
    "category": "Mountain",
    "subcategory": "Mountain",
    "featured": false,
    "priority": 50
  },
  {
    "geonameId": 11957,
    "name": "Glykomérsino",
    "latitude": 34.71631,
    "longitude": 32.61697,
    "category": "Mountain",
    "subcategory": "Mountain",
    "featured": false,
    "priority": 50
  },
  {
    "geonameId": 10645682,
    "name": "Güzelyurt Festival Parkı",
    "latitude": 35.20564,
    "longitude": 32.99846,
    "category": "Park",
    "subcategory": "Park",
    "featured": false,
    "priority": 50
  },
  {
    "geonameId": 10645529,
    "name": "Hamitköy Göleti",
    "latitude": 35.23689,
    "longitude": 33.36295,
    "category": "Lake",
    "subcategory": "Reservoir",
    "featured": false,
    "priority": 50
  },
  {
    "geonameId": 18378,
    "name": "Hill Top",
    "latitude": 35.14058,
    "longitude": 32.56224,
    "category": "Mountain",
    "subcategory": "Mountain",
    "featured": false,
    "priority": 50
  },
  {
    "geonameId": 10645398,
    "name": "İki Adalar",
    "latitude": 35.46184,
    "longitude": 34.01339,
    "category": "Island",
    "subcategory": "Island Group",
    "featured": false,
    "priority": 50
  },
  {
    "geonameId": 16611,
    "name": "Kafkalla",
    "latitude": 34.75599,
    "longitude": 32.67373,
    "category": "Mountain",
    "subcategory": "Mountain",
    "featured": false,
    "priority": 50
  },
  {
    "geonameId": 19670,
    "name": "Kairos",
    "latitude": 35.42437,
    "longitude": 33.97178,
    "category": "Mountain",
    "subcategory": "Mountain",
    "featured": false,
    "priority": 50
  },
  {
    "geonameId": 12036111,
    "name": "Kalavasos Reservoir",
    "latitude": 34.805,
    "longitude": 33.25923,
    "category": "Lake",
    "subcategory": "Reservoir",
    "featured": false,
    "priority": 50
  },
  {
    "geonameId": 12336,
    "name": "Kalochi",
    "latitude": 34.75392,
    "longitude": 32.99882,
    "category": "Mountain",
    "subcategory": "Mountain",
    "featured": false,
    "priority": 50
  },
  {
    "geonameId": 16881,
    "name": "Kalogyros",
    "latitude": 34.96503,
    "longitude": 32.5986,
    "category": "Mountain",
    "subcategory": "Mountain",
    "featured": false,
    "priority": 50
  },
  {
    "geonameId": 12122504,
    "name": "Kalopanagiotis Reservoir",
    "latitude": 35.00425,
    "longitude": 32.82597,
    "category": "Lake",
    "subcategory": "Reservoir",
    "featured": false,
    "priority": 50
  },
  {
    "geonameId": 16480,
    "name": "Kalyfes",
    "latitude": 35.00157,
    "longitude": 32.96807,
    "category": "Mountain",
    "subcategory": "Mountain",
    "featured": false,
    "priority": 50
  },
  {
    "geonameId": 12032431,
    "name": "Kannaviou Reservoir",
    "latitude": 34.92992,
    "longitude": 32.59082,
    "category": "Lake",
    "subcategory": "Reservoir",
    "featured": false,
    "priority": 50
  },
  {
    "geonameId": 20686,
    "name": "Kantára",
    "latitude": 35.07558,
    "longitude": 33.3433,
    "category": "Mountain",
    "subcategory": "Mountain",
    "featured": false,
    "priority": 50
  },
  {
    "geonameId": 12413,
    "name": "Kapparetí",
    "latitude": 34.7964,
    "longitude": 32.87161,
    "category": "Mountain",
    "subcategory": "Mountain",
    "featured": false,
    "priority": 50
  },
  {
    "geonameId": 5029,
    "name": "Karis",
    "latitude": 34.95882,
    "longitude": 33.39572,
    "category": "Mountain",
    "subcategory": "Mountain",
    "featured": false,
    "priority": 50
  },
  {
    "geonameId": 414013,
    "name": "Karpáseia",
    "latitude": 35.27837,
    "longitude": 33.06921,
    "category": "Mountain",
    "subcategory": "Mountain",
    "featured": false,
    "priority": 50
  },
  {
    "geonameId": 4930,
    "name": "Kasi",
    "latitude": 34.8936,
    "longitude": 33.34755,
    "category": "Mountain",
    "subcategory": "Mountain",
    "featured": false,
    "priority": 50
  },
  {
    "geonameId": 414571,
    "name": "Katarráktis Kalidonión",
    "latitude": 34.90263,
    "longitude": 32.87068,
    "category": "Waterfall",
    "subcategory": "Waterfall",
    "featured": false,
    "priority": 50
  },
  {
    "geonameId": 4990,
    "name": "Kataxylos",
    "latitude": 34.90161,
    "longitude": 33.29814,
    "category": "Mountain",
    "subcategory": "Mountain",
    "featured": false,
    "priority": 50
  },
  {
    "geonameId": 146523,
    "name": "Káto Lakatámeia",
    "latitude": 35.11755,
    "longitude": 33.32539,
    "category": "City",
    "subcategory": "County Seat",
    "featured": false,
    "priority": 50
  },
  {
    "geonameId": 146516,
    "name": "Káto Polemídia",
    "latitude": 34.69721,
    "longitude": 32.99324,
    "category": "City",
    "subcategory": "City",
    "featured": false,
    "priority": 50
  },
  {
    "geonameId": 20759,
    "name": "Katsagkása",
    "latitude": 35.03381,
    "longitude": 33.28829,
    "category": "Mountain",
    "subcategory": "Mountain",
    "featured": false,
    "priority": 50
  },
  {
    "geonameId": 19606,
    "name": "Kavallaropetra",
    "latitude": 35.42696,
    "longitude": 34.01844,
    "category": "Mountain",
    "subcategory": "Mountain",
    "featured": false,
    "priority": 50
  },
  {
    "geonameId": 19836,
    "name": "Kefales",
    "latitude": 35.36755,
    "longitude": 33.79763,
    "category": "Mountain",
    "subcategory": "Mountain",
    "featured": false,
    "priority": 50
  },
  {
    "geonameId": 20753,
    "name": "Kefalés",
    "latitude": 35.07228,
    "longitude": 33.29784,
    "category": "Mountain",
    "subcategory": "Mountain",
    "featured": false,
    "priority": 50
  },
  {
    "geonameId": 12060468,
    "name": "Kili Community Park",
    "latitude": 34.85456,
    "longitude": 32.45566,
    "category": "Park",
    "subcategory": "Park",
    "featured": false,
    "priority": 50
  },
  {
    "geonameId": 146469,
    "name": "Kíti",
    "latitude": 34.84898,
    "longitude": 33.57523,
    "category": "City",
    "subcategory": "City",
    "featured": false,
    "priority": 50
  },
  {
    "geonameId": 12122890,
    "name": "Klirou Reservoir",
    "latitude": 35.03202,
    "longitude": 33.17287,
    "category": "Lake",
    "subcategory": "Reservoir",
    "featured": false,
    "priority": 50
  },
  {
    "geonameId": 12082,
    "name": "Kokkini",
    "latitude": 34.79962,
    "longitude": 33.23298,
    "category": "Mountain",
    "subcategory": "Mountain",
    "featured": false,
    "priority": 50
  },
  {
    "geonameId": 19766,
    "name": "Kokkinolitharos",
    "latitude": 35.36727,
    "longitude": 33.83783,
    "category": "Mountain",
    "subcategory": "Mountain",
    "featured": false,
    "priority": 50
  },
  {
    "geonameId": 12499,
    "name": "Kokkinovounos",
    "latitude": 34.87419,
    "longitude": 32.81642,
    "category": "Mountain",
    "subcategory": "Mountain",
    "featured": false,
    "priority": 50
  },
  {
    "geonameId": 12141,
    "name": "Kolia",
    "latitude": 34.88628,
    "longitude": 33.24689,
    "category": "Mountain",
    "subcategory": "Mountain",
    "featured": false,
    "priority": 50
  },
  {
    "geonameId": 146452,
    "name": "Koloni",
    "latitude": 34.74858,
    "longitude": 32.46565,
    "category": "City",
    "subcategory": "District Seat",
    "featured": false,
    "priority": 50
  },
  {
    "geonameId": 146451,
    "name": "Kolossi",
    "latitude": 34.66865,
    "longitude": 32.93375,
    "category": "City",
    "subcategory": "City",
    "featured": false,
    "priority": 50
  },
  {
    "geonameId": 18390,
    "name": "Kolótas",
    "latitude": 35.089,
    "longitude": 32.58436,
    "category": "Mountain",
    "subcategory": "Mountain",
    "featured": false,
    "priority": 50
  },
  {
    "geonameId": 19903,
    "name": "Kopsári",
    "latitude": 35.33492,
    "longitude": 33.67576,
    "category": "Mountain",
    "subcategory": "Mountain",
    "featured": false,
    "priority": 50
  },
  {
    "geonameId": 16204,
    "name": "Korakas",
    "latitude": 35.0725,
    "longitude": 33.19724,
    "category": "Mountain",
    "subcategory": "Mountain",
    "featured": false,
    "priority": 50
  },
  {
    "geonameId": 5774,
    "name": "Korifi",
    "latitude": 34.743,
    "longitude": 33.09769,
    "category": "Mountain",
    "subcategory": "Mountain",
    "featured": false,
    "priority": 50
  },
  {
    "geonameId": 146439,
    "name": "Kórnos",
    "latitude": 35.32993,
    "longitude": 33.12955,
    "category": "Mountain",
    "subcategory": "Mountain",
    "featured": false,
    "priority": 50
  },
  {
    "geonameId": 16459,
    "name": "Korónia",
    "latitude": 35.09193,
    "longitude": 32.95619,
    "category": "Mountain",
    "subcategory": "Mountain",
    "featured": false,
    "priority": 50
  },
  {
    "geonameId": 12062,
    "name": "Koronos",
    "latitude": 34.78909,
    "longitude": 33.05942,
    "category": "Mountain",
    "subcategory": "Mountain",
    "featured": false,
    "priority": 50
  },
  {
    "geonameId": 12102,
    "name": "Koryfí",
    "latitude": 34.82356,
    "longitude": 33.14477,
    "category": "Mountain",
    "subcategory": "Mountain",
    "featured": false,
    "priority": 50
  },
  {
    "geonameId": 12597,
    "name": "Koukos",
    "latitude": 34.94142,
    "longitude": 32.82037,
    "category": "Mountain",
    "subcategory": "Mountain",
    "featured": false,
    "priority": 50
  },
  {
    "geonameId": 12072,
    "name": "Koumana",
    "latitude": 34.78701,
    "longitude": 33.02405,
    "category": "Mountain",
    "subcategory": "Mountain",
    "featured": false,
    "priority": 50
  },
  {
    "geonameId": 12500,
    "name": "Kountourolaona",
    "latitude": 34.83847,
    "longitude": 32.8014,
    "category": "Mountain",
    "subcategory": "Mountain",
    "featured": false,
    "priority": 50
  },
  {
    "geonameId": 12036032,
    "name": "Kouris Reservoir",
    "latitude": 34.74515,
    "longitude": 32.9237,
    "category": "Lake",
    "subcategory": "Reservoir",
    "featured": false,
    "priority": 50
  },
  {
    "geonameId": 12311,
    "name": "Kourtellorotsos",
    "latitude": 34.97111,
    "longitude": 33.03399,
    "category": "Mountain",
    "subcategory": "Mountain",
    "featured": false,
    "priority": 50
  },
  {
    "geonameId": 19467,
    "name": "Koutoullis",
    "latitude": 35.55239,
    "longitude": 34.17128,
    "category": "Island",
    "subcategory": "Island",
    "featured": false,
    "priority": 50
  },
  {
    "geonameId": 16242,
    "name": "Kreatós",
    "latitude": 35.04703,
    "longitude": 33.1399,
    "category": "Mountain",
    "subcategory": "Mountain",
    "featured": false,
    "priority": 50
  },
  {
    "geonameId": 12506,
    "name": "Kremmos tis Laonas",
    "latitude": 34.86234,
    "longitude": 32.78457,
    "category": "Mountain",
    "subcategory": "Mountain",
    "featured": false,
    "priority": 50
  },
  {
    "geonameId": 16894,
    "name": "Kykkos",
    "latitude": 34.9828,
    "longitude": 32.73132,
    "category": "Mountain",
    "subcategory": "Mountain",
    "featured": false,
    "priority": 50
  },
  {
    "geonameId": 16505,
    "name": "Kylintros",
    "latitude": 35.01964,
    "longitude": 32.9152,
    "category": "Mountain",
    "subcategory": "Mountain",
    "featured": false,
    "priority": 50
  },
  {
    "geonameId": 146417,
    "name": "Kyparissia",
    "latitude": 34.78371,
    "longitude": 33.12307,
    "category": "Mountain",
    "subcategory": "Mountain",
    "featured": false,
    "priority": 50
  },
  {
    "geonameId": 146415,
    "name": "Kyparissovouno",
    "latitude": 35.31947,
    "longitude": 33.161,
    "category": "Mountain",
    "subcategory": "Mountain",
    "featured": false,
    "priority": 50
  },
  {
    "geonameId": 146412,
    "name": "Kyrenia",
    "latitude": 35.33634,
    "longitude": 33.31729,
    "category": "City",
    "subcategory": "Regional Capital",
    "featured": false,
    "priority": 50
  },
  {
    "geonameId": 16500,
    "name": "Lachanides",
    "latitude": 35.05417,
    "longitude": 32.9,
    "category": "Mountain",
    "subcategory": "Mountain",
    "featured": false,
    "priority": 50
  },
  {
    "geonameId": 12555,
    "name": "Lakeras",
    "latitude": 34.91653,
    "longitude": 32.80565,
    "category": "Mountain",
    "subcategory": "Mountain",
    "featured": false,
    "priority": 50
  },
  {
    "geonameId": 12173,
    "name": "Laona",
    "latitude": 34.86515,
    "longitude": 33.09142,
    "category": "Mountain",
    "subcategory": "Mountain",
    "featured": false,
    "priority": 50
  },
  {
    "geonameId": 11940,
    "name": "Laóna",
    "latitude": 34.71931,
    "longitude": 32.69938,
    "category": "Mountain",
    "subcategory": "Mountain",
    "featured": false,
    "priority": 50
  },
  {
    "geonameId": 4870,
    "name": "Laona tou Mavrou",
    "latitude": 34.83554,
    "longitude": 33.33898,
    "category": "Mountain",
    "subcategory": "Mountain",
    "featured": false,
    "priority": 50
  },
  {
    "geonameId": 146403,
    "name": "Lápithos",
    "latitude": 35.33823,
    "longitude": 33.17368,
    "category": "City",
    "subcategory": "City",
    "featured": false,
    "priority": 50
  },
  {
    "geonameId": 18845,
    "name": "Lára",
    "latitude": 34.96247,
    "longitude": 32.37696,
    "category": "Mountain",
    "subcategory": "Mountain",
    "featured": false,
    "priority": 50
  },
  {
    "geonameId": 5025,
    "name": "Lariona",
    "latitude": 34.9921,
    "longitude": 33.43008,
    "category": "Mountain",
    "subcategory": "Mountain",
    "featured": false,
    "priority": 50
  },
  {
    "geonameId": 146400,
    "name": "Larnaca",
    "latitude": 34.9221,
    "longitude": 33.62794,
    "category": "City",
    "subcategory": "Regional Capital",
    "featured": false,
    "priority": 50
  },
  {
    "geonameId": 20532,
    "name": "Laxies",
    "latitude": 35.00746,
    "longitude": 33.45498,
    "category": "Mountain",
    "subcategory": "Mountain",
    "featured": false,
    "priority": 50
  },
  {
    "geonameId": 146392,
    "name": "Léfka",
    "latitude": 35.11199,
    "longitude": 32.84997,
    "category": "City",
    "subcategory": "City",
    "featured": false,
    "priority": 50
  },
  {
    "geonameId": 12036149,
    "name": "Lefkara Reservoir",
    "latitude": 34.89365,
    "longitude": 33.29322,
    "category": "Lake",
    "subcategory": "Reservoir",
    "featured": false,
    "priority": 50
  },
  {
    "geonameId": 146384,
    "name": "Limassol",
    "latitude": 34.68406,
    "longitude": 33.03794,
    "category": "City",
    "subcategory": "Regional Capital",
    "featured": false,
    "priority": 50
  },
  {
    "geonameId": 12186,
    "name": "Listis",
    "latitude": 34.87505,
    "longitude": 33.02448,
    "category": "Mountain",
    "subcategory": "Mountain",
    "featured": false,
    "priority": 50
  },
  {
    "geonameId": 146371,
    "name": "Livádia",
    "latitude": 34.95515,
    "longitude": 33.62734,
    "category": "City",
    "subcategory": "City",
    "featured": false,
    "priority": 50
  },
  {
    "geonameId": 146367,
    "name": "Loróvounos",
    "latitude": 35.14378,
    "longitude": 32.59737,
    "category": "Mountain",
    "subcategory": "Mountain",
    "featured": false,
    "priority": 50
  },
  {
    "geonameId": 146473,
    "name": "Machairás",
    "latitude": 34.91999,
    "longitude": 33.19204,
    "category": "Mountain",
    "subcategory": "Mountain",
    "featured": false,
    "priority": 50
  },
  {
    "geonameId": 414577,
    "name": "Makriá Kondárka",
    "latitude": 34.9125,
    "longitude": 32.9125,
    "category": "Mountain",
    "subcategory": "Mountain",
    "featured": false,
    "priority": 50
  },
  {
    "geonameId": 16937,
    "name": "Makrona",
    "latitude": 34.8115,
    "longitude": 32.50236,
    "category": "Mountain",
    "subcategory": "Mountain",
    "featured": false,
    "priority": 50
  },
  {
    "geonameId": 4918,
    "name": "Malia",
    "latitude": 34.89387,
    "longitude": 33.39443,
    "category": "Mountain",
    "subcategory": "Mountain",
    "featured": false,
    "priority": 50
  },
  {
    "geonameId": 146261,
    "name": "Manikis",
    "latitude": 34.88767,
    "longitude": 32.32263,
    "category": "Island",
    "subcategory": "Island",
    "featured": false,
    "priority": 50
  },
  {
    "geonameId": 12443,
    "name": "Mantra tou Tavrou",
    "latitude": 34.80393,
    "longitude": 32.75546,
    "category": "Mountain",
    "subcategory": "Mountain",
    "featured": false,
    "priority": 50
  },
  {
    "geonameId": 11954,
    "name": "Maókremmos",
    "latitude": 34.74325,
    "longitude": 32.6424,
    "category": "Mountain",
    "subcategory": "Mountain",
    "featured": false,
    "priority": 50
  },
  {
    "geonameId": 16287,
    "name": "Marína",
    "latitude": 35.22133,
    "longitude": 33.12568,
    "category": "Mountain",
    "subcategory": "Mountain",
    "featured": false,
    "priority": 50
  },
  {
    "geonameId": 19218,
    "name": "Mavri Schinia",
    "latitude": 35.04391,
    "longitude": 32.31283,
    "category": "Mountain",
    "subcategory": "Mountain",
    "featured": false,
    "priority": 50
  },
  {
    "geonameId": 12647,
    "name": "Mavrogenis",
    "latitude": 34.97567,
    "longitude": 32.76187,
    "category": "Mountain",
    "subcategory": "Mountain",
    "featured": false,
    "priority": 50
  },
  {
    "geonameId": 12111270,
    "name": "Mavrokolimpos Reservoir",
    "latitude": 34.8575,
    "longitude": 32.40865,
    "category": "Lake",
    "subcategory": "Reservoir",
    "featured": false,
    "priority": 50
  },
  {
    "geonameId": 4860,
    "name": "Mavros",
    "latitude": 34.84793,
    "longitude": 33.39067,
    "category": "Mountain",
    "subcategory": "Mountain",
    "featured": false,
    "priority": 50
  },
  {
    "geonameId": 414545,
    "name": "Mazi",
    "latitude": 34.89575,
    "longitude": 32.43912,
    "category": "Mountain",
    "subcategory": "Mountain",
    "featured": false,
    "priority": 50
  },
  {
    "geonameId": 12219,
    "name": "Megali Moutti",
    "latitude": 34.91975,
    "longitude": 33.12086,
    "category": "Mountain",
    "subcategory": "Mountain",
    "featured": false,
    "priority": 50
  },
  {
    "geonameId": 146318,
    "name": "Meládeia",
    "latitude": 34.98816,
    "longitude": 32.50665,
    "category": "City",
    "subcategory": "County Seat",
    "featured": false,
    "priority": 50
  },
  {
    "geonameId": 12367,
    "name": "Mersinia",
    "latitude": 34.76651,
    "longitude": 32.83142,
    "category": "Mountain",
    "subcategory": "Mountain",
    "featured": false,
    "priority": 50
  },
  {
    "geonameId": 414306,
    "name": "Mersinlik Göleti",
    "latitude": 35.40623,
    "longitude": 33.84343,
    "category": "Lake",
    "subcategory": "Reservoir",
    "featured": false,
    "priority": 50
  },
  {
    "geonameId": 414521,
    "name": "Mesani",
    "latitude": 34.89565,
    "longitude": 32.38232,
    "category": "Mountain",
    "subcategory": "Mountain",
    "featured": false,
    "priority": 50
  },
  {
    "geonameId": 146302,
    "name": "Messa Nisi",
    "latitude": 35.12974,
    "longitude": 33.95006,
    "category": "Island",
    "subcategory": "Island",
    "featured": false,
    "priority": 50
  },
  {
    "geonameId": 146286,
    "name": "Mórfou",
    "latitude": 35.19869,
    "longitude": 32.99338,
    "category": "City",
    "subcategory": "City",
    "featured": false,
    "priority": 50
  },
  {
    "geonameId": 12385,
    "name": "Mosfileri",
    "latitude": 34.80091,
    "longitude": 32.97823,
    "category": "Mountain",
    "subcategory": "Mountain",
    "featured": false,
    "priority": 50
  },
  {
    "geonameId": 146257,
    "name": "Mount Olympus",
    "latitude": 34.93699,
    "longitude": 32.86354,
    "category": "Mountain",
    "subcategory": "Mountain",
    "featured": false,
    "priority": 50
  },
  {
    "geonameId": 16356,
    "name": "Mouttallia ton Gerakion",
    "latitude": 35.01765,
    "longitude": 33.06893,
    "category": "Mountain",
    "subcategory": "Mountain",
    "featured": false,
    "priority": 50
  },
  {
    "geonameId": 5046,
    "name": "Mouttaria",
    "latitude": 34.95981,
    "longitude": 33.34855,
    "category": "Mountain",
    "subcategory": "Mountain",
    "featured": false,
    "priority": 50
  },
  {
    "geonameId": 16595,
    "name": "Moutti tis Pallouras",
    "latitude": 35.08882,
    "longitude": 32.7737,
    "category": "Mountain",
    "subcategory": "Mountain",
    "featured": false,
    "priority": 50
  },
  {
    "geonameId": 18273,
    "name": "Moútti tis Zoúnas",
    "latitude": 35.12255,
    "longitude": 32.70128,
    "category": "Mountain",
    "subcategory": "Mountain",
    "featured": false,
    "priority": 50
  },
  {
    "geonameId": 16780,
    "name": "Moutti ton Kofinion",
    "latitude": 34.90328,
    "longitude": 32.7328,
    "category": "Mountain",
    "subcategory": "Mountain",
    "featured": false,
    "priority": 50
  },
  {
    "geonameId": 12575,
    "name": "Moutti tou Dia",
    "latitude": 34.93535,
    "longitude": 32.95717,
    "category": "Mountain",
    "subcategory": "Mountain",
    "featured": false,
    "priority": 50
  },
  {
    "geonameId": 12604,
    "name": "Moutti tou Drakonta",
    "latitude": 34.9661,
    "longitude": 32.80414,
    "category": "Mountain",
    "subcategory": "Mountain",
    "featured": false,
    "priority": 50
  },
  {
    "geonameId": 12260,
    "name": "Moútti tou Ioannarí",
    "latitude": 34.97827,
    "longitude": 33.23241,
    "category": "Mountain",
    "subcategory": "Mountain",
    "featured": false,
    "priority": 50
  },
  {
    "geonameId": 18371,
    "name": "Moutti tou Karydakiou",
    "latitude": 35.11585,
    "longitude": 32.63102,
    "category": "Mountain",
    "subcategory": "Mountain",
    "featured": false,
    "priority": 50
  },
  {
    "geonameId": 12273,
    "name": "Moutti tou Klimatou",
    "latitude": 34.95515,
    "longitude": 33.17721,
    "category": "Mountain",
    "subcategory": "Mountain",
    "featured": false,
    "priority": 50
  },
  {
    "geonameId": 12576,
    "name": "Moutti tou Spiliou",
    "latitude": 34.9582,
    "longitude": 32.95761,
    "category": "Mountain",
    "subcategory": "Mountain",
    "featured": false,
    "priority": 50
  },
  {
    "geonameId": 18345,
    "name": "Moutti tou Vatiou",
    "latitude": 35.14504,
    "longitude": 32.67015,
    "category": "Mountain",
    "subcategory": "Mountain",
    "featured": false,
    "priority": 50
  },
  {
    "geonameId": 16853,
    "name": "Moutti tous Drimitides",
    "latitude": 34.94527,
    "longitude": 32.73433,
    "category": "Mountain",
    "subcategory": "Mountain",
    "featured": false,
    "priority": 50
  },
  {
    "geonameId": 16642,
    "name": "Mouttotegkion",
    "latitude": 34.76973,
    "longitude": 32.60301,
    "category": "Mountain",
    "subcategory": "Mountain",
    "featured": false,
    "priority": 50
  },
  {
    "geonameId": 16650,
    "name": "Mouttovouni",
    "latitude": 34.7772,
    "longitude": 32.54261,
    "category": "Mountain",
    "subcategory": "Mountain",
    "featured": false,
    "priority": 50
  },
  {
    "geonameId": 4873,
    "name": "Nemourka",
    "latitude": 34.81129,
    "longitude": 33.33379,
    "category": "Mountain",
    "subcategory": "Mountain",
    "featured": false,
    "priority": 50
  },
  {
    "geonameId": 19379,
    "name": "Nichchia",
    "latitude": 35.57959,
    "longitude": 34.28073,
    "category": "Island",
    "subcategory": "Island",
    "featured": false,
    "priority": 50
  },
  {
    "geonameId": 146268,
    "name": "Nicosia",
    "latitude": 35.17284,
    "longitude": 33.35397,
    "category": "City",
    "subcategory": "Capital",
    "featured": false,
    "priority": 50
  },
  {
    "geonameId": 19323,
    "name": "Nisi Asiro",
    "latitude": 35.58851,
    "longitude": 34.42415,
    "category": "Island",
    "subcategory": "Island",
    "featured": false,
    "priority": 50
  },
  {
    "geonameId": 145960,
    "name": "Nisí Gerónissos",
    "latitude": 34.89962,
    "longitude": 32.3117,
    "category": "Island",
    "subcategory": "Island",
    "featured": false,
    "priority": 50
  },
  {
    "geonameId": 146462,
    "name": "Nisía Kleídes",
    "latitude": 35.70623,
    "longitude": 34.60307,
    "category": "Island",
    "subcategory": "Island Group",
    "featured": false,
    "priority": 50
  },
  {
    "geonameId": 146682,
    "name": "Nisída Agíou Georgíou",
    "latitude": 35.07472,
    "longitude": 32.33413,
    "category": "Island",
    "subcategory": "Island",
    "featured": false,
    "priority": 50
  },
  {
    "geonameId": 146486,
    "name": "Nisída Chotí",
    "latitude": 35.35075,
    "longitude": 33.5474,
    "category": "Island",
    "subcategory": "Island",
    "featured": false,
    "priority": 50
  },
  {
    "geonameId": 19313,
    "name": "Nisída Gláros",
    "latitude": 35.65611,
    "longitude": 34.44376,
    "category": "Island",
    "subcategory": "Island",
    "featured": false,
    "priority": 50
  },
  {
    "geonameId": 146598,
    "name": "Nisída Glykiótissa",
    "latitude": 35.34921,
    "longitude": 33.29172,
    "category": "Island",
    "subcategory": "Island",
    "featured": false,
    "priority": 50
  },
  {
    "geonameId": 20200,
    "name": "Nisída Kalamoúlia",
    "latitude": 35.34813,
    "longitude": 33.23524,
    "category": "Island",
    "subcategory": "Island",
    "featured": false,
    "priority": 50
  },
  {
    "geonameId": 146556,
    "name": "Nisída Kannoúdia",
    "latitude": 35.03769,
    "longitude": 32.27216,
    "category": "Island",
    "subcategory": "Island",
    "featured": false,
    "priority": 50
  },
  {
    "geonameId": 19542,
    "name": "Nisída Kernádia",
    "latitude": 35.4935,
    "longitude": 34.07463,
    "category": "Island",
    "subcategory": "Island",
    "featured": false,
    "priority": 50
  },
  {
    "geonameId": 146585,
    "name": "Nisída Kíla",
    "latitude": 35.50541,
    "longitude": 34.32512,
    "category": "Island",
    "subcategory": "Island",
    "featured": false,
    "priority": 50
  },
  {
    "geonameId": 19249,
    "name": "Nisída Kióni",
    "latitude": 35.02417,
    "longitude": 32.27438,
    "category": "Island",
    "subcategory": "Island",
    "featured": false,
    "priority": 50
  },
  {
    "geonameId": 146444,
    "name": "Nisída Kóppos",
    "latitude": 35.02761,
    "longitude": 32.27973,
    "category": "Island",
    "subcategory": "Island",
    "featured": false,
    "priority": 50
  },
  {
    "geonameId": 20382,
    "name": "Nisída Kormakítis",
    "latitude": 35.40502,
    "longitude": 32.92027,
    "category": "Island",
    "subcategory": "Island",
    "featured": false,
    "priority": 50
  },
  {
    "geonameId": 19316,
    "name": "Nisída Lefkónisos",
    "latitude": 35.64762,
    "longitude": 34.42056,
    "category": "Island",
    "subcategory": "Island",
    "featured": false,
    "priority": 50
  },
  {
    "geonameId": 146321,
    "name": "Nisída Mazáki",
    "latitude": 35.11197,
    "longitude": 32.2811,
    "category": "Island",
    "subcategory": "Island",
    "featured": false,
    "priority": 50
  },
  {
    "geonameId": 19613,
    "name": "Nisída Skáles",
    "latitude": 35.47136,
    "longitude": 34.03333,
    "category": "Island",
    "subcategory": "Island",
    "featured": false,
    "priority": 50
  },
  {
    "geonameId": 146499,
    "name": "Nisída tis Chamilís",
    "latitude": 35.0838,
    "longitude": 32.30775,
    "category": "Island",
    "subcategory": "Island",
    "featured": false,
    "priority": 50
  },
  {
    "geonameId": 19291,
    "name": "Nisídes Kordýlia",
    "latitude": 35.67898,
    "longitude": 34.53309,
    "category": "Island",
    "subcategory": "Island Group",
    "featured": false,
    "priority": 50
  },
  {
    "geonameId": 19465,
    "name": "Nisídes Skaloúdia",
    "latitude": 35.5638,
    "longitude": 34.18402,
    "category": "Island",
    "subcategory": "Island Group",
    "featured": false,
    "priority": 50
  },
  {
    "geonameId": 146262,
    "name": "Nissaria",
    "latitude": 34.84636,
    "longitude": 32.37521,
    "category": "Island",
    "subcategory": "Island Group",
    "featured": false,
    "priority": 50
  },
  {
    "geonameId": 12595,
    "name": "North Shoulder",
    "latitude": 34.95594,
    "longitude": 32.85675,
    "category": "Mountain",
    "subcategory": "Mountain",
    "featured": false,
    "priority": 50
  },
  {
    "geonameId": 146258,
    "name": "Ólympos",
    "latitude": 35.35121,
    "longitude": 33.74613,
    "category": "Mountain",
    "subcategory": "Peak",
    "featured": false,
    "priority": 50
  },
  {
    "geonameId": 12023189,
    "name": "Oroklini",
    "latitude": 34.9659,
    "longitude": 33.65472,
    "category": "Lake",
    "subcategory": "Lake",
    "featured": false,
    "priority": 50
  },
  {
    "geonameId": 146246,
    "name": "Oxo Island",
    "latitude": 35.125,
    "longitude": 33.95417,
    "category": "Island",
    "subcategory": "Island",
    "featured": false,
    "priority": 50
  },
  {
    "geonameId": 5009,
    "name": "Oxys",
    "latitude": 34.93185,
    "longitude": 33.26432,
    "category": "Mountain",
    "subcategory": "Mountain",
    "featured": false,
    "priority": 50
  },
  {
    "geonameId": 19951,
    "name": "Palaiá Vrýsi",
    "latitude": 35.31201,
    "longitude": 33.59456,
    "category": "Mountain",
    "subcategory": "Mountain",
    "featured": false,
    "priority": 50
  },
  {
    "geonameId": 414736,
    "name": "Pambuli Adası",
    "latitude": 35.11806,
    "longitude": 33.9625,
    "category": "Island",
    "subcategory": "Island",
    "featured": false,
    "priority": 50
  },
  {
    "geonameId": 146232,
    "name": "Pampoulos",
    "latitude": 35.52983,
    "longitude": 34.25509,
    "category": "Mountain",
    "subcategory": "Mountain",
    "featured": false,
    "priority": 50
  },
  {
    "geonameId": 16793,
    "name": "Panagía",
    "latitude": 34.90422,
    "longitude": 32.63271,
    "category": "Mountain",
    "subcategory": "Mountain",
    "featured": false,
    "priority": 50
  },
  {
    "geonameId": 414301,
    "name": "Pánagra",
    "latitude": 35.32671,
    "longitude": 33.07503,
    "category": "Lake",
    "subcategory": "Reservoir",
    "featured": false,
    "priority": 50
  },
  {
    "geonameId": 20776,
    "name": "Páno Vounó",
    "latitude": 35.03701,
    "longitude": 33.25316,
    "category": "Mountain",
    "subcategory": "Mountain",
    "featured": false,
    "priority": 50
  },
  {
    "geonameId": 16682,
    "name": "Paoura",
    "latitude": 34.81312,
    "longitude": 32.6682,
    "category": "Mountain",
    "subcategory": "Mountain",
    "featured": false,
    "priority": 50
  },
  {
    "geonameId": 4957,
    "name": "Papalias",
    "latitude": 34.9,
    "longitude": 33.46548,
    "category": "Mountain",
    "subcategory": "Mountain",
    "featured": false,
    "priority": 50
  },
  {
    "geonameId": 414606,
    "name": "Papavounos",
    "latitude": 34.75,
    "longitude": 32.9375,
    "category": "Mountain",
    "subcategory": "Mountain",
    "featured": false,
    "priority": 50
  },
  {
    "geonameId": 146214,
    "name": "Paphos",
    "latitude": 34.77679,
    "longitude": 32.42451,
    "category": "City",
    "subcategory": "Regional Capital",
    "featured": false,
    "priority": 50
  },
  {
    "geonameId": 7626610,
    "name": "Papo Island",
    "latitude": 34.68348,
    "longitude": 32.50391,
    "category": "Island",
    "subcategory": "Island",
    "featured": false,
    "priority": 50
  },
  {
    "geonameId": 146210,
    "name": "Papoutsa",
    "latitude": 34.89968,
    "longitude": 33.05806,
    "category": "Mountain",
    "subcategory": "Mountain",
    "featured": false,
    "priority": 50
  },
  {
    "geonameId": 146209,
    "name": "Paralímni",
    "latitude": 35.03945,
    "longitude": 33.98181,
    "category": "City",
    "subcategory": "City",
    "featured": false,
    "priority": 50
  },
  {
    "geonameId": 146193,
    "name": "Pentadáktylos",
    "latitude": 35.28798,
    "longitude": 33.47194,
    "category": "Mountain",
    "subcategory": "Peak",
    "featured": false,
    "priority": 50
  },
  {
    "geonameId": 16214,
    "name": "Perátis",
    "latitude": 35.03432,
    "longitude": 33.21073,
    "category": "Mountain",
    "subcategory": "Mountain",
    "featured": false,
    "priority": 50
  },
  {
    "geonameId": 146189,
    "name": "Pérgamos",
    "latitude": 35.04167,
    "longitude": 33.70833,
    "category": "City",
    "subcategory": "County Seat",
    "featured": false,
    "priority": 50
  },
  {
    "geonameId": 18237,
    "name": "Pétra tou Limníti",
    "latitude": 35.18142,
    "longitude": 32.73811,
    "category": "Island",
    "subcategory": "Island",
    "featured": false,
    "priority": 50
  },
  {
    "geonameId": 12064,
    "name": "Petralona",
    "latitude": 34.76082,
    "longitude": 33.04583,
    "category": "Mountain",
    "subcategory": "Mountain",
    "featured": false,
    "priority": 50
  },
  {
    "geonameId": 4969,
    "name": "Pikrasidi",
    "latitude": 34.93014,
    "longitude": 33.40696,
    "category": "Mountain",
    "subcategory": "Mountain",
    "featured": false,
    "priority": 50
  },
  {
    "geonameId": 12248,
    "name": "Platys",
    "latitude": 34.92781,
    "longitude": 33.02936,
    "category": "Mountain",
    "subcategory": "Mountain",
    "featured": false,
    "priority": 50
  },
  {
    "geonameId": 146138,
    "name": "Polémi",
    "latitude": 34.88613,
    "longitude": 32.50712,
    "category": "City",
    "subcategory": "County Seat",
    "featured": false,
    "priority": 50
  },
  {
    "geonameId": 12036260,
    "name": "Polemidia Reservoir",
    "latitude": 34.7209,
    "longitude": 32.98692,
    "category": "Lake",
    "subcategory": "Reservoir",
    "featured": false,
    "priority": 50
  },
  {
    "geonameId": 16340,
    "name": "Polýkantho",
    "latitude": 35.06707,
    "longitude": 33.07359,
    "category": "Mountain",
    "subcategory": "Mountain",
    "featured": false,
    "priority": 50
  },
  {
    "geonameId": 12111816,
    "name": "Pomos Reservoir",
    "latitude": 35.14306,
    "longitude": 32.57606,
    "category": "Lake",
    "subcategory": "Reservoir",
    "featured": false,
    "priority": 50
  },
  {
    "geonameId": 12594,
    "name": "Prodromas",
    "latitude": 34.9486,
    "longitude": 32.845,
    "category": "Lake",
    "subcategory": "Reservoir",
    "featured": false,
    "priority": 50
  },
  {
    "geonameId": 5016,
    "name": "Profali",
    "latitude": 34.98105,
    "longitude": 33.49713,
    "category": "Mountain",
    "subcategory": "Mountain",
    "featured": false,
    "priority": 50
  },
  {
    "geonameId": 18307,
    "name": "Profítis Ilías",
    "latitude": 35.03312,
    "longitude": 32.72254,
    "category": "Mountain",
    "subcategory": "Mountain",
    "featured": false,
    "priority": 50
  },
  {
    "geonameId": 18918,
    "name": "Protaras",
    "latitude": 35.0125,
    "longitude": 34.05833,
    "category": "City",
    "subcategory": "City",
    "featured": false,
    "priority": 50
  },
  {
    "geonameId": 16514,
    "name": "Pyrgomoutti",
    "latitude": 35.00239,
    "longitude": 32.84759,
    "category": "Mountain",
    "subcategory": "Mountain",
    "featured": false,
    "priority": 50
  },
  {
    "geonameId": 20761,
    "name": "Pyrós",
    "latitude": 35.00621,
    "longitude": 33.32094,
    "category": "Mountain",
    "subcategory": "Mountain",
    "featured": false,
    "priority": 50
  },
  {
    "geonameId": 146105,
    "name": "Rizokárpaso",
    "latitude": 35.59719,
    "longitude": 34.37916,
    "category": "City",
    "subcategory": "City",
    "featured": false,
    "priority": 50
  },
  {
    "geonameId": 16964,
    "name": "Rocky Ridge",
    "latitude": 34.98742,
    "longitude": 32.51645,
    "category": "Mountain",
    "subcategory": "Mountain",
    "featured": false,
    "priority": 50
  },
  {
    "geonameId": 5830,
    "name": "Rofesia",
    "latitude": 34.71871,
    "longitude": 32.83081,
    "category": "Mountain",
    "subcategory": "Mountain",
    "featured": false,
    "priority": 50
  },
  {
    "geonameId": 16628,
    "name": "Rok Dorá",
    "latitude": 34.77573,
    "longitude": 32.72893,
    "category": "Mountain",
    "subcategory": "Mountain",
    "featured": false,
    "priority": 50
  },
  {
    "geonameId": 12560,
    "name": "Roskolos",
    "latitude": 34.9078,
    "longitude": 32.7725,
    "category": "Mountain",
    "subcategory": "Mountain",
    "featured": false,
    "priority": 50
  },
  {
    "geonameId": 11669560,
    "name": "Sculpture Park",
    "latitude": 34.98549,
    "longitude": 34.01796,
    "category": "Park",
    "subcategory": "Park",
    "featured": false,
    "priority": 50
  },
  {
    "geonameId": 414459,
    "name": "Sendarlı Göleti",
    "latitude": 35.24583,
    "longitude": 33.58333,
    "category": "Lake",
    "subcategory": "Reservoir",
    "featured": false,
    "priority": 50
  },
  {
    "geonameId": 414558,
    "name": "Serdarlı Göleti",
    "latitude": 35.25065,
    "longitude": 33.57867,
    "category": "Lake",
    "subcategory": "Reservoir",
    "featured": false,
    "priority": 50
  },
  {
    "geonameId": 5818,
    "name": "Sikouestia",
    "latitude": 34.72306,
    "longitude": 32.8871,
    "category": "Mountain",
    "subcategory": "Mountain",
    "featured": false,
    "priority": 50
  },
  {
    "geonameId": 146080,
    "name": "Sina Oros",
    "latitude": 35.39445,
    "longitude": 33.84023,
    "category": "Mountain",
    "subcategory": "Mountain",
    "featured": false,
    "priority": 50
  },
  {
    "geonameId": 414302,
    "name": "Şirinevler Göleti",
    "latitude": 35.26205,
    "longitude": 33.17078,
    "category": "Lake",
    "subcategory": "Reservoir",
    "featured": false,
    "priority": 50
  },
  {
    "geonameId": 19469,
    "name": "Skamni",
    "latitude": 35.54368,
    "longitude": 34.16553,
    "category": "Island",
    "subcategory": "Island",
    "featured": false,
    "priority": 50
  },
  {
    "geonameId": 12265,
    "name": "Skordokefalos",
    "latitude": 34.95103,
    "longitude": 33.21672,
    "category": "Mountain",
    "subcategory": "Mountain",
    "featured": false,
    "priority": 50
  },
  {
    "geonameId": 12122752,
    "name": "Solea Reservoir",
    "latitude": 35.06679,
    "longitude": 32.90289,
    "category": "Lake",
    "subcategory": "Reservoir",
    "featured": false,
    "priority": 50
  },
  {
    "geonameId": 12540,
    "name": "South Shoulder",
    "latitude": 34.90296,
    "longitude": 32.87909,
    "category": "Mountain",
    "subcategory": "Mountain",
    "featured": false,
    "priority": 50
  },
  {
    "geonameId": 12622,
    "name": "Staoudies",
    "latitude": 34.97656,
    "longitude": 32.89992,
    "category": "Mountain",
    "subcategory": "Mountain",
    "featured": false,
    "priority": 50
  },
  {
    "geonameId": 12164,
    "name": "Stavropefkos",
    "latitude": 34.88489,
    "longitude": 33.13279,
    "category": "Mountain",
    "subcategory": "Mountain",
    "featured": false,
    "priority": 50
  },
  {
    "geonameId": 12353,
    "name": "Stites",
    "latitude": 34.75623,
    "longitude": 32.89814,
    "category": "Mountain",
    "subcategory": "Mountain",
    "featured": false,
    "priority": 50
  },
  {
    "geonameId": 146054,
    "name": "Stróvolos",
    "latitude": 35.14867,
    "longitude": 33.33384,
    "category": "City",
    "subcategory": "County Seat",
    "featured": false,
    "priority": 50
  },
  {
    "geonameId": 12122640,
    "name": "Tamasos Reservoir",
    "latitude": 35.01403,
    "longitude": 33.24777,
    "category": "Lake",
    "subcategory": "Reservoir",
    "featured": false,
    "priority": 50
  },
  {
    "geonameId": 10645406,
    "name": "Taş Adası",
    "latitude": 35.69835,
    "longitude": 34.59715,
    "category": "Island",
    "subcategory": "Island",
    "featured": false,
    "priority": 50
  },
  {
    "geonameId": 18838,
    "name": "Teratsokambos",
    "latitude": 34.99492,
    "longitude": 32.4168,
    "category": "Mountain",
    "subcategory": "Mountain",
    "featured": false,
    "priority": 50
  },
  {
    "geonameId": 12434,
    "name": "Tofoulia",
    "latitude": 34.78274,
    "longitude": 32.78922,
    "category": "Mountain",
    "subcategory": "Mountain",
    "featured": false,
    "priority": 50
  },
  {
    "geonameId": 18734,
    "name": "Trapezítis",
    "latitude": 34.9409,
    "longitude": 32.49286,
    "category": "Mountain",
    "subcategory": "Mountain",
    "featured": false,
    "priority": 50
  },
  {
    "geonameId": 18322,
    "name": "Tripylos",
    "latitude": 35.00452,
    "longitude": 32.70256,
    "category": "Mountain",
    "subcategory": "Mountain",
    "featured": false,
    "priority": 50
  },
  {
    "geonameId": 146018,
    "name": "Tróodos",
    "latitude": 34.92344,
    "longitude": 32.8805,
    "category": "City",
    "subcategory": "County Seat",
    "featured": false,
    "priority": 50
  },
  {
    "geonameId": 12456,
    "name": "Troumithos",
    "latitude": 34.86495,
    "longitude": 32.96256,
    "category": "Mountain",
    "subcategory": "Mountain",
    "featured": false,
    "priority": 50
  },
  {
    "geonameId": 146014,
    "name": "Trypa tou Vounou",
    "latitude": 35.29529,
    "longitude": 33.33734,
    "category": "Mountain",
    "subcategory": "Peak",
    "featured": false,
    "priority": 50
  },
  {
    "geonameId": 12060431,
    "name": "Tsada - Tremithousa - Tala (Borders)",
    "latitude": 34.8343,
    "longitude": 32.45363,
    "category": "City",
    "subcategory": "District Seat",
    "featured": false,
    "priority": 50
  },
  {
    "geonameId": 12076790,
    "name": "Tsada Community Park",
    "latitude": 34.84,
    "longitude": 32.473,
    "category": "Park",
    "subcategory": "Park",
    "featured": false,
    "priority": 50
  },
  {
    "geonameId": 12122980,
    "name": "Tsakistra Resevoir",
    "latitude": 35.02339,
    "longitude": 32.70275,
    "category": "Lake",
    "subcategory": "Reservoir",
    "featured": false,
    "priority": 50
  },
  {
    "geonameId": 145981,
    "name": "Tséri",
    "latitude": 35.07307,
    "longitude": 33.32344,
    "category": "City",
    "subcategory": "City",
    "featured": false,
    "priority": 50
  },
  {
    "geonameId": 414546,
    "name": "Tsiárta",
    "latitude": 34.84103,
    "longitude": 32.456,
    "category": "Mountain",
    "subcategory": "Mountain",
    "featured": false,
    "priority": 50
  },
  {
    "geonameId": 5073,
    "name": "Tyranos",
    "latitude": 34.95822,
    "longitude": 33.26185,
    "category": "Mountain",
    "subcategory": "Mountain",
    "featured": false,
    "priority": 50
  },
  {
    "geonameId": 414553,
    "name": "Uzundere Göleti",
    "latitude": 35.325,
    "longitude": 33.425,
    "category": "Lake",
    "subcategory": "Reservoir",
    "featured": false,
    "priority": 50
  },
  {
    "geonameId": 11938,
    "name": "Varvakies",
    "latitude": 34.69987,
    "longitude": 32.68581,
    "category": "Mountain",
    "subcategory": "Mountain",
    "featured": false,
    "priority": 50
  },
  {
    "geonameId": 18839,
    "name": "Vlampouros",
    "latitude": 34.99117,
    "longitude": 32.34812,
    "category": "Mountain",
    "subcategory": "Mountain",
    "featured": false,
    "priority": 50
  },
  {
    "geonameId": 16157,
    "name": "Vlokkaria",
    "latitude": 35.08958,
    "longitude": 33.2497,
    "category": "Mountain",
    "subcategory": "Mountain",
    "featured": false,
    "priority": 50
  },
  {
    "geonameId": 15989,
    "name": "Vougies",
    "latitude": 35.01283,
    "longitude": 33.51411,
    "category": "Mountain",
    "subcategory": "Mountain",
    "featured": false,
    "priority": 50
  },
  {
    "geonameId": 19163,
    "name": "Vouni",
    "latitude": 35.02094,
    "longitude": 32.47951,
    "category": "Mountain",
    "subcategory": "Mountain",
    "featured": false,
    "priority": 50
  },
  {
    "geonameId": 16228,
    "name": "Vourniá",
    "latitude": 35.00139,
    "longitude": 33.17522,
    "category": "Mountain",
    "subcategory": "Mountain",
    "featured": false,
    "priority": 50
  },
  {
    "geonameId": 4992,
    "name": "Vulture Point",
    "latitude": 34.92132,
    "longitude": 33.31457,
    "category": "Mountain",
    "subcategory": "Mountain",
    "featured": false,
    "priority": 50
  },
  {
    "geonameId": 5021,
    "name": "Vyzakeri",
    "latitude": 34.95814,
    "longitude": 33.43299,
    "category": "Mountain",
    "subcategory": "Mountain",
    "featured": false,
    "priority": 50
  },
  {
    "geonameId": 16380,
    "name": "Vyzakiá",
    "latitude": 35.08108,
    "longitude": 33.02405,
    "category": "Mountain",
    "subcategory": "Mountain",
    "featured": false,
    "priority": 50
  },
  {
    "geonameId": 12122276,
    "name": "Vyzakia Reservoir",
    "latitude": 35.06186,
    "longitude": 33.02901,
    "category": "Lake",
    "subcategory": "Reservoir",
    "featured": false,
    "priority": 50
  },
  {
    "geonameId": 6697130,
    "name": "WaterWorld Water Park",
    "latitude": 34.98601,
    "longitude": 33.9432,
    "category": "Park",
    "subcategory": "Park",
    "featured": false,
    "priority": 50
  },
  {
    "geonameId": 414576,
    "name": "West Shoulder",
    "latitude": 34.92524,
    "longitude": 32.84331,
    "category": "Mountain",
    "subcategory": "Mountain",
    "featured": false,
    "priority": 50
  },
  {
    "geonameId": 11913,
    "name": "White Promontory",
    "latitude": 34.68108,
    "longitude": 32.64158,
    "category": "Mountain",
    "subcategory": "Mountain",
    "featured": false,
    "priority": 50
  },
  {
    "geonameId": 414568,
    "name": "Xeros Potamos",
    "latitude": 34.73333,
    "longitude": 32.5625,
    "category": "Lake",
    "subcategory": "Reservoir",
    "featured": false,
    "priority": 50
  },
  {
    "geonameId": 12479,
    "name": "Xilimpos",
    "latitude": 34.86247,
    "longitude": 32.88772,
    "category": "Mountain",
    "subcategory": "Mountain",
    "featured": false,
    "priority": 50
  },
  {
    "geonameId": 145974,
    "name": "Xyliás",
    "latitude": 34.93691,
    "longitude": 33.37726,
    "category": "Mountain",
    "subcategory": "Mountain",
    "featured": false,
    "priority": 50
  },
  {
    "geonameId": 12122502,
    "name": "Xyliatos Reservoir",
    "latitude": 35.00771,
    "longitude": 33.03692,
    "category": "Lake",
    "subcategory": "Reservoir",
    "featured": false,
    "priority": 50
  },
  {
    "geonameId": 145972,
    "name": "Xylofágou",
    "latitude": 34.97743,
    "longitude": 33.84894,
    "category": "City",
    "subcategory": "City",
    "featured": false,
    "priority": 50
  },
  {
    "geonameId": 414305,
    "name": "Yalısu Göleti",
    "latitude": 35.39722,
    "longitude": 33.74583,
    "category": "Lake",
    "subcategory": "Reservoir",
    "featured": false,
    "priority": 50
  },
  {
    "geonameId": 146048,
    "name": "Ydatodexamení Sýgkrasis",
    "latitude": 35.28064,
    "longitude": 33.84975,
    "category": "Lake",
    "subcategory": "Reservoir",
    "featured": false,
    "priority": 50
  },
  {
    "geonameId": 145952,
    "name": "Ýpsonas",
    "latitude": 34.68797,
    "longitude": 32.96191,
    "category": "City",
    "subcategory": "City",
    "featured": false,
    "priority": 50
  },
  {
    "geonameId": 145949,
    "name": "Zacharoú",
    "latitude": 35.0478,
    "longitude": 32.62169,
    "category": "Mountain",
    "subcategory": "Mountain",
    "featured": false,
    "priority": 50
  },
  {
    "geonameId": 19416,
    "name": "Zygós",
    "latitude": 35.5298,
    "longitude": 34.23423,
    "category": "Mountain",
    "subcategory": "Mountain",
    "featured": false,
    "priority": 50
  },
  {
    "geonameId": 19935,
    "name": "Zygovounos",
    "latitude": 35.32326,
    "longitude": 33.62707,
    "category": "Mountain",
    "subcategory": "Mountain",
    "featured": false,
    "priority": 50
  }
]