[
  {
    "geonameId": 3225134,
    "name": "Aabachtalsperre",
    "latitude": 51.49137,
    "longitude": 8.73429,
    "category": "Lake",
    "subcategory": "Reservoir",
    "featured": false,
    "priority": 50
  },
  {
    "geonameId": 2959944,
    "name": "Aach",
    "latitude": 49.78333,
    "longitude": 6.6,
    "category": "City",
    "subcategory": "Local Seat",
    "featured": false,
    "priority": 50
  },
  {
    "geonameId": 3247449,
    "name": "Aachen",
    "latitude": 50.77664,
    "longitude": 6.08342,
    "category": "City",
    "subcategory": "District Seat",
    "featured": false,
    "priority": 50
  },
  {
    "geonameId": 2959927,
    "name": "Aalen",
    "latitude": 48.83777,
    "longitude": 10.0933,
    "category": "City",
    "subcategory": "District Seat",
    "featured": false,
    "priority": 50
  },
  {
    "geonameId": 2959926,
    "name": "Aalkasten",
    "latitude": 52.43762,
    "longitude": 14.45543,
    "category": "Lake",
    "subcategory": "Lake",
    "featured": false,
    "priority": 50
  },
  {
    "geonameId": 2959924,
    "name": "Aalkistensee",
    "latitude": 48.99368,
    "longitude": 8.75979,
    "category": "Lake",
    "subcategory": "Lake",
    "featured": false,
    "priority": 50
  },
  {
    "geonameId": 2959908,
    "name": "Aasbüttel",
    "latitude": 54.06747,
    "longitude": 9.44196,
    "category": "City",
    "subcategory": "Local Seat",
    "featured": false,
    "priority": 50
  },
  {
    "geonameId": 2959907,
    "name": "Aasee",
    "latitude": 51.95284,
    "longitude": 7.60752,
    "category": "Lake",
    "subcategory": "Lake",
    "featured": false,
    "priority": 50
  },
  {
    "geonameId": 2959904,
    "name": "Aassee",
    "latitude": 54.50257,
    "longitude": 9.95,
    "category": "Lake",
    "subcategory": "Lake",
    "featured": false,
    "priority": 50
  },
  {
    "geonameId": 2959879,
    "name": "Abbenstein",
    "latitude": 51.81329,
    "longitude": 10.56213,
    "category": "Mountain",
    "subcategory": "Mountain",
    "featured": false,
    "priority": 50
  },
  {
    "geonameId": 2959855,
    "name": "Abenberg",
    "latitude": 49.24282,
    "longitude": 10.96401,
    "category": "City",
    "subcategory": "City",
    "featured": false,
    "priority": 50
  },
  {
    "geonameId": 8436114,
    "name": "Abendsberg",
    "latitude": 50.69934,
    "longitude": 9.93615,
    "category": "Mountain",
    "subcategory": "Mountain",
    "featured": false,
    "priority": 50
  },
  {
    "geonameId": 2959842,
    "name": "Abensberg",
    "latitude": 48.81684,
    "longitude": 11.8498,
    "category": "City",
    "subcategory": "City",
    "featured": false,
    "priority": 50
  },
  {
    "geonameId": 2959841,
    "name": "Abentheuer",
    "latitude": 49.65,
    "longitude": 7.1,
    "category": "City",
    "subcategory": "Local Seat",
    "featured": false,
    "priority": 50
  },
  {
    "geonameId": 2959818,
    "name": "Ableitenalpe",
    "latitude": 47.63489,
    "longitude": 11.78459,
    "category": "Mountain",
    "subcategory": "Mountain",
    "featured": false,
    "priority": 50
  },
  {
    "geonameId": 7667913,
    "name": "Absbachhöhe",
    "latitude": 48.43126,
    "longitude": 8.2833,
    "category": "Mountain",
    "subcategory": "Mountain",
    "featured": false,
    "priority": 50
  },
  {
    "geonameId": 2959793,
    "name": "Abstatt",
    "latitude": 49.0682,
    "longitude": 9.2907,
    "category": "City",
    "subcategory": "Local Seat",
    "featured": false,
    "priority": 50
  },
  {
    "geonameId": 2959773,
    "name": "Abtsbessingen",
    "latitude": 51.26141,
    "longitude": 10.7628,
    "category": "City",
    "subcategory": "Local Seat",
    "featured": false,
    "priority": 50
  },
  {
    "geonameId": 2959768,
    "name": "Abtsdorfer See",
    "latitude": 47.91002,
    "longitude": 12.90696,
    "category": "Lake",
    "subcategory": "Lake",
    "featured": false,
    "priority": 50
  },
  {
    "geonameId": 2959766,
    "name": "Abtsgmünd",
    "latitude": 48.89503,
    "longitude": 10.00172,
    "category": "City",
    "subcategory": "Local Seat",
    "featured": false,
    "priority": 50
  },
  {
    "geonameId": 2959760,
    "name": "Abtskopf",
    "latitude": 49.13573,
    "longitude": 7.96045,
    "category": "Mountain",
    "subcategory": "Mountain",
    "featured": false,
    "priority": 50
  },
  {
    "geonameId": 2959747,
    "name": "Abtweiler",
    "latitude": 49.75,
    "longitude": 7.65,
    "category": "City",
    "subcategory": "Local Seat",
    "featured": false,
    "priority": 50
  },
  {
    "geonameId": 13521973,
    "name": "Accumer See",
    "latitude": 53.54175,
    "longitude": 8.00132,
    "category": "Lake",
    "subcategory": "Lake",
    "featured": false,
    "priority": 50
  },
  {
    "geonameId": 2959718,
    "name": "Achalm",
    "latitude": 48.49434,
    "longitude": 9.24422,
    "category": "Mountain",
    "subcategory": "Mountain",
    "featured": false,
    "priority": 50
  },
  {
    "geonameId": 8693240,
    "name": "Achelter",
    "latitude": 50.25038,
    "longitude": 6.54749,
    "category": "Mountain",
    "subcategory": "Mountain",
    "featured": false,
    "priority": 50
  },
  {
    "geonameId": 2959691,
    "name": "Achenkopf",
    "latitude": 47.70155,
    "longitude": 12.95296,
    "category": "Mountain",
    "subcategory": "Peak",
    "featured": false,
    "priority": 50
  },
  {
    "geonameId": 2959686,
    "name": "Achern",
    "latitude": 48.63115,
    "longitude": 8.07607,
    "category": "City",
    "subcategory": "City",
    "featured": false,
    "priority": 50
  },
  {
    "geonameId": 2959681,
    "name": "Achim",
    "latitude": 53.01416,
    "longitude": 9.0263,
    "category": "City",
    "subcategory": "City",
    "featured": false,
    "priority": 50
  },
  {
    "geonameId": 2959668,
    "name": "Achsel",
    "latitude": 47.4922,
    "longitude": 10.37135,
    "category": "Mountain",
    "subcategory": "Mountain",
    "featured": false,
    "priority": 50
  },
  {
    "geonameId": 2959665,
    "name": "Achselkopf",
    "latitude": 47.58973,
    "longitude": 11.61654,
    "category": "Mountain",
    "subcategory": "Mountain",
    "featured": false,
    "priority": 50
  },
  {
    "geonameId": 6940072,
    "name": "Achselköpfe",
    "latitude": 47.65306,
    "longitude": 11.48611,
    "category": "Mountain",
    "subcategory": "Peak",
    "featured": false,
    "priority": 50
  },
  {
    "geonameId": 2959660,
    "name": "Achslach",
    "latitude": 48.97171,
    "longitude": 12.93511,
    "category": "City",
    "subcategory": "Local Seat",
    "featured": false,
    "priority": 50
  },
  {
    "geonameId": 2959659,
    "name": "Achstetten",
    "latitude": 48.25886,
    "longitude": 9.89748,
    "category": "City",
    "subcategory": "Local Seat",
    "featured": false,
    "priority": 50
  },
  {
    "geonameId": 2959658,
    "name": "Acht",
    "latitude": 50.36667,
    "longitude": 7.06667,
    "category": "City",
    "subcategory": "Local Seat",
    "featured": false,
    "priority": 50
  },
  {
    "geonameId": 2959655,
    "name": "Achtelsbach",
    "latitude": 49.62535,
    "longitude": 7.08995,
    "category": "City",
    "subcategory": "Local Seat",
    "featured": false,
    "priority": 50
  },
  {
    "geonameId": 13550688,
    "name": "Achterdieksee",
    "latitude": 53.08034,
    "longitude": 8.92001,
    "category": "Lake",
    "subcategory": "Lake",
    "featured": false,
    "priority": 50
  },
  {
    "geonameId": 2959639,
    "name": "Achtermannshöhe",
    "latitude": 51.76087,
    "longitude": 10.56908,
    "category": "Mountain",
    "subcategory": "Mountain",
    "featured": false,
    "priority": 50
  },
  {
    "geonameId": 2959628,
    "name": "Achterwehr",
    "latitude": 54.31318,
    "longitude": 9.9661,
    "category": "City",
    "subcategory": "Local Seat",
    "featured": false,
    "priority": 50
  },
  {
    "geonameId": 2959621,
    "name": "Achtrup",
    "latitude": 54.79053,
    "longitude": 9.02848,
    "category": "City",
    "subcategory": "Local Seat",
    "featured": false,
    "priority": 50
  },
  {
    "geonameId": 2959553,
    "name": "Adelberg",
    "latitude": 48.76227,
    "longitude": 9.59991,
    "category": "City",
    "subcategory": "Local Seat",
    "featured": false,
    "priority": 50
  },
  {
    "geonameId": 2959548,
    "name": "Adelebsen",
    "latitude": 51.58272,
    "longitude": 9.75461,
    "category": "City",
    "subcategory": "Local Seat",
    "featured": false,
    "priority": 50
  },
  {
    "geonameId": 2959538,
    "name": "Adelheidsdorf",
    "latitude": 52.56404,
    "longitude": 10.06039,
    "category": "City",
    "subcategory": "Local Seat",
    "featured": false,
    "priority": 50
  },
  {
    "geonameId": 2959530,
    "name": "Adelmannsfelden",
    "latitude": 48.95476,
    "longitude": 10.00466,
    "category": "City",
    "subcategory": "Local Seat",
    "featured": false,
    "priority": 50
  },
  {
    "geonameId": 2959516,
    "name": "Adelschlag",
    "latitude": 48.84025,
    "longitude": 11.21913,
    "category": "City",
    "subcategory": "Local Seat",
    "featured": false,
    "priority": 50
  },
  {
    "geonameId": 2959513,
    "name": "Adelsdorf",
    "latitude": 49.71216,
    "longitude": 10.895,
    "category": "City",
    "subcategory": "Local Seat",
    "featured": false,
    "priority": 50
  },
  {
    "geonameId": 2959508,
    "name": "Adelsheim",
    "latitude": 49.4015,
    "longitude": 9.3925,
    "category": "City",
    "subcategory": "City",
    "featured": false,
    "priority": 50
  },
  {
    "geonameId": 2959502,
    "name": "Adelshofen",
    "latitude": 49.43333,
    "longitude": 10.16667,
    "category": "City",
    "subcategory": "Local Seat",
    "featured": false,
    "priority": 50
  },
  {
    "geonameId": 11523416,
    "name": "Adelsholz",
    "latitude": 49.96765,
    "longitude": 11.0825,
    "category": "Mountain",
    "subcategory": "Mountain",
    "featured": false,
    "priority": 50
  },
  {
    "geonameId": 2959498,
    "name": "Adelsried",
    "latitude": 48.42465,
    "longitude": 10.71828,
    "category": "City",
    "subcategory": "Local Seat",
    "featured": false,
    "priority": 50
  },
  {
    "geonameId": 2959492,
    "name": "Adelzhausen",
    "latitude": 48.35671,
    "longitude": 11.13851,
    "category": "City",
    "subcategory": "Local Seat",
    "featured": false,
    "priority": 50
  },
  {
    "geonameId": 2959486,
    "name": "Adenbach",
    "latitude": 49.66667,
    "longitude": 7.65,
    "category": "City",
    "subcategory": "Local Seat",
    "featured": false,
    "priority": 50
  },
  {
    "geonameId": 2959485,
    "name": "Adenberg",
    "latitude": 51.88803,
    "longitude": 10.49144,
    "category": "Mountain",
    "subcategory": "Mountain",
    "featured": false,
    "priority": 50
  },
  {
    "geonameId": 2959482,
    "name": "Adenbüttel",
    "latitude": 52.37984,
    "longitude": 10.45079,
    "category": "City",
    "subcategory": "Local Seat",
    "featured": false,
    "priority": 50
  },
  {
    "geonameId": 2959479,
    "name": "Adendorf",
    "latitude": 53.28189,
    "longitude": 10.43787,
    "category": "City",
    "subcategory": "Local Seat",
    "featured": false,
    "priority": 50
  },
  {
    "geonameId": 2959475,
    "name": "Adenstedt",
    "latitude": 51.99852,
    "longitude": 9.93516,
    "category": "City",
    "subcategory": "Local Seat",
    "featured": false,
    "priority": 50
  },
  {
    "geonameId": 2959450,
    "name": "Adlerkopf",
    "latitude": 47.69521,
    "longitude": 12.66785,
    "category": "Mountain",
    "subcategory": "Peak",
    "featured": false,
    "priority": 50
  },
  {
    "geonameId": 2959437,
    "name": "Adlerstein",
    "latitude": 50.69914,
    "longitude": 13.1634,
    "category": "Mountain",
    "subcategory": "Mountain",
    "featured": false,
    "priority": 50
  },
  {
    "geonameId": 2959422,
    "name": "Adlkofen",
    "latitude": 48.55,
    "longitude": 12.26667,
    "category": "City",
    "subcategory": "Local Seat",
    "featured": false,
    "priority": 50
  },
  {
    "geonameId": 2959390,
    "name": "Adorf",
    "latitude": 50.32011,
    "longitude": 12.25986,
    "category": "City",
    "subcategory": "City",
    "featured": false,
    "priority": 50
  },
  {
    "geonameId": 2959779,
    "name": "Aebtissinwisch",
    "latitude": 53.96723,
    "longitude": 9.28865,
    "category": "City",
    "subcategory": "Local Seat",
    "featured": false,
    "priority": 50
  },
  {
    "geonameId": 2959374,
    "name": "Aerzen",
    "latitude": 52.04953,
    "longitude": 9.25856,
    "category": "City",
    "subcategory": "Local Seat",
    "featured": false,
    "priority": 50
  },
  {
    "geonameId": 2959368,
    "name": "Affalterbach",
    "latitude": 48.92267,
    "longitude": 9.32362,
    "category": "City",
    "subcategory": "Local Seat",
    "featured": false,
    "priority": 50
  },
  {
    "geonameId": 2959343,
    "name": "Affing",
    "latitude": 48.46667,
    "longitude": 10.98333,
    "category": "City",
    "subcategory": "Local Seat",
    "featured": false,
    "priority": 50
  },
  {
    "geonameId": 2959341,
    "name": "Affinghausen",
    "latitude": 52.78502,
    "longitude": 8.87558,
    "category": "City",
    "subcategory": "Local Seat",
    "featured": false,
    "priority": 50
  },
  {
    "geonameId": 2959340,
    "name": "Affler",
    "latitude": 50.01667,
    "longitude": 6.15,
    "category": "City",
    "subcategory": "Local Seat",
    "featured": false,
    "priority": 50
  },
  {
    "geonameId": 2959318,
    "name": "Agathenburg",
    "latitude": 53.56065,
    "longitude": 9.5318,
    "category": "City",
    "subcategory": "Local Seat",
    "featured": false,
    "priority": 50
  },
  {
    "geonameId": 2959308,
    "name": "Agethorst",
    "latitude": 54.01947,
    "longitude": 9.4359,
    "category": "City",
    "subcategory": "Local Seat",
    "featured": false,
    "priority": 50
  },
  {
    "geonameId": 2959299,
    "name": "Aggertalsperre",
    "latitude": 51.03794,
    "longitude": 7.63309,
    "category": "Lake",
    "subcategory": "Reservoir",
    "featured": false,
    "priority": 50
  },
  {
    "geonameId": 2959296,
    "name": "Aglasterhausen",
    "latitude": 49.35694,
    "longitude": 8.98694,
    "category": "City",
    "subcategory": "Local Seat",
    "featured": false,
    "priority": 50
  },
  {
    "geonameId": 2959287,
    "name": "Ah",
    "latitude": 48.21667,
    "longitude": 9.21667,
    "category": "Mountain",
    "subcategory": "Mountain",
    "featured": false,
    "priority": 50
  },
  {
    "geonameId": 2959282,
    "name": "Aham",
    "latitude": 48.52651,
    "longitude": 12.46064,
    "category": "City",
    "subcategory": "Local Seat",
    "featured": false,
    "priority": 50
  },
  {
    "geonameId": 2959279,
    "name": "Ahaus",
    "latitude": 52.07936,
    "longitude": 7.01344,
    "category": "City",
    "subcategory": "City",
    "featured": false,
    "priority": 50
  },
  {
    "geonameId": 2959272,
    "name": "Ahausen",
    "latitude": 53.06282,
    "longitude": 9.31336,
    "category": "City",
    "subcategory": "Local Seat",
    "featured": false,
    "priority": 50
  },
  {
    "geonameId": 2959237,
    "name": "Ahlden",
    "latitude": 52.75904,
    "longitude": 9.55063,
    "category": "City",
    "subcategory": "Local Seat",
    "featured": false,
    "priority": 50
  },
  {
    "geonameId": 2959226,
    "name": "Ahlem",
    "latitude": 52.37811,
    "longitude": 9.66436,
    "category": "City",
    "subcategory": "City",
    "featured": false,
    "priority": 50
  },
  {
    "geonameId": 2959223,
    "name": "Ahlen",
    "latitude": 51.76338,
    "longitude": 7.8887,
    "category": "City",
    "subcategory": "Local Seat",
    "featured": false,
    "priority": 50
  },
  {
    "geonameId": 2959205,
    "name": "Ahlerstedt",
    "latitude": 53.40675,
    "longitude": 9.45392,
    "category": "City",
    "subcategory": "Local Seat",
    "featured": false,
    "priority": 50
  },
  {
    "geonameId": 2959181,
    "name": "Ahlsdorf",
    "latitude": 51.54543,
    "longitude": 11.46655,
    "category": "City",
    "subcategory": "Local Seat",
    "featured": false,
    "priority": 50
  },
  {
    "geonameId": 2959174,
    "name": "Ahlstädt",
    "latitude": 50.53333,
    "longitude": 10.68333,
    "category": "City",
    "subcategory": "Local Seat",
    "featured": false,
    "priority": 50
  },
  {
    "geonameId": 2959153,
    "name": "Ahneby",
    "latitude": 54.70394,
    "longitude": 9.74495,
    "category": "City",
    "subcategory": "Local Seat",
    "featured": false,
    "priority": 50
  },
  {
    "geonameId": 2959150,
    "name": "Ahnsbeck",
    "latitude": 52.61071,
    "longitude": 10.28534,
    "category": "City",
    "subcategory": "Local Seat",
    "featured": false,
    "priority": 50
  },
  {
    "geonameId": 2959146,
    "name": "Ahnsen",
    "latitude": 52.25466,
    "longitude": 9.10089,
    "category": "City",
    "subcategory": "Local Seat",
    "featured": false,
    "priority": 50
  },
  {
    "geonameId": 2959143,
    "name": "Aholfing",
    "latitude": 48.94283,
    "longitude": 12.46857,
    "category": "City",
    "subcategory": "Local Seat",
    "featured": false,
    "priority": 50
  },
  {
    "geonameId": 2959142,
    "name": "Aholming",
    "latitude": 48.73542,
    "longitude": 12.90997,
    "category": "City",
    "subcategory": "Local Seat",
    "featured": false,
    "priority": 50
  },
  {
    "geonameId": 2959140,
    "name": "Ahorn",
    "latitude": 50.23762,
    "longitude": 10.95417,
    "category": "City",
    "subcategory": "Local Seat",
    "featured": false,
    "priority": 50
  },
  {
    "geonameId": 6940130,
    "name": "Ahornkopf",
    "latitude": 47.71556,
    "longitude": 12.34889,
    "category": "Mountain",
    "subcategory": "Peak",
    "featured": false,
    "priority": 50
  },
  {
    "geonameId": 8063336,
    "name": "Ahornriegel",
    "latitude": 49.23472,
    "longitude": 12.9438,
    "category": "Mountain",
    "subcategory": "Mountain",
    "featured": false,
    "priority": 50
  },
  {
    "geonameId": 2959126,
    "name": "Ahornsberg",
    "latitude": 50.96849,
    "longitude": 8.21654,
    "category": "Mountain",
    "subcategory": "Mountain",
    "featured": false,
    "priority": 50
  },
  {
    "geonameId": 2959124,
    "name": "Ahornspitze",
    "latitude": 47.55304,
    "longitude": 10.79851,
    "category": "Mountain",
    "subcategory": "Mountain",
    "featured": false,
    "priority": 50
  },
  {
    "geonameId": 3207679,
    "name": "Ahrbrück",
    "latitude": 50.48225,
    "longitude": 6.98804,
    "category": "City",
    "subcategory": "Local Seat",
    "featured": false,
    "priority": 50
  },
  {
    "geonameId": 13480453,
    "name": "Ahrendsberg",
    "latitude": 53.96638,
    "longitude": 11.46801,
    "category": "Island",
    "subcategory": "Island",
    "featured": false,
    "priority": 50
  },
  {
    "geonameId": 2959084,
    "name": "Ahrensbök",
    "latitude": 54.00862,
    "longitude": 10.57434,
    "category": "City",
    "subcategory": "Local Seat",
    "featured": false,
    "priority": 50
  },
  {
    "geonameId": 2959083,
    "name": "Ahrensburg",
    "latitude": 53.67661,
    "longitude": 10.23705,
    "category": "City",
    "subcategory": "Local Seat",
    "featured": false,
    "priority": 50
  },
  {
    "geonameId": 2959074,
    "name": "Ahrensdorfer See",
    "latitude": 52.18333,
    "longitude": 14.08333,
    "category": "Lake",
    "subcategory": "Lake",
    "featured": false,
    "priority": 50
  },
  {
    "geonameId": 2959073,
    "name": "Ahrensee",
    "latitude": 54.30399,
    "longitude": 9.97338,
    "category": "Lake",
    "subcategory": "Lake",
    "featured": false,
    "priority": 50
  },
  {
    "geonameId": 2959072,
    "name": "Ahrensfelde",
    "latitude": 52.57656,
    "longitude": 13.5797,
    "category": "City",
    "subcategory": "Local Seat",
    "featured": false,
    "priority": 50
  },
  {
    "geonameId": 3208535,
    "name": "Ahrenshöft",
    "latitude": 54.56377,
    "longitude": 9.06935,
    "category": "City",
    "subcategory": "Local Seat",
    "featured": false,
    "priority": 50
  },
  {
    "geonameId": 13226812,
    "name": "Ahrenshooper Holz",
    "latitude": 54.38538,
    "longitude": 12.44126,
    "category": "Park",
    "subcategory": "Nature Reserve",
    "featured": false,
    "priority": 50
  },
  {
    "geonameId": 2959053,
    "name": "Ahrenviöl",
    "latitude": 54.53131,
    "longitude": 9.20683,
    "category": "City",
    "subcategory": "Local Seat",
    "featured": false,
    "priority": 50
  },
  {
    "geonameId": 13234200,
    "name": "Ahrenviöler Westermoor",
    "latitude": 54.54233,
    "longitude": 9.26444,
    "category": "Park",
    "subcategory": "Nature Reserve",
    "featured": false,
    "priority": 50
  },
  {
    "geonameId": 2959052,
    "name": "Ahrenviölfeld",
    "latitude": 54.53331,
    "longitude": 9.27478,
    "category": "City",
    "subcategory": "Local Seat",
    "featured": false,
    "priority": 50
  },
  {
    "geonameId": 2959038,
    "name": "Aibenberg",
    "latitude": 48.87522,
    "longitude": 13.17078,
    "category": "Mountain",
    "subcategory": "Mountain",
    "featured": false,
    "priority": 50
  },
  {
    "geonameId": 6940111,
    "name": "Aibleck",
    "latitude": 47.68972,
    "longitude": 12.70806,
    "category": "Mountain",
    "subcategory": "Peak",
    "featured": false,
    "priority": 50
  },
  {
    "geonameId": 2958970,
    "name": "Aicha vorm Wald",
    "latitude": 48.67601,
    "longitude": 13.29542,
    "category": "City",
    "subcategory": "Local Seat",
    "featured": false,
    "priority": 50
  },
  {
    "geonameId": 2958975,
    "name": "Aichach",
    "latitude": 48.45755,
    "longitude": 11.13413,
    "category": "City",
    "subcategory": "District Seat",
    "featured": false,
    "priority": 50
  },
  {
    "geonameId": 2958956,
    "name": "Aichelberg",
    "latitude": 48.63557,
    "longitude": 9.56373,
    "category": "City",
    "subcategory": "Local Seat",
    "featured": false,
    "priority": 50
  },
  {
    "geonameId": 2958951,
    "name": "Aichen",
    "latitude": 48.22898,
    "longitude": 10.53949,
    "category": "City",
    "subcategory": "Local Seat",
    "featured": false,
    "priority": 50
  },
  {
    "geonameId": 2958937,
    "name": "Aichhalden",
    "latitude": 48.26719,
    "longitude": 8.40233,
    "category": "City",
    "subcategory": "Local Seat",
    "featured": false,
    "priority": 50
  },
  {
    "geonameId": 2958917,
    "name": "Aichstetten",
    "latitude": 47.89295,
    "longitude": 10.07837,
    "category": "City",
    "subcategory": "Local Seat",
    "featured": false,
    "priority": 50
  },
  {
    "geonameId": 12324483,
    "name": "Aichstrutsee",
    "latitude": 48.90277,
    "longitude": 9.64029,
    "category": "Lake",
    "subcategory": "Lake",
    "featured": false,
    "priority": 50
  },
  {
    "geonameId": 2958906,
    "name": "Aidhausen",
    "latitude": 50.15,
    "longitude": 10.43333,
    "category": "City",
    "subcategory": "Local Seat",
    "featured": false,
    "priority": 50
  },
  {
    "geonameId": 2958904,
    "name": "Aidlingen",
    "latitude": 48.67849,
    "longitude": 8.89524,
    "category": "City",
    "subcategory": "Local Seat",
    "featured": false,
    "priority": 50
  },
  {
    "geonameId": 2958887,
    "name": "Aiglsbach",
    "latitude": 48.69211,
    "longitude": 11.70831,
    "category": "City",
    "subcategory": "Local Seat",
    "featured": false,
    "priority": 50
  },
  {
    "geonameId": 2958846,
    "name": "Ailertchen",
    "latitude": 50.59861,
    "longitude": 7.94194,
    "category": "City",
    "subcategory": "Local Seat",
    "featured": false,
    "priority": 50
  },
  {
    "geonameId": 2958831,
    "name": "Ainring",
    "latitude": 47.81311,
    "longitude": 12.94048,
    "category": "City",
    "subcategory": "Local Seat",
    "featured": false,
    "priority": 50
  },
  {
    "geonameId": 2958171,
    "name": "Aiplspitz",
    "latitude": 47.67374,
    "longitude": 11.92458,
    "category": "Mountain",
    "subcategory": "Mountain",
    "featured": false,
    "priority": 50
  },
  {
    "geonameId": 2958801,
    "name": "Aitern",
    "latitude": 47.8,
    "longitude": 7.9,
    "category": "City",
    "subcategory": "Local Seat",
    "featured": false,
    "priority": 50
  },
  {
    "geonameId": 2958798,
    "name": "Aitrach",
    "latitude": 47.93333,
    "longitude": 10.08333,
    "category": "City",
    "subcategory": "Local Seat",
    "featured": false,
    "priority": 50
  },
  {
    "geonameId": 2958795,
    "name": "Aitrang",
    "latitude": 47.81667,
    "longitude": 10.53333,
    "category": "City",
    "subcategory": "Local Seat",
    "featured": false,
    "priority": 50
  },
  {
    "geonameId": 2958791,
    "name": "Aizenberg",
    "latitude": 48.77876,
    "longitude": 8.41497,
    "category": "Mountain",
    "subcategory": "Mountain",
    "featured": false,
    "priority": 50
  },
  {
    "geonameId": 10399677,
    "name": "Akademiegarten",
    "latitude": 48.77742,
    "longitude": 9.18264,
    "category": "Park",
    "subcategory": "Park",
    "featured": false,
    "priority": 50
  },
  {
    "geonameId": 2958781,
    "name": "Aken",
    "latitude": 51.85274,
    "longitude": 12.04461,
    "category": "City",
    "subcategory": "City",
    "featured": false,
    "priority": 50
  },
  {
    "geonameId": 2958770,
    "name": "Alatsee",
    "latitude": 47.56138,
    "longitude": 10.63922,
    "category": "Lake",
    "subcategory": "Lake",
    "featured": false,
    "priority": 50
  },
  {
    "geonameId": 2958756,
    "name": "Albaching",
    "latitude": 48.11011,
    "longitude": 12.11074,
    "category": "City",
    "subcategory": "Local Seat",
    "featured": false,
    "priority": 50
  },
  {
    "geonameId": 2958749,
    "name": "Albauer Kopf",
    "latitude": 47.71252,
    "longitude": 12.80258,
    "category": "Mountain",
    "subcategory": "Peak",
    "featured": false,
    "priority": 50
  },
  {
    "geonameId": 2958744,
    "name": "Albbruck",
    "latitude": 47.59077,
    "longitude": 8.12954,
    "category": "City",
    "subcategory": "Local Seat",
    "featured": false,
    "priority": 50
  },
  {
    "geonameId": 2958710,
    "name": "Albersdorf",
    "latitude": 54.14496,
    "longitude": 9.28686,
    "category": "City",
    "subcategory": "Local Seat",
    "featured": false,
    "priority": 50
  },
  {
    "geonameId": 2958707,
    "name": "Albershausen",
    "latitude": 48.69136,
    "longitude": 9.56493,
    "category": "City",
    "subcategory": "Local Seat",
    "featured": false,
    "priority": 50
  },
  {
    "geonameId": 2958696,
    "name": "Albersweiler",
    "latitude": 49.21917,
    "longitude": 8.03,
    "category": "City",
    "subcategory": "Local Seat",
    "featured": false,
    "priority": 50
  },
  {
    "geonameId": 2958653,
    "name": "Albertshofen",
    "latitude": 49.76667,
    "longitude": 10.16667,
    "category": "City",
    "subcategory": "Local Seat",
    "featured": false,
    "priority": 50
  },
  {
    "geonameId": 2958641,
    "name": "Albessen",
    "latitude": 49.51667,
    "longitude": 7.33333,
    "category": "City",
    "subcategory": "Local Seat",
    "featured": false,
    "priority": 50
  },
  {
    "geonameId": 2958638,
    "name": "Albig",
    "latitude": 49.77361,
    "longitude": 8.12139,
    "category": "City",
    "subcategory": "Local Seat",
    "featured": false,
    "priority": 50
  },
  {
    "geonameId": 2958623,
    "name": "Albrechtsberg",
    "latitude": 51.13342,
    "longitude": 8.41203,
    "category": "Mountain",
    "subcategory": "Mountain",
    "featured": false,
    "priority": 50
  },
  {
    "geonameId": 2958603,
    "name": "Albsfelde",
    "latitude": 53.68333,
    "longitude": 10.7,
    "category": "City",
    "subcategory": "Local Seat",
    "featured": false,
    "priority": 50
  },
  {
    "geonameId": 2958595,
    "name": "Albstadt",
    "latitude": 48.21644,
    "longitude": 9.02596,
    "category": "City",
    "subcategory": "City",
    "featured": false,
    "priority": 50
  },
  {
    "geonameId": 2958580,
    "name": "Aldenhoven",
    "latitude": 50.9,
    "longitude": 6.28333,
    "category": "City",
    "subcategory": "Local Seat",
    "featured": false,
    "priority": 50
  },
  {
    "geonameId": 2958577,
    "name": "Aldersbach",
    "latitude": 48.58972,
    "longitude": 13.08971,
    "category": "City",
    "subcategory": "Local Seat",
    "featured": false,
    "priority": 50
  },
  {
    "geonameId": 2958575,
    "name": "Aldingen",
    "latitude": 48.1,
    "longitude": 8.7,
    "category": "City",
    "subcategory": "Local Seat",
    "featured": false,
    "priority": 50
  },
  {
    "geonameId": 2958560,
    "name": "Alerheim",
    "latitude": 48.85,
    "longitude": 10.61667,
    "category": "City",
    "subcategory": "Local Seat",
    "featured": false,
    "priority": 50
  },
  {
    "geonameId": 2958557,
    "name": "Alesheim",
    "latitude": 49.04648,
    "longitude": 10.86496,
    "category": "City",
    "subcategory": "Local Seat",
    "featured": false,
    "priority": 50
  },
  {
    "geonameId": 2958555,
    "name": "Aletshausen",
    "latitude": 48.19859,
    "longitude": 10.38877,
    "category": "City",
    "subcategory": "Local Seat",
    "featured": false,
    "priority": 50
  },
  {
    "geonameId": 2958539,
    "name": "Alf",
    "latitude": 50.05453,
    "longitude": 7.12342,
    "category": "City",
    "subcategory": "Local Seat",
    "featured": false,
    "priority": 50
  },
  {
    "geonameId": 2958535,
    "name": "Alfdorf",
    "latitude": 48.84385,
    "longitude": 9.71857,
    "category": "City",
    "subcategory": "Local Seat",
    "featured": false,
    "priority": 50
  },
  {
    "geonameId": 2958533,
    "name": "Alfeld",
    "latitude": 51.98382,
    "longitude": 9.81989,
    "category": "City",
    "subcategory": "Local Seat",
    "featured": false,
    "priority": 50
  },
  {
    "geonameId": 2958523,
    "name": "Alfhausen",
    "latitude": 52.5017,
    "longitude": 7.95527,
    "category": "City",
    "subcategory": "Local Seat",
    "featured": false,
    "priority": 50
  },
  {
    "geonameId": 2958522,
    "name": "Alflen",
    "latitude": 50.17683,
    "longitude": 7.0395,
    "category": "City",
    "subcategory": "Local Seat",
    "featured": false,
    "priority": 50
  },
  {
    "geonameId": 3208416,
    "name": "Alfsee",
    "latitude": 52.48743,
    "longitude": 7.97405,
    "category": "Lake",
    "subcategory": "Reservoir",
    "featured": false,
    "priority": 50
  },
  {
    "geonameId": 2958518,
    "name": "Alfstedt",
    "latitude": 53.54705,
    "longitude": 9.07035,
    "category": "City",
    "subcategory": "Local Seat",
    "featured": false,
    "priority": 50
  },
  {
    "geonameId": 2958516,
    "name": "Alfter",
    "latitude": 50.73333,
    "longitude": 7.01667,
    "category": "City",
    "subcategory": "Local Seat",
    "featured": false,
    "priority": 50
  },
  {
    "geonameId": 2958509,
    "name": "Algermissen",
    "latitude": 52.25332,
    "longitude": 9.96915,
    "category": "City",
    "subcategory": "Local Seat",
    "featured": false,
    "priority": 50
  },
  {
    "geonameId": 2958494,
    "name": "Alheim",
    "latitude": 51.03333,
    "longitude": 9.66667,
    "category": "City",
    "subcategory": "Local Seat",
    "featured": false,
    "priority": 50
  },
  {
    "geonameId": 13623293,
    "name": "Alhuser Ahe",
    "latitude": 52.79196,
    "longitude": 9.18327,
    "category": "Park",
    "subcategory": "Nature Reserve",
    "featured": false,
    "priority": 50
  },
  {
    "geonameId": 2958486,
    "name": "Alken",
    "latitude": 50.25,
    "longitude": 7.45,
    "category": "City",
    "subcategory": "Local Seat",
    "featured": false,
    "priority": 50
  },
  {
    "geonameId": 2958480,
    "name": "Alkersleben",
    "latitude": 50.85,
    "longitude": 11.03333,
    "category": "City",
    "subcategory": "Local Seat",
    "featured": false,
    "priority": 50
  },
  {
    "geonameId": 2958479,
    "name": "Alkersum",
    "latitude": 54.70796,
    "longitude": 8.50925,
    "category": "City",
    "subcategory": "Local Seat",
    "featured": false,
    "priority": 50
  },
  {
    "geonameId": 2958457,
    "name": "Allenbach",
    "latitude": 49.75449,
    "longitude": 7.1672,
    "category": "City",
    "subcategory": "Local Seat",
    "featured": false,
    "priority": 50
  },
  {
    "geonameId": 2958451,
    "name": "Allenberg",
    "latitude": 48.2947,
    "longitude": 8.9849,
    "category": "Mountain",
    "subcategory": "Mountain",
    "featured": false,
    "priority": 50
  },
  {
    "geonameId": 2958438,
    "name": "Allendorf",
    "latitude": 51.02995,
    "longitude": 8.67232,
    "category": "City",
    "subcategory": "City",
    "featured": false,
    "priority": 50
  },
  {
    "geonameId": 2958431,
    "name": "Allenfeld",
    "latitude": 49.86667,
    "longitude": 7.66667,
    "category": "City",
    "subcategory": "Local Seat",
    "featured": false,
    "priority": 50
  },
  {
    "geonameId": 2958429,
    "name": "Allensbach",
    "latitude": 47.71536,
    "longitude": 9.07145,
    "category": "City",
    "subcategory": "Local Seat",
    "featured": false,
    "priority": 50
  },
  {
    "geonameId": 2958418,
    "name": "Aller Berg",
    "latitude": 51.75,
    "longitude": 10.41667,
    "category": "Mountain",
    "subcategory": "Mountain",
    "featured": false,
    "priority": 50
  },
  {
    "geonameId": 13606802,
    "name": "Allermöher See",
    "latitude": 53.48061,
    "longitude": 10.16259,
    "category": "Lake",
    "subcategory": "Lake",
    "featured": false,
    "priority": 50
  },
  {
    "geonameId": 2958391,
    "name": "Allersberg",
    "latitude": 49.25132,
    "longitude": 11.23659,
    "category": "City",
    "subcategory": "City",
    "featured": false,
    "priority": 50
  },
  {
    "geonameId": 11101539,
    "name": "Allersee",
    "latitude": 52.43362,
    "longitude": 10.82046,
    "category": "Lake",
    "subcategory": "Lake",
    "featured": false,
    "priority": 50
  },
  {
    "geonameId": 2958376,
    "name": "Allershausen",
    "latitude": 48.43333,
    "longitude": 11.6,
    "category": "City",
    "subcategory": "Local Seat",
    "featured": false,
    "priority": 50
  },
  {
    "geonameId": 2958355,
    "name": "Alleshausen",
    "latitude": 48.10359,
    "longitude": 9.62179,
    "category": "City",
    "subcategory": "Local Seat",
    "featured": false,
    "priority": 50
  },
  {
    "geonameId": 2958331,
    "name": "Alling",
    "latitude": 48.14034,
    "longitude": 11.30144,
    "category": "City",
    "subcategory": "Local Seat",
    "featured": false,
    "priority": 50
  },
  {
    "geonameId": 2958309,
    "name": "Allmannshofen",
    "latitude": 48.61255,
    "longitude": 10.8093,
    "category": "City",
    "subcategory": "Local Seat",
    "featured": false,
    "priority": 50
  },
  {
    "geonameId": 2958305,
    "name": "Allmannsweiler",
    "latitude": 48.02853,
    "longitude": 9.59361,
    "category": "City",
    "subcategory": "Local Seat",
    "featured": false,
    "priority": 50
  },
  {
    "geonameId": 11258240,
    "name": "Allmendhöhe",
    "latitude": 48.33365,
    "longitude": 8.30392,
    "category": "Mountain",
    "subcategory": "Mountain",
    "featured": false,
    "priority": 50
  },
  {
    "geonameId": 2958296,
    "name": "Allmendingen",
    "latitude": 48.33052,
    "longitude": 9.72419,
    "category": "City",
    "subcategory": "Local Seat",
    "featured": false,
    "priority": 50
  },
  {
    "geonameId": 2958288,
    "name": "Allmersbach im Tal",
    "latitude": 48.90659,
    "longitude": 9.46815,
    "category": "City",
    "subcategory": "Local Seat",
    "featured": false,
    "priority": 50
  },
  {
    "geonameId": 2958253,
    "name": "Almberg",
    "latitude": 48.8891,
    "longitude": 13.64476,
    "category": "Mountain",
    "subcategory": "Mountain",
    "featured": false,
    "priority": 50
  },
  {
    "geonameId": 2958251,
    "name": "Almdorf",
    "latitude": 54.58271,
    "longitude": 9.01508,
    "category": "City",
    "subcategory": "Local Seat",
    "featured": false,
    "priority": 50
  },
  {
    "geonameId": 2958235,
    "name": "Almersbach",
    "latitude": 50.68333,
    "longitude": 7.63333,
    "category": "City",
    "subcategory": "Local Seat",
    "featured": false,
    "priority": 50
  },
  {
    "geonameId": 8256219,
    "name": "Almersberg",
    "latitude": 49.24863,
    "longitude": 7.91975,
    "category": "Mountain",
    "subcategory": "Mountain",
    "featured": false,
    "priority": 50
  },
  {
    "geonameId": 2958211,
    "name": "Almstedt",
    "latitude": 52.03243,
    "longitude": 9.96151,
    "category": "City",
    "subcategory": "Local Seat",
    "featured": false,
    "priority": 50
  },
  {
    "geonameId": 2958191,
    "name": "Alpel Köpfe",
    "latitude": 47.59406,
    "longitude": 13.04661,
    "category": "Mountain",
    "subcategory": "Peak",
    "featured": false,
    "priority": 50
  },
  {
    "geonameId": 2958194,
    "name": "Älpelekopf",
    "latitude": 47.4393,
    "longitude": 10.45472,
    "category": "Mountain",
    "subcategory": "Mountain",
    "featured": false,
    "priority": 50
  },
  {
    "geonameId": 2958193,
    "name": "Älpeleskopf",
    "latitude": 47.54448,
    "longitude": 10.7423,
    "category": "Mountain",
    "subcategory": "Mountain",
    "featured": false,
    "priority": 50
  },
  {
    "geonameId": 2958188,
    "name": "Alpen",
    "latitude": 51.58333,
    "longitude": 6.51667,
    "category": "City",
    "subcategory": "Local Seat",
    "featured": false,
    "priority": 50
  },
  {
    "geonameId": 6940040,
    "name": "Alpenkopf",
    "latitude": 47.62528,
    "longitude": 11.28111,
    "category": "Mountain",
    "subcategory": "Peak",
    "featured": false,
    "priority": 50
  },
  {
    "geonameId": 2958186,
    "name": "Alpenrod",
    "latitude": 50.63333,
    "longitude": 7.86667,
    "category": "City",
    "subcategory": "Local Seat",
    "featured": false,
    "priority": 50
  },
  {
    "geonameId": 6939872,
    "name": "Alpenrosenköpfle",
    "latitude": 47.49278,
    "longitude": 10.37889,
    "category": "Mountain",
    "subcategory": "Peak",
    "featured": false,
    "priority": 50
  },
  {
    "geonameId": 2958180,
    "name": "Alperstedt",
    "latitude": 51.0924,
    "longitude": 11.0453,
    "category": "City",
    "subcategory": "Local Seat",
    "featured": false,
    "priority": 50
  },
  {
    "geonameId": 2958176,
    "name": "Alpgundkopf",
    "latitude": 47.32187,
    "longitude": 10.2371,
    "category": "Mountain",
    "subcategory": "Mountain",
    "featured": false,
    "priority": 50
  },
  {
    "geonameId": 2958174,
    "name": "Alphorn",
    "latitude": 47.65946,
    "longitude": 12.82529,
    "category": "Mountain",
    "subcategory": "Peak",
    "featured": false,
    "priority": 50
  },
  {
    "geonameId": 2958173,
    "name": "Alpirsbach",
    "latitude": 48.34507,
    "longitude": 8.40197,
    "category": "City",
    "subcategory": "City",
    "featured": false,
    "priority": 50
  },
  {
    "geonameId": 2958168,
    "name": "Alpsee",
    "latitude": 47.57257,
    "longitude": 10.1744,
    "category": "Lake",
    "subcategory": "Lake",
    "featured": false,
    "priority": 50
  },
  {
    "geonameId": 2958165,
    "name": "Alpspitz",
    "latitude": 47.59775,
    "longitude": 10.49601,
    "category": "Mountain",
    "subcategory": "Mountain",
    "featured": false,
    "priority": 50
  },
  {
    "geonameId": 2958164,
    "name": "Alpspitze",
    "latitude": 47.42954,
    "longitude": 11.04813,
    "category": "Mountain",
    "subcategory": "Mountain",
    "featured": false,
    "priority": 50
  },
  {
    "geonameId": 2958154,
    "name": "Alsbach",
    "latitude": 50.46411,
    "longitude": 7.66198,
    "category": "City",
    "subcategory": "Local Seat",
    "featured": false,
    "priority": 50
  },
  {
    "geonameId": 3272934,
    "name": "Alsbach-Hähnlein",
    "latitude": 49.73861,
    "longitude": 8.59583,
    "category": "City",
    "subcategory": "Local Seat",
    "featured": false,
    "priority": 50
  },
  {
    "geonameId": 2958146,
    "name": "Alschberg",
    "latitude": 49.04867,
    "longitude": 7.86613,
    "category": "Mountain",
    "subcategory": "Mountain",
    "featured": false,
    "priority": 50
  },
  {
    "geonameId": 2958141,
    "name": "Alsdorf",
    "latitude": 50.87673,
    "longitude": 6.16399,
    "category": "City",
    "subcategory": "City",
    "featured": false,
    "priority": 50
  },
  {
    "geonameId": 2958134,
    "name": "Alsenz",
    "latitude": 49.71667,
    "longitude": 7.81667,
    "category": "City",
    "subcategory": "Local Seat",
    "featured": false,
    "priority": 50
  },
  {
    "geonameId": 2958128,
    "name": "Alsfeld",
    "latitude": 50.75185,
    "longitude": 9.27082,
    "category": "City",
    "subcategory": "City",
    "featured": false,
    "priority": 50
  },
  {
    "geonameId": 2958126,
    "name": "Alsheim",
    "latitude": 49.76806,
    "longitude": 8.34028,
    "category": "City",
    "subcategory": "Local Seat",
    "featured": false,
    "priority": 50
  },
  {
    "geonameId": 13347931,
    "name": "Alswarder",
    "latitude": 54.13771,
    "longitude": 10.38619,
    "category": "Island",
    "subcategory": "Island",
    "featured": false,
    "priority": 50
  },
  {
    "geonameId": 2958066,
    "name": "Alt Bennebek",
    "latitude": 54.38333,
    "longitude": 9.43333,
    "category": "City",
    "subcategory": "Local Seat",
    "featured": false,
    "priority": 50
  },
  {
    "geonameId": 2958016,
    "name": "Alt Duvenstedt",
    "latitude": 54.35909,
    "longitude": 9.64419,
    "category": "City",
    "subcategory": "Local Seat",
    "featured": false,
    "priority": 50
  },
  {
    "geonameId": 2956985,
    "name": "Alt Mölln",
    "latitude": 53.62314,
    "longitude": 10.66182,
    "category": "City",
    "subcategory": "Local Seat",
    "featured": false,
    "priority": 50
  },
  {
    "geonameId": 2956789,
    "name": "Alt Tucheband",
    "latitude": 52.53732,
    "longitude": 14.51225,
    "category": "City",
    "subcategory": "Local Seat",
    "featured": false,
    "priority": 50
  },
  {
    "geonameId": 2841684,
    "name": "Alt-Sanitz",
    "latitude": 53.81363,
    "longitude": 13.58786,
    "category": "City",
    "subcategory": "City",
    "featured": false,
    "priority": 50
  },
  {
    "geonameId": 2958085,
    "name": "Altbach",
    "latitude": 48.72268,
    "longitude": 9.38078,
    "category": "City",
    "subcategory": "Local Seat",
    "featured": false,
    "priority": 50
  },
  {
    "geonameId": 2958036,
    "name": "Altdöbern",
    "latitude": 51.65,
    "longitude": 14.03333,
    "category": "City",
    "subcategory": "Local Seat",
    "featured": false,
    "priority": 50
  },
  {
    "geonameId": 2958026,
    "name": "Altdorf",
    "latitude": 49.28722,
    "longitude": 8.21611,
    "category": "City",
    "subcategory": "Local Seat",
    "featured": false,
    "priority": 50
  },
  {
    "geonameId": 2958024,
    "name": "Altdorf bei Nürnberg",
    "latitude": 49.3856,
    "longitude": 11.3573,
    "category": "City",
    "subcategory": "City",
    "featured": false,
    "priority": 50
  },
  {
    "geonameId": 2958015,
    "name": "Alte Ahse",
    "latitude": 51.67833,
    "longitude": 7.83076,
    "category": "Lake",
    "subcategory": "Lake",
    "featured": false,
    "priority": 50
  },
  {
    "geonameId": 8199455,
    "name": "Alte Burg",
    "latitude": 50.46412,
    "longitude": 9.24594,
    "category": "Mountain",
    "subcategory": "Mountain",
    "featured": false,
    "priority": 50
  },
  {
    "geonameId": 2957977,
    "name": "Alte Donau",
    "latitude": 48.96401,
    "longitude": 12.37671,
    "category": "Lake",
    "subcategory": "Lake",
    "featured": false,
    "priority": 50
  },
  {
    "geonameId": 2957962,
    "name": "Alte Elbe",
    "latitude": 52.3509,
    "longitude": 11.80974,
    "category": "Lake",
    "subcategory": "Lake",
    "featured": false,
    "priority": 50
  },
  {
    "geonameId": 2957936,
    "name": "Alte Grimme",
    "latitude": 51.2,
    "longitude": 8.58685,
    "category": "Mountain",
    "subcategory": "Mountain",
    "featured": false,
    "priority": 50
  },
  {
    "geonameId": 2957917,
    "name": "Alte Hunte",
    "latitude": 53.16667,
    "longitude": 8.35,
    "category": "Lake",
    "subcategory": "Lake",
    "featured": false,
    "priority": 50
  },
  {
    "geonameId": 2957893,
    "name": "Alte Mellum",
    "latitude": 53.72089,
    "longitude": 8.15023,
    "category": "Island",
    "subcategory": "Island",
    "featured": false,
    "priority": 50
  },
  {
    "geonameId": 8014917,
    "name": "Alte Süderelbe",
    "latitude": 53.52676,
    "longitude": 9.82671,
    "category": "Lake",
    "subcategory": "Lake",
    "featured": false,
    "priority": 50
  },
  {
    "geonameId": 2957938,
    "name": "Alteglofsheim",
    "latitude": 48.91667,
    "longitude": 12.2,
    "category": "City",
    "subcategory": "Local Seat",
    "featured": false,
    "priority": 50
  },
  {
    "geonameId": 2957886,
    "name": "Altena",
    "latitude": 51.29472,
    "longitude": 7.67337,
    "category": "City",
    "subcategory": "City",
    "featured": false,
    "priority": 50
  },
  {
    "geonameId": 2957883,
    "name": "Altenahr",
    "latitude": 50.51694,
    "longitude": 6.99206,
    "category": "City",
    "subcategory": "Local Seat",
    "featured": false,
    "priority": 50
  },
  {
    "geonameId": 2957869,
    "name": "Altenbamberg",
    "latitude": 49.78333,
    "longitude": 7.83333,
    "category": "City",
    "subcategory": "Local Seat",
    "featured": false,
    "priority": 50
  },
  {
    "geonameId": 2957864,
    "name": "Altenbeken",
    "latitude": 51.76455,
    "longitude": 8.94201,
    "category": "City",
    "subcategory": "Local Seat",
    "featured": false,
    "priority": 50
  },
  {
    "geonameId": 2957834,
    "name": "Altenberg",
    "latitude": 50.76556,
    "longitude": 13.75334,
    "category": "City",
    "subcategory": "City",
    "featured": false,
    "priority": 50
  },
  {
    "geonameId": 2957830,
    "name": "Altenberga",
    "latitude": 50.83333,
    "longitude": 11.53333,
    "category": "City",
    "subcategory": "Local Seat",
    "featured": false,
    "priority": 50
  },
  {
    "geonameId": 2957829,
    "name": "Altenberge",
    "latitude": 52.05,
    "longitude": 7.46667,
    "category": "City",
    "subcategory": "Local Seat",
    "featured": false,
    "priority": 50
  },
  {
    "geonameId": 2957823,
    "name": "Altenbeuthen",
    "latitude": 50.5919,
    "longitude": 11.60062,
    "category": "City",
    "subcategory": "Local Seat",
    "featured": false,
    "priority": 50
  },
  {
    "geonameId": 3274987,
    "name": "Altenbuch",
    "latitude": 49.82861,
    "longitude": 9.40139,
    "category": "City",
    "subcategory": "Local Seat",
    "featured": false,
    "priority": 50
  },
  {
    "geonameId": 2957773,
    "name": "Altenburg",
    "latitude": 50.98763,
    "longitude": 12.43684,
    "category": "City",
    "subcategory": "District Seat",
    "featured": false,
    "priority": 50
  },
  {
    "geonameId": 11523400,
    "name": "Altenburg bei Trappstadt",
    "latitude": 50.31624,
    "longitude": 10.59005,
    "category": "Mountain",
    "subcategory": "Mountain",
    "featured": false,
    "priority": 50
  },
  {
    "geonameId": 2957742,
    "name": "Altendiez",
    "latitude": 50.36667,
    "longitude": 7.98333,
    "category": "City",
    "subcategory": "Local Seat",
    "featured": false,
    "priority": 50
  },
  {
    "geonameId": 2957735,
    "name": "Altendorf",
    "latitude": 49.4055,
    "longitude": 12.28151,
    "category": "City",
    "subcategory": "Local Seat",
    "featured": false,
    "priority": 50
  },
  {
    "geonameId": 2957681,
    "name": "Altenglan",
    "latitude": 49.55,
    "longitude": 7.46667,
    "category": "City",
    "subcategory": "Local Seat",
    "featured": false,
    "priority": 50
  },
  {
    "geonameId": 2957678,
    "name": "Altengottern",
    "latitude": 51.16395,
    "longitude": 10.58093,
    "category": "City",
    "subcategory": "Local Seat",
    "featured": false,
    "priority": 50
  },
  {
    "geonameId": 2957631,
    "name": "Altenhausen",
    "latitude": 52.26196,
    "longitude": 11.25429,
    "category": "City",
    "subcategory": "Local Seat",
    "featured": false,
    "priority": 50
  },
  {
    "geonameId": 2957599,
    "name": "Altenhof",
    "latitude": 54.43399,
    "longitude": 9.87274,
    "category": "City",
    "subcategory": "Local Seat",
    "featured": false,
    "priority": 50
  },
  {
    "geonameId": 2957588,
    "name": "Altenholz",
    "latitude": 54.39793,
    "longitude": 10.1279,
    "category": "City",
    "subcategory": "Local Seat",
    "featured": false,
    "priority": 50
  },
  {
    "geonameId": 2957567,
    "name": "Altenkirchen",
    "latitude": 50.68594,
    "longitude": 7.64176,
    "category": "City",
    "subcategory": "District Seat",
    "featured": false,
    "priority": 50
  },
  {
    "geonameId": 2957557,
    "name": "Altenkrempe",
    "latitude": 54.13234,
    "longitude": 10.82236,
    "category": "City",
    "subcategory": "Local Seat",
    "featured": false,
    "priority": 50
  },
  {
    "geonameId": 2957555,
    "name": "Altenkunstadt",
    "latitude": 50.12504,
    "longitude": 11.2503,
    "category": "City",
    "subcategory": "Local Seat",
    "featured": false,
    "priority": 50
  },
  {
    "geonameId": 2957538,
    "name": "Altenmedingen",
    "latitude": 53.1305,
    "longitude": 10.60163,
    "category": "City",
    "subcategory": "Local Seat",
    "featured": false,
    "priority": 50
  },
  {
    "geonameId": 2957532,
    "name": "Altenmoor",
    "latitude": 53.76243,
    "longitude": 9.57007,
    "category": "City",
    "subcategory": "Local Seat",
    "featured": false,
    "priority": 50
  },
  {
    "geonameId": 2957528,
    "name": "Altenmünster",
    "latitude": 48.46495,
    "longitude": 10.59065,
    "category": "City",
    "subcategory": "Local Seat",
    "featured": false,
    "priority": 50
  },
  {
    "geonameId": 2957499,
    "name": "Altenriet",
    "latitude": 48.5914,
    "longitude": 9.22186,
    "category": "City",
    "subcategory": "Local Seat",
    "featured": false,
    "priority": 50
  },
  {
    "geonameId": 2957478,
    "name": "Altensee",
    "latitude": 48.09081,
    "longitude": 12.19347,
    "category": "Lake",
    "subcategory": "Lake",
    "featured": false,
    "priority": 50
  },
  {
    "geonameId": 2957463,
    "name": "Altenstadt",
    "latitude": 50.28747,
    "longitude": 8.94373,
    "category": "City",
    "subcategory": "Local Seat",
    "featured": false,
    "priority": 50
  },
  {
    "geonameId": 2957459,
    "name": "Altensteig",
    "latitude": 48.58649,
    "longitude": 8.60395,
    "category": "City",
    "subcategory": "City",
    "featured": false,
    "priority": 50
  },
  {
    "geonameId": 2957457,
    "name": "Altenstein",
    "latitude": 50.1318,
    "longitude": 8.17815,
    "category": "Mountain",
    "subcategory": "Mountain",
    "featured": false,
    "priority": 50
  },
  {
    "geonameId": 2957439,
    "name": "Altenthann",
    "latitude": 49.1,
    "longitude": 12.3,
    "category": "City",
    "subcategory": "Local Seat",
    "featured": false,
    "priority": 50
  },
  {
    "geonameId": 2957437,
    "name": "Altentreptow",
    "latitude": 53.69269,
    "longitude": 13.25605,
    "category": "City",
    "subcategory": "Local Seat",
    "featured": false,
    "priority": 50
  },
  {
    "geonameId": 2957388,
    "name": "Alter Berg",
    "latitude": 48.09256,
    "longitude": 8.80486,
    "category": "Mountain",
    "subcategory": "Mountain",
    "featured": false,
    "priority": 50
  },
  {
    "geonameId": 2957380,
    "name": "Alter Dorfsee",
    "latitude": 53.63893,
    "longitude": 12.25191,
    "category": "Lake",
    "subcategory": "Lake",
    "featured": false,
    "priority": 50
  },
  {
    "geonameId": 11281741,
    "name": "Alter Friedhof Bissingen",
    "latitude": 48.94643,
    "longitude": 9.10112,
    "category": "Park",
    "subcategory": "Park",
    "featured": false,
    "priority": 50
  },
  {
    "geonameId": 11281732,
    "name": "Alter Friedhof Kornwestheim",
    "latitude": 48.86602,
    "longitude": 9.19191,
    "category": "Park",
    "subcategory": "Park",
    "featured": false,
    "priority": 50
  },
  {
    "geonameId": 2957347,
    "name": "Alter Main",
    "latitude": 49.98824,
    "longitude": 10.19609,
    "category": "Lake",
    "subcategory": "Lake",
    "featured": false,
    "priority": 50
  },
  {
    "geonameId": 2957318,
    "name": "Alter See",
    "latitude": 49.93333,
    "longitude": 10.35,
    "category": "Lake",
    "subcategory": "Lake",
    "featured": false,
    "priority": 50
  },
  {
    "geonameId": 2957300,
    "name": "Alter Teich",
    "latitude": 51.48333,
    "longitude": 14.21667,
    "category": "Lake",
    "subcategory": "Lake",
    "featured": false,
    "priority": 50
  },
  {
    "geonameId": 2957295,
    "name": "Alter Thanstein",
    "latitude": 49.38176,
    "longitude": 12.4439,
    "category": "Mountain",
    "subcategory": "Mountain",
    "featured": false,
    "priority": 50
  },
  {
    "geonameId": 2957286,
    "name": "Alter Wochowsee",
    "latitude": 52.22107,
    "longitude": 13.92843,
    "category": "Lake",
    "subcategory": "Lake",
    "featured": false,
    "priority": 50
  },
  {
    "geonameId": 2957387,
    "name": "Alterberg",
    "latitude": 50.53333,
    "longitude": 13.15,
    "category": "Mountain",
    "subcategory": "Mountain",
    "featured": false,
    "priority": 50
  },
  {
    "geonameId": 2957351,
    "name": "Alterkülz",
    "latitude": 50.03333,
    "longitude": 7.46667,
    "category": "City",
    "subcategory": "Local Seat",
    "featured": false,
    "priority": 50
  },
  {
    "geonameId": 2957327,
    "name": "Altersbach",
    "latitude": 50.7,
    "longitude": 10.53333,
    "category": "City",
    "subcategory": "Local Seat",
    "featured": false,
    "priority": 50
  },
  {
    "geonameId": 2957272,
    "name": "Altes Gericht",
    "latitude": 50.63333,
    "longitude": 13.16667,
    "category": "Mountain",
    "subcategory": "Mountain",
    "featured": false,
    "priority": 50
  },
  {
    "geonameId": 3206149,
    "name": "Altes Lager",
    "latitude": 48.41755,
    "longitude": 9.53606,
    "category": "City",
    "subcategory": "City",
    "featured": false,
    "priority": 50
  },
  {
    "geonameId": 2957248,
    "name": "Altetalskopf",
    "latitude": 51.85079,
    "longitude": 10.41017,
    "category": "Mountain",
    "subcategory": "Mountain",
    "featured": false,
    "priority": 50
  },
  {
    "geonameId": 2957209,
    "name": "Altforweiler",
    "latitude": 49.27411,
    "longitude": 6.70598,
    "category": "City",
    "subcategory": "Local Seat",
    "featured": false,
    "priority": 50
  },
  {
    "geonameId": 2957207,
    "name": "Altfraunhofen",
    "latitude": 48.45,
    "longitude": 12.16667,
    "category": "City",
    "subcategory": "Local Seat",
    "featured": false,
    "priority": 50
  },
  {
    "geonameId": 2957153,
    "name": "Althegnenberg",
    "latitude": 48.23333,
    "longitude": 11.06667,
    "category": "City",
    "subcategory": "Local Seat",
    "featured": false,
    "priority": 50
  },
  {
    "geonameId": 2957145,
    "name": "Altheim",
    "latitude": 48.32801,
    "longitude": 9.77041,
    "category": "City",
    "subcategory": "Local Seat",
    "featured": false,
    "priority": 50
  },
  {
    "geonameId": 11748418,
    "name": "Altheimer Berg",
    "latitude": 48.50451,
    "longitude": 8.61599,
    "category": "Mountain",
    "subcategory": "Mountain",
    "featured": false,
    "priority": 50
  },
  {
    "geonameId": 2957133,
    "name": "Althengstett",
    "latitude": 48.72325,
    "longitude": 8.79434,
    "category": "City",
    "subcategory": "Local Seat",
    "featured": false,
    "priority": 50
  },
  {
    "geonameId": 2957113,
    "name": "Althornbach",
    "latitude": 49.20376,
    "longitude": 7.37515,
    "category": "City",
    "subcategory": "Local Seat",
    "featured": false,
    "priority": 50
  },
  {
    "geonameId": 2957108,
    "name": "Althütte",
    "latitude": 48.91565,
    "longitude": 9.56984,
    "category": "City",
    "subcategory": "Local Seat",
    "featured": false,
    "priority": 50
  },
  {
    "geonameId": 2957103,
    "name": "Althüttendorf",
    "latitude": 52.96229,
    "longitude": 13.80724,
    "category": "City",
    "subcategory": "Local Seat",
    "featured": false,
    "priority": 50
  },
  {
    "geonameId": 2957073,
    "name": "Altkirchen",
    "latitude": 50.93333,
    "longitude": 12.35,
    "category": "City",
    "subcategory": "Local Seat",
    "featured": false,
    "priority": 50
  },
  {
    "geonameId": 2957069,
    "name": "Altkönig",
    "latitude": 50.21248,
    "longitude": 8.48239,
    "category": "Mountain",
    "subcategory": "Mountain",
    "featured": false,
    "priority": 50
  },
  {
    "geonameId": 2957054,
    "name": "Altlachberg",
    "latitude": 47.56891,
    "longitude": 11.37712,
    "category": "Mountain",
    "subcategory": "Mountain",
    "featured": false,
    "priority": 50
  },
  {
    "geonameId": 2957053,
    "name": "Altlacher Hochkopf",
    "latitude": 47.55452,
    "longitude": 11.35686,
    "category": "Mountain",
    "subcategory": "Mountain",
    "featured": false,
    "priority": 50
  },
  {
    "geonameId": 2957051,
    "name": "Altlandsberg",
    "latitude": 52.56503,
    "longitude": 13.72815,
    "category": "City",
    "subcategory": "City",
    "featured": false,
    "priority": 50
  },
  {
    "geonameId": 2957043,
    "name": "Altlay",
    "latitude": 49.98769,
    "longitude": 7.27182,
    "category": "City",
    "subcategory": "Local Seat",
    "featured": false,
    "priority": 50
  },
  {
    "geonameId": 2957040,
    "name": "Altleiningen",
    "latitude": 49.5075,
    "longitude": 8.07333,
    "category": "City",
    "subcategory": "Local Seat",
    "featured": false,
    "priority": 50
  },
  {
    "geonameId": 2957021,
    "name": "Altlußheim",
    "latitude": 49.30167,
    "longitude": 8.49917,
    "category": "City",
    "subcategory": "Local Seat",
    "featured": false,
    "priority": 50
  },
  {
    "geonameId": 2956987,
    "name": "Altmittweida",
    "latitude": 50.96667,
    "longitude": 12.95,
    "category": "City",
    "subcategory": "Local Seat",
    "featured": false,
    "priority": 50
  },
  {
    "geonameId": 3206790,
    "name": "Altmühlsee",
    "latitude": 49.13435,
    "longitude": 10.72513,
    "category": "Lake",
    "subcategory": "Lake",
    "featured": false,
    "priority": 50
  },
  {
    "geonameId": 2956951,
    "name": "Altomünster",
    "latitude": 48.38767,
    "longitude": 11.25691,
    "category": "City",
    "subcategory": "City",
    "featured": false,
    "priority": 50
  },
  {
    "geonameId": 13642668,
    "name": "Altonaer Volkspark",
    "latitude": 53.58057,
    "longitude": 9.9016,
    "category": "Park",
    "subcategory": "Park",
    "featured": false,
    "priority": 50
  },
  {
    "geonameId": 2956940,
    "name": "Altötting",
    "latitude": 48.22533,
    "longitude": 12.67665,
    "category": "City",
    "subcategory": "District Seat",
    "featured": false,
    "priority": 50
  },
  {
    "geonameId": 2956895,
    "name": "Altrhein",
    "latitude": 49.75971,
    "longitude": 8.40557,
    "category": "Lake",
    "subcategory": "Lake",
    "featured": false,
    "priority": 50
  },
  {
    "geonameId": 2947111,
    "name": "Altrhein Kleiner Bodensee",
    "latitude": 49.06694,
    "longitude": 8.35278,
    "category": "Lake",
    "subcategory": "Lake",
    "featured": false,
    "priority": 50
  },
  {
    "geonameId": 2956893,
    "name": "Altrich",
    "latitude": 49.95701,
    "longitude": 6.91217,
    "category": "City",
    "subcategory": "Local Seat",
    "featured": false,
    "priority": 50
  },
  {
    "geonameId": 2956891,
    "name": "Altrip",
    "latitude": 49.43556,
    "longitude": 8.49472,
    "category": "City",
    "subcategory": "Local Seat",
    "featured": false,
    "priority": 50
  },
  {
    "geonameId": 2956875,
    "name": "Altscheid",
    "latitude": 50.01667,
    "longitude": 6.4,
    "category": "City",
    "subcategory": "Local Seat",
    "featured": false,
    "priority": 50
  },
  {
    "geonameId": 2956871,
    "name": "Altscheuer",
    "latitude": 49.76386,
    "longitude": 8.79237,
    "category": "Mountain",
    "subcategory": "Mountain",
    "featured": false,
    "priority": 50
  },
  {
    "geonameId": 2956847,
    "name": "Altshausen",
    "latitude": 47.93333,
    "longitude": 9.53333,
    "category": "City",
    "subcategory": "Local Seat",
    "featured": false,
    "priority": 50
  },
  {
    "geonameId": 7647349,
    "name": "Altsteigerskopf",
    "latitude": 48.57868,
    "longitude": 8.22657,
    "category": "Mountain",
    "subcategory": "Mountain",
    "featured": false,
    "priority": 50
  },
  {
    "geonameId": 2956809,
    "name": "Altstrimmig",
    "latitude": 50.1,
    "longitude": 7.3,
    "category": "City",
    "subcategory": "Local Seat",
    "featured": false,
    "priority": 50
  },
  {
    "geonameId": 2956804,
    "name": "Altteich",
    "latitude": 51.76348,
    "longitude": 14.58658,
    "category": "Lake",
    "subcategory": "Lake",
    "featured": false,
    "priority": 50
  },
  {
    "geonameId": 2956787,
    "name": "Altusried",
    "latitude": 47.8041,
    "longitude": 10.21429,
    "category": "City",
    "subcategory": "City",
    "featured": false,
    "priority": 50
  },
  {
    "geonameId": 2956772,
    "name": "Altweidelbach",
    "latitude": 49.98333,
    "longitude": 7.56667,
    "category": "City",
    "subcategory": "Local Seat",
    "featured": false,
    "priority": 50
  },
  {
    "geonameId": 13623282,
    "name": "Alveser See",
    "latitude": 52.87343,
    "longitude": 9.15566,
    "category": "Lake",
    "subcategory": "Lake",
    "featured": false,
    "priority": 50
  },
  {
    "geonameId": 2956729,
    "name": "Alveslohe",
    "latitude": 53.7904,
    "longitude": 9.91487,
    "category": "City",
    "subcategory": "Local Seat",
    "featured": false,
    "priority": 50
  },
  {
    "geonameId": 2956715,
    "name": "Alzenau in Unterfranken",
    "latitude": 50.0888,
    "longitude": 9.06455,
    "category": "City",
    "subcategory": "City",
    "featured": false,
    "priority": 50
  },
  {
    "geonameId": 8379232,
    "name": "Alzenberg",
    "latitude": 48.89491,
    "longitude": 13.62674,
    "category": "Mountain",
    "subcategory": "Mountain",
    "featured": false,
    "priority": 50
  },
  {
    "geonameId": 2956710,
    "name": "Alzey",
    "latitude": 49.74657,
    "longitude": 8.11513,
    "category": "City",
    "subcategory": "District Seat",
    "featured": false,
    "priority": 50
  },
  {
    "geonameId": 2956495,
    "name": "Am Kapf",
    "latitude": 47.58333,
    "longitude": 10.03333,
    "category": "Mountain",
    "subcategory": "Mountain",
    "featured": false,
    "priority": 50
  },
  {
    "geonameId": 2887126,
    "name": "Am Knochen",
    "latitude": 50.53634,
    "longitude": 12.81996,
    "category": "Mountain",
    "subcategory": "Mountain",
    "featured": false,
    "priority": 50
  },
  {
    "geonameId": 6939916,
    "name": "Am roten Kopf",
    "latitude": 47.54139,
    "longitude": 10.17639,
    "category": "Mountain",
    "subcategory": "Peak",
    "featured": false,
    "priority": 50
  },
  {
    "geonameId": 2956313,
    "name": "Am Steinel",
    "latitude": 50.45,
    "longitude": 12.95,
    "category": "Mountain",
    "subcategory": "Mountain",
    "featured": false,
    "priority": 50
  },
  {
    "geonameId": 12212540,
    "name": "Amalienhöhe (Heiligenberg)",
    "latitude": 47.82199,
    "longitude": 9.32054,
    "category": "Mountain",
    "subcategory": "Mountain",
    "featured": false,
    "priority": 50
  },
  {
    "geonameId": 2956656,
    "name": "Amberg",
    "latitude": 49.44287,
    "longitude": 11.86267,
    "category": "City",
    "subcategory": "District Seat",
    "featured": false,
    "priority": 50
  },
  {
    "geonameId": 2956599,
    "name": "Ameisenbuck",
    "latitude": 47.76667,
    "longitude": 7.68333,
    "category": "Mountain",
    "subcategory": "Mountain",
    "featured": false,
    "priority": 50
  },
  {
    "geonameId": 2956584,
    "name": "Amelinghausen",
    "latitude": 53.12397,
    "longitude": 10.21274,
    "category": "City",
    "subcategory": "Local Seat",
    "featured": false,
    "priority": 50
  },
  {
    "geonameId": 2956570,
    "name": "Amerang",
    "latitude": 47.99139,
    "longitude": 12.30795,
    "category": "City",
    "subcategory": "Local Seat",
    "featured": false,
    "priority": 50
  },
  {
    "geonameId": 2956564,
    "name": "Amerdingen",
    "latitude": 48.72572,
    "longitude": 10.48561,
    "category": "City",
    "subcategory": "Local Seat",
    "featured": false,
    "priority": 50
  },
  {
    "geonameId": 2956426,
    "name": "Ammersee",
    "latitude": 47.99668,
    "longitude": 11.12716,
    "category": "Lake",
    "subcategory": "Lake",
    "featured": false,
    "priority": 50
  },
  {
    "geonameId": 2958092,
    "name": "Ammerthal",
    "latitude": 49.44123,
    "longitude": 11.76181,
    "category": "City",
    "subcategory": "Local Seat",
    "featured": false,
    "priority": 50
  },
  {
    "geonameId": 2956404,
    "name": "Amöneburg",
    "latitude": 50.79595,
    "longitude": 8.9233,
    "category": "City",
    "subcategory": "City",
    "featured": false,
    "priority": 50
  },
  {
    "geonameId": 2956378,
    "name": "Ampfing",
    "latitude": 48.254,
    "longitude": 12.41515,
    "category": "City",
    "subcategory": "Local Seat",
    "featured": false,
    "priority": 50
  },
  {
    "geonameId": 2956359,
    "name": "Amrum",
    "latitude": 54.65974,
    "longitude": 8.33969,
    "category": "Island",
    "subcategory": "Island",
    "featured": false,
    "priority": 50
  },
  {
    "geonameId": 13178587,
    "name": "Amrum-Odde",
    "latitude": 54.70506,
    "longitude": 8.34876,
    "category": "Park",
    "subcategory": "Nature Reserve",
    "featured": false,
    "priority": 50
  },
  {
    "geonameId": 13178522,
    "name": "Amrumer Dünen",
    "latitude": 54.64622,
    "longitude": 8.3303,
    "category": "Park",
    "subcategory": "Nature Reserve",
    "featured": false,
    "priority": 50
  },
  {
    "geonameId": 2956310,
    "name": "Amstetten",
    "latitude": 48.57876,
    "longitude": 9.87388,
    "category": "City",
    "subcategory": "Local Seat",
    "featured": false,
    "priority": 50
  },
  {
    "geonameId": 13645100,
    "name": "Amtssee",
    "latitude": 52.89506,
    "longitude": 13.88713,
    "category": "Lake",
    "subcategory": "Lake",
    "featured": false,
    "priority": 50
  },
  {
    "geonameId": 2956277,
    "name": "Amtzell",
    "latitude": 47.7,
    "longitude": 9.75,
    "category": "City",
    "subcategory": "Local Seat",
    "featured": false,
    "priority": 50
  },
  {
    "geonameId": 8604738,
    "name": "An den zwei Steinen",
    "latitude": 49.83412,
    "longitude": 7.22579,
    "category": "Mountain",
    "subcategory": "Mountain",
    "featured": false,
    "priority": 50
  },
  {
    "geonameId": 2956253,
    "name": "Andechs",
    "latitude": 47.97464,
    "longitude": 11.18279,
    "category": "City",
    "subcategory": "Local Seat",
    "featured": false,
    "priority": 50
  },
  {
    "geonameId": 2956212,
    "name": "Anderlingen",
    "latitude": 53.37436,
    "longitude": 9.30357,
    "category": "City",
    "subcategory": "Local Seat",
    "featured": false,
    "priority": 50
  },
  {
    "geonameId": 2956211,
    "name": "Anderlkopf",
    "latitude": 47.61667,
    "longitude": 11.56667,
    "category": "Mountain",
    "subcategory": "Mountain",
    "featured": false,
    "priority": 50
  },
  {
    "geonameId": 2956206,
    "name": "Andernach",
    "latitude": 50.43109,
    "longitude": 7.40425,
    "category": "City",
    "subcategory": "City",
    "featured": false,
    "priority": 50
  },
  {
    "geonameId": 2956179,
    "name": "Andisleben",
    "latitude": 51.08282,
    "longitude": 10.92786,
    "category": "City",
    "subcategory": "Local Seat",
    "featured": false,
    "priority": 50
  },
  {
    "geonameId": 2956152,
    "name": "Angelburg",
    "latitude": 50.78804,
    "longitude": 8.42954,
    "category": "Mountain",
    "subcategory": "Mountain",
    "featured": false,
    "priority": 50
  },
  {
    "geonameId": 2956148,
    "name": "Angelhofer Altrhein",
    "latitude": 49.36667,
    "longitude": 8.48333,
    "category": "Lake",
    "subcategory": "Lake",
    "featured": false,
    "priority": 50
  },
  {
    "geonameId": 2956143,
    "name": "Angelroda",
    "latitude": 50.74455,
    "longitude": 10.86659,
    "category": "City",
    "subcategory": "Local Seat",
    "featured": false,
    "priority": 50
  },
  {
    "geonameId": 2956119,
    "name": "Anger",
    "latitude": 47.80186,
    "longitude": 12.85808,
    "category": "City",
    "subcategory": "Local Seat",
    "featured": false,
    "priority": 50
  },
  {
    "geonameId": 3205436,
    "name": "Änger",
    "latitude": 47.71721,
    "longitude": 10.15993,
    "category": "Mountain",
    "subcategory": "Mountain",
    "featured": false,
    "priority": 50
  },
  {
    "geonameId": 6940134,
    "name": "Angerlkopf",
    "latitude": 47.7225,
    "longitude": 11.46722,
    "category": "Mountain",
    "subcategory": "Peak",
    "featured": false,
    "priority": 50
  },
  {
    "geonameId": 2956093,
    "name": "Angermünde",
    "latitude": 53.01499,
    "longitude": 13.99924,
    "category": "City",
    "subcategory": "City",
    "featured": false,
    "priority": 50
  },
  {
    "geonameId": 2956090,
    "name": "Angern",
    "latitude": 52.35,
    "longitude": 11.73333,
    "category": "City",
    "subcategory": "Local Seat",
    "featured": false,
    "priority": 50
  },
  {
    "geonameId": 2956077,
    "name": "Angertkopf",
    "latitude": 47.71667,
    "longitude": 11.46667,
    "category": "Mountain",
    "subcategory": "Mountain",
    "featured": false,
    "priority": 50
  },
  {
    "geonameId": 2956044,
    "name": "Anhausen",
    "latitude": 50.5,
    "longitude": 7.55,
    "category": "City",
    "subcategory": "Local Seat",
    "featured": false,
    "priority": 50
  },
  {
    "geonameId": 13511519,
    "name": "Ankerscher See",
    "latitude": 53.68929,
    "longitude": 10.64587,
    "category": "Lake",
    "subcategory": "Lake",
    "featured": false,
    "priority": 50
  },
  {
    "geonameId": 2956018,
    "name": "Anklam",
    "latitude": 53.85637,
    "longitude": 13.68965,
    "category": "City",
    "subcategory": "City",
    "featured": false,
    "priority": 50
  },
  {
    "geonameId": 13488768,
    "name": "Anklamer Stadtpark",
    "latitude": 53.85296,
    "longitude": 13.68789,
    "category": "Park",
    "subcategory": "Park",
    "featured": false,
    "priority": 50
  },
  {
    "geonameId": 2956014,
    "name": "Ankum",
    "latitude": 52.54153,
    "longitude": 7.87478,
    "category": "City",
    "subcategory": "Local Seat",
    "featured": false,
    "priority": 50
  },
  {
    "geonameId": 2956005,
    "name": "Annaberg-Buchholz",
    "latitude": 50.57953,
    "longitude": 13.00627,
    "category": "City",
    "subcategory": "District Seat",
    "featured": false,
    "priority": 50
  },
  {
    "geonameId": 2955991,
    "name": "Annahöhe",
    "latitude": 50.66818,
    "longitude": 13.2472,
    "category": "Mountain",
    "subcategory": "Mountain",
    "featured": false,
    "priority": 50
  },
  {
    "geonameId": 2955986,
    "name": "Annasee",
    "latitude": 49.06251,
    "longitude": 9.33409,
    "category": "Lake",
    "subcategory": "Lake",
    "featured": false,
    "priority": 50
  },
  {
    "geonameId": 2955951,
    "name": "Annweiler am Trifels",
    "latitude": 49.20613,
    "longitude": 7.97527,
    "category": "City",
    "subcategory": "City",
    "featured": false,
    "priority": 50
  },
  {
    "geonameId": 2955940,
    "name": "Anröchte",
    "latitude": 51.56667,
    "longitude": 8.33333,
    "category": "City",
    "subcategory": "Local Seat",
    "featured": false,
    "priority": 50
  },
  {
    "geonameId": 2955936,
    "name": "Ansbach",
    "latitude": 49.30481,
    "longitude": 10.5931,
    "category": "City",
    "subcategory": "County Seat",
    "featured": false,
    "priority": 50
  },
  {
    "geonameId": 2955931,
    "name": "Anschau",
    "latitude": 50.3,
    "longitude": 7.1,
    "category": "City",
    "subcategory": "Local Seat",
    "featured": false,
    "priority": 50
  },
  {
    "geonameId": 2955914,
    "name": "Antdorf",
    "latitude": 47.75133,
    "longitude": 11.30845,
    "category": "City",
    "subcategory": "Local Seat",
    "featured": false,
    "priority": 50
  },
  {
    "geonameId": 2955868,
    "name": "Antweiler",
    "latitude": 50.4,
    "longitude": 6.83333,
    "category": "City",
    "subcategory": "Local Seat",
    "featured": false,
    "priority": 50
  },
  {
    "geonameId": 2955835,
    "name": "Anzing",
    "latitude": 48.15171,
    "longitude": 11.8533,
    "category": "City",
    "subcategory": "Local Seat",
    "featured": false,
    "priority": 50
  },
  {
    "geonameId": 13522237,
    "name": "Apeler See",
    "latitude": 53.5098,
    "longitude": 8.65348,
    "category": "Lake",
    "subcategory": "Lake",
    "featured": false,
    "priority": 50
  },
  {
    "geonameId": 2955822,
    "name": "Apelern",
    "latitude": 52.28979,
    "longitude": 9.3358,
    "category": "City",
    "subcategory": "Local Seat",
    "featured": false,
    "priority": 50
  },
  {
    "geonameId": 2955817,
    "name": "Apen",
    "latitude": 53.22128,
    "longitude": 7.80947,
    "category": "City",
    "subcategory": "Local Seat",
    "featured": false,
    "priority": 50
  },
  {
    "geonameId": 2955815,
    "name": "Apensen",
    "latitude": 53.43832,
    "longitude": 9.61737,
    "category": "City",
    "subcategory": "Local Seat",
    "featured": false,
    "priority": 50
  },
  {
    "geonameId": 2955810,
    "name": "Apert",
    "latitude": 50.20078,
    "longitude": 6.56101,
    "category": "Mountain",
    "subcategory": "Mountain",
    "featured": false,
    "priority": 50
  },
  {
    "geonameId": 2955798,
    "name": "Apfelberg",
    "latitude": 49.67829,
    "longitude": 9.61184,
    "category": "Mountain",
    "subcategory": "Mountain",
    "featured": false,
    "priority": 50
  },
  {
    "geonameId": 3205437,
    "name": "Apfeldorf",
    "latitude": 47.9,
    "longitude": 10.93333,
    "category": "City",
    "subcategory": "Local Seat",
    "featured": false,
    "priority": 50
  },
  {
    "geonameId": 2955788,
    "name": "Apfels See",
    "latitude": 52.95,
    "longitude": 14,
    "category": "Lake",
    "subcategory": "Lake",
    "featured": false,
    "priority": 50
  },
  {
    "geonameId": 10286008,
    "name": "Apfelskopf",
    "latitude": 49.4467,
    "longitude": 8.74623,
    "category": "Mountain",
    "subcategory": "Mountain",
    "featured": false,
    "priority": 50
  },
  {
    "geonameId": 2955780,
    "name": "Apfeltrach",
    "latitude": 48.01667,
    "longitude": 10.5,
    "category": "City",
    "subcategory": "Local Seat",
    "featured": false,
    "priority": 50
  },
  {
    "geonameId": 2955770,
    "name": "Apolda",
    "latitude": 51.02624,
    "longitude": 11.51638,
    "category": "City",
    "subcategory": "District Seat",
    "featured": false,
    "priority": 50
  },
  {
    "geonameId": 2955762,
    "name": "Appel",
    "latitude": 53.3906,
    "longitude": 9.74565,
    "category": "City",
    "subcategory": "Local Seat",
    "featured": false,
    "priority": 50
  },
  {
    "geonameId": 3204970,
    "name": "Appelsberg",
    "latitude": 50.72711,
    "longitude": 9.82839,
    "category": "Mountain",
    "subcategory": "Mountain",
    "featured": false,
    "priority": 50
  },
  {
    "geonameId": 2955745,
    "name": "Appen",
    "latitude": 53.65813,
    "longitude": 9.74582,
    "category": "City",
    "subcategory": "Local Seat",
    "featured": false,
    "priority": 50
  },
  {
    "geonameId": 2955732,
    "name": "Appenheim",
    "latitude": 49.93,
    "longitude": 8.03333,
    "category": "City",
    "subcategory": "Local Seat",
    "featured": false,
    "priority": 50
  },
  {
    "geonameId": 2955722,
    "name": "Appenweier",
    "latitude": 48.53333,
    "longitude": 7.98333,
    "category": "City",
    "subcategory": "Local Seat",
    "featured": false,
    "priority": 50
  },
  {
    "geonameId": 2955701,
    "name": "Arbach",
    "latitude": 50.28333,
    "longitude": 7.05,
    "category": "City",
    "subcategory": "Local Seat",
    "featured": false,
    "priority": 50
  },
  {
    "geonameId": 13578236,
    "name": "Archäologischer Park",
    "latitude": 53.28343,
    "longitude": 12.34809,
    "category": "Park",
    "subcategory": "Park",
    "featured": false,
    "priority": 50
  },
  {
    "geonameId": 2955679,
    "name": "Archenkopf",
    "latitude": 47.56672,
    "longitude": 12.96956,
    "category": "Mountain",
    "subcategory": "Mountain",
    "featured": false,
    "priority": 50
  },
  {
    "geonameId": 2955671,
    "name": "Archtalkopf",
    "latitude": 47.56056,
    "longitude": 11.19569,
    "category": "Mountain",
    "subcategory": "Mountain",
    "featured": false,
    "priority": 50
  },
  {
    "geonameId": 2955662,
    "name": "Aremberg",
    "latitude": 50.41667,
    "longitude": 6.8,
    "category": "City",
    "subcategory": "Local Seat",
    "featured": false,
    "priority": 50
  },
  {
    "geonameId": 2955653,
    "name": "Arendsee",
    "latitude": 52.88943,
    "longitude": 11.47556,
    "category": "Lake",
    "subcategory": "Lake",
    "featured": false,
    "priority": 50
  },
  {
    "geonameId": 2955647,
    "name": "Arenholzer See",
    "latitude": 54.53991,
    "longitude": 9.48512,
    "category": "Lake",
    "subcategory": "Lake",
    "featured": false,
    "priority": 50
  },
  {
    "geonameId": 2955645,
    "name": "Arenrath",
    "latitude": 49.95,
    "longitude": 6.73333,
    "category": "City",
    "subcategory": "Local Seat",
    "featured": false,
    "priority": 50
  },
  {
    "geonameId": 2955633,
    "name": "Arenshausen",
    "latitude": 51.37613,
    "longitude": 9.9687,
    "category": "City",
    "subcategory": "Local Seat",
    "featured": false,
    "priority": 50
  },
  {
    "geonameId": 2955626,
    "name": "Aresing",
    "latitude": 48.53333,
    "longitude": 11.3,
    "category": "City",
    "subcategory": "Local Seat",
    "featured": false,
    "priority": 50
  },
  {
    "geonameId": 2955619,
    "name": "Arft",
    "latitude": 50.38333,
    "longitude": 7.08333,
    "category": "City",
    "subcategory": "Local Seat",
    "featured": false,
    "priority": 50
  },
  {
    "geonameId": 2955610,
    "name": "Argenschwang",
    "latitude": 49.88333,
    "longitude": 7.7,
    "category": "City",
    "subcategory": "Local Seat",
    "featured": false,
    "priority": 50
  },
  {
    "geonameId": 2955608,
    "name": "Argensee",
    "latitude": 47.77616,
    "longitude": 9.92669,
    "category": "Lake",
    "subcategory": "Lake",
    "featured": false,
    "priority": 50
  },
  {
    "geonameId": 2955605,
    "name": "Argenthal",
    "latitude": 49.96667,
    "longitude": 7.6,
    "category": "City",
    "subcategory": "Local Seat",
    "featured": false,
    "priority": 50
  },
  {
    "geonameId": 2955598,
    "name": "Arholzen",
    "latitude": 51.86667,
    "longitude": 9.56667,
    "category": "City",
    "subcategory": "Local Seat",
    "featured": false,
    "priority": 50
  },
  {
    "geonameId": 2955592,
    "name": "Arkebek",
    "latitude": 54.16033,
    "longitude": 9.25147,
    "category": "City",
    "subcategory": "Local Seat",
    "featured": false,
    "priority": 50
  },
  {
    "geonameId": 2955587,
    "name": "Arkenbude",
    "latitude": 52.45,
    "longitude": 12.75,
    "category": "Island",
    "subcategory": "Island",
    "featured": false,
    "priority": 50
  },
  {
    "geonameId": 13211861,
    "name": "Arlau-Speicherbecken",
    "latitude": 54.5355,
    "longitude": 8.89695,
    "category": "Lake",
    "subcategory": "Reservoir",
    "featured": false,
    "priority": 50
  },
  {
    "geonameId": 2955570,
    "name": "Arlewatt",
    "latitude": 54.5394,
    "longitude": 9.08371,
    "category": "City",
    "subcategory": "Local Seat",
    "featured": false,
    "priority": 50
  },
  {
    "geonameId": 8256221,
    "name": "Armbrunnenkopf",
    "latitude": 49.27164,
    "longitude": 7.93488,
    "category": "Mountain",
    "subcategory": "Mountain",
    "featured": false,
    "priority": 50
  },
  {
    "geonameId": 2955542,
    "name": "Armsheim",
    "latitude": 49.80972,
    "longitude": 8.05667,
    "category": "City",
    "subcategory": "Local Seat",
    "featured": false,
    "priority": 50
  },
  {
    "geonameId": 2955541,
    "name": "Armstedt",
    "latitude": 53.97133,
    "longitude": 9.8471,
    "category": "City",
    "subcategory": "Local Seat",
    "featured": false,
    "priority": 50
  },
  {
    "geonameId": 2955538,
    "name": "Armstorf",
    "latitude": 53.59688,
    "longitude": 9.07115,
    "category": "City",
    "subcategory": "Local Seat",
    "featured": false,
    "priority": 50
  },
  {
    "geonameId": 2955527,
    "name": "Arnbruck",
    "latitude": 49.13012,
    "longitude": 12.9982,
    "category": "City",
    "subcategory": "Local Seat",
    "featured": false,
    "priority": 50
  },
  {
    "geonameId": 2955501,
    "name": "Arnis",
    "latitude": 54.6306,
    "longitude": 9.93203,
    "category": "City",
    "subcategory": "Local Seat",
    "featured": false,
    "priority": 50
  },
  {
    "geonameId": 2955471,
    "name": "Arnsberg",
    "latitude": 51.38333,
    "longitude": 8.08333,
    "category": "City",
    "subcategory": "County Seat",
    "featured": false,
    "priority": 50
  },
  {
    "geonameId": 2955464,
    "name": "Arnschwang",
    "latitude": 49.27663,
    "longitude": 12.81595,
    "category": "City",
    "subcategory": "Local Seat",
    "featured": false,
    "priority": 50
  },
  {
    "geonameId": 2955459,
    "name": "Arnsdorf",
    "latitude": 51.0942,
    "longitude": 13.99176,
    "category": "City",
    "subcategory": "Local Seat",
    "featured": false,
    "priority": 50
  },
  {
    "geonameId": 2955443,
    "name": "Arnshöfen",
    "latitude": 50.54056,
    "longitude": 7.87,
    "category": "City",
    "subcategory": "Local Seat",
    "featured": false,
    "priority": 50
  },
  {
    "geonameId": 2955439,
    "name": "Arnstadt",
    "latitude": 50.84048,
    "longitude": 10.95198,
    "category": "City",
    "subcategory": "District Seat",
    "featured": false,
    "priority": 50
  },
  {
    "geonameId": 2955431,
    "name": "Arnstein",
    "latitude": 49.97767,
    "longitude": 9.96983,
    "category": "City",
    "subcategory": "City",
    "featured": false,
    "priority": 50
  },
  {
    "geonameId": 2955429,
    "name": "Arnstorf",
    "latitude": 48.5584,
    "longitude": 12.81674,
    "category": "City",
    "subcategory": "City",
    "featured": false,
    "priority": 50
  },
  {
    "geonameId": 2955415,
    "name": "Arpsdorf",
    "latitude": 54.03885,
    "longitude": 9.85904,
    "category": "City",
    "subcategory": "Local Seat",
    "featured": false,
    "priority": 50
  },
  {
    "geonameId": 2955410,
    "name": "Arrach",
    "latitude": 49.19149,
    "longitude": 12.99387,
    "category": "City",
    "subcategory": "Local Seat",
    "featured": false,
    "priority": 50
  },
  {
    "geonameId": 11002029,
    "name": "Arsenalgarten",
    "latitude": 48.89523,
    "longitude": 9.18973,
    "category": "Park",
    "subcategory": "Park",
    "featured": false,
    "priority": 50
  },
  {
    "geonameId": 2955394,
    "name": "Artern",
    "latitude": 51.36431,
    "longitude": 11.29167,
    "category": "City",
    "subcategory": "City",
    "featured": false,
    "priority": 50
  },
  {
    "geonameId": 2955376,
    "name": "Arzbach",
    "latitude": 50.37902,
    "longitude": 7.74948,
    "category": "City",
    "subcategory": "Local Seat",
    "featured": false,
    "priority": 50
  },
  {
    "geonameId": 2955367,
    "name": "Arzberg",
    "latitude": 51.52887,
    "longitude": 13.12565,
    "category": "City",
    "subcategory": "Local Seat",
    "featured": false,
    "priority": 50
  },
  {
    "geonameId": 2955363,
    "name": "Arzfeld",
    "latitude": 50.08957,
    "longitude": 6.27069,
    "category": "City",
    "subcategory": "Local Seat",
    "featured": false,
    "priority": 50
  },
  {
    "geonameId": 2955354,
    "name": "Arztknochen",
    "latitude": 50.58359,
    "longitude": 12.93467,
    "category": "Mountain",
    "subcategory": "Mountain",
    "featured": false,
    "priority": 50
  },
  {
    "geonameId": 2955315,
    "name": "Asbach",
    "latitude": 50.66667,
    "longitude": 7.41667,
    "category": "City",
    "subcategory": "Local Seat",
    "featured": false,
    "priority": 50
  },
  {
    "geonameId": 3208324,
    "name": "Asbach-Bäumenheim",
    "latitude": 48.68333,
    "longitude": 10.81667,
    "category": "City",
    "subcategory": "Local Seat",
    "featured": false,
    "priority": 50
  },
  {
    "geonameId": 2955282,
    "name": "Ascha",
    "latitude": 49,
    "longitude": 12.63333,
    "category": "City",
    "subcategory": "Local Seat",
    "featured": false,
    "priority": 50
  },
  {
    "geonameId": 2955272,
    "name": "Aschaffenburg",
    "latitude": 49.97704,
    "longitude": 9.15214,
    "category": "City",
    "subcategory": "District Seat",
    "featured": false,
    "priority": 50
  },
  {
    "geonameId": 2863652,
    "name": "Aschau im Chiemgau",
    "latitude": 47.77689,
    "longitude": 12.32297,
    "category": "City",
    "subcategory": "City",
    "featured": false,
    "priority": 50
  },
  {
    "geonameId": 2955256,
    "name": "Aschauer Kopf",
    "latitude": 47.78012,
    "longitude": 12.29814,
    "category": "Mountain",
    "subcategory": "Mountain",
    "featured": false,
    "priority": 50
  },
  {
    "geonameId": 2955250,
    "name": "Aschbach",
    "latitude": 49.6,
    "longitude": 7.58333,
    "category": "City",
    "subcategory": "Local Seat",
    "featured": false,
    "priority": 50
  },
  {
    "geonameId": 2955231,
    "name": "Aschberg",
    "latitude": 50.38954,
    "longitude": 12.50877,
    "category": "Mountain",
    "subcategory": "Mountain",
    "featured": false,
    "priority": 50
  },
  {
    "geonameId": 2955224,
    "name": "Ascheberg",
    "latitude": 51.78333,
    "longitude": 7.61667,
    "category": "City",
    "subcategory": "Local Seat",
    "featured": false,
    "priority": 50
  },
  {
    "geonameId": 13348052,
    "name": "Ascheberger Warder",
    "latitude": 54.13995,
    "longitude": 10.35329,
    "category": "Island",
    "subcategory": "Island",
    "featured": false,
    "priority": 50
  },
  {
    "geonameId": 2955222,
    "name": "Ascheffel",
    "latitude": 54.43042,
    "longitude": 9.69982,
    "category": "City",
    "subcategory": "Local Seat",
    "featured": false,
    "priority": 50
  },
  {
    "geonameId": 2955221,
    "name": "Ascheid",
    "latitude": 51.31667,
    "longitude": 8.75,
    "category": "Mountain",
    "subcategory": "Mountain",
    "featured": false,
    "priority": 50
  },
  {
    "geonameId": 13657482,
    "name": "Aschener Moor",
    "latitude": 52.65952,
    "longitude": 8.31,
    "category": "Park",
    "subcategory": "Nature Reserve",
    "featured": false,
    "priority": 50
  },
  {
    "geonameId": 2955182,
    "name": "Aschenstein",
    "latitude": 48.81852,
    "longitude": 13.25661,
    "category": "Mountain",
    "subcategory": "Mountain",
    "featured": false,
    "priority": 50
  },
  {
    "geonameId": 2955168,
    "name": "Aschersleben",
    "latitude": 51.75742,
    "longitude": 11.46084,
    "category": "City",
    "subcategory": "City",
    "featured": false,
    "priority": 50
  },
  {
    "geonameId": 2955159,
    "name": "Aschheim",
    "latitude": 48.17112,
    "longitude": 11.71675,
    "category": "City",
    "subcategory": "Local Seat",
    "featured": false,
    "priority": 50
  },
  {
    "geonameId": 2955152,
    "name": "Aschler Berg",
    "latitude": 47.64841,
    "longitude": 11.08153,
    "category": "Mountain",
    "subcategory": "Mountain",
    "featured": false,
    "priority": 50
  },
  {
    "geonameId": 2955126,
    "name": "Asendorf",
    "latitude": 53.29266,
    "longitude": 9.97905,
    "category": "City",
    "subcategory": "Local Seat",
    "featured": false,
    "priority": 50
  },
  {
    "geonameId": 3206150,
    "name": "Aspach",
    "latitude": 48.96667,
    "longitude": 9.4,
    "category": "City",
    "subcategory": "Local Seat",
    "featured": false,
    "priority": 50
  },
  {
    "geonameId": 11279648,
    "name": "Aspen",
    "latitude": 48.22343,
    "longitude": 8.73654,
    "category": "Mountain",
    "subcategory": "Mountain",
    "featured": false,
    "priority": 50
  },
  {
    "geonameId": 2955068,
    "name": "Asperg",
    "latitude": 48.90525,
    "longitude": 9.13502,
    "category": "City",
    "subcategory": "City",
    "featured": false,
    "priority": 50
  },
  {
    "geonameId": 2955053,
    "name": "Aspisheim",
    "latitude": 49.9,
    "longitude": 7.98333,
    "category": "City",
    "subcategory": "Local Seat",
    "featured": false,
    "priority": 50
  },
  {
    "geonameId": 2955050,
    "name": "Assamstadt",
    "latitude": 49.42806,
    "longitude": 9.68611,
    "category": "City",
    "subcategory": "Local Seat",
    "featured": false,
    "priority": 50
  },
  {
    "geonameId": 2955037,
    "name": "Asseberg",
    "latitude": 50.21842,
    "longitude": 6.80098,
    "category": "Mountain",
    "subcategory": "Mountain",
    "featured": false,
    "priority": 50
  },
  {
    "geonameId": 2955025,
    "name": "Asselfingen",
    "latitude": 48.52959,
    "longitude": 10.19166,
    "category": "City",
    "subcategory": "Local Seat",
    "featured": false,
    "priority": 50
  },
  {
    "geonameId": 2955023,
    "name": "Asseln",
    "latitude": 51.52829,
    "longitude": 7.58914,
    "category": "City",
    "subcategory": "City",
    "featured": false,
    "priority": 50
  },
  {
    "geonameId": 2955009,
    "name": "Aßlar",
    "latitude": 50.59163,
    "longitude": 8.46273,
    "category": "City",
    "subcategory": "City",
    "featured": false,
    "priority": 50
  },
  {
    "geonameId": 2955007,
    "name": "Aßling",
    "latitude": 47.99297,
    "longitude": 12.00643,
    "category": "City",
    "subcategory": "Local Seat",
    "featured": false,
    "priority": 50
  },
  {
    "geonameId": 2954984,
    "name": "Astenberg",
    "latitude": 51.28908,
    "longitude": 8.31579,
    "category": "Mountain",
    "subcategory": "Mountain",
    "featured": false,
    "priority": 50
  },
  {
    "geonameId": 2954979,
    "name": "Astert",
    "latitude": 50.695,
    "longitude": 7.77833,
    "category": "City",
    "subcategory": "Local Seat",
    "featured": false,
    "priority": 50
  },
  {
    "geonameId": 2954938,
    "name": "Attenberg",
    "latitude": 50.96834,
    "longitude": 8.33407,
    "category": "Mountain",
    "subcategory": "Mountain",
    "featured": false,
    "priority": 50
  },
  {
    "geonameId": 2954932,
    "name": "Attendorn",
    "latitude": 51.12645,
    "longitude": 7.90333,
    "category": "City",
    "subcategory": "City",
    "featured": false,
    "priority": 50
  },
  {
    "geonameId": 2954921,
    "name": "Attenhausen",
    "latitude": 50.29197,
    "longitude": 7.87557,
    "category": "City",
    "subcategory": "Local Seat",
    "featured": false,
    "priority": 50
  },
  {
    "geonameId": 2954916,
    "name": "Attenhofen",
    "latitude": 48.65072,
    "longitude": 11.8485,
    "category": "City",
    "subcategory": "Local Seat",
    "featured": false,
    "priority": 50
  },
  {
    "geonameId": 2954910,
    "name": "Attenkirchen",
    "latitude": 48.50526,
    "longitude": 11.76011,
    "category": "City",
    "subcategory": "Local Seat",
    "featured": false,
    "priority": 50
  },
  {
    "geonameId": 2954906,
    "name": "Attenweiler",
    "latitude": 48.13333,
    "longitude": 9.7,
    "category": "City",
    "subcategory": "Local Seat",
    "featured": false,
    "priority": 50
  },
  {
    "geonameId": 2954897,
    "name": "Atting",
    "latitude": 48.89412,
    "longitude": 12.48776,
    "category": "City",
    "subcategory": "Local Seat",
    "featured": false,
    "priority": 50
  },
  {
    "geonameId": 7732487,
    "name": "Atzberg",
    "latitude": 49.60751,
    "longitude": 9.21933,
    "category": "Mountain",
    "subcategory": "Mountain",
    "featured": false,
    "priority": 50
  },
  {
    "geonameId": 7947502,
    "name": "Atzelberg",
    "latitude": 50.17481,
    "longitude": 8.38935,
    "category": "Mountain",
    "subcategory": "Mountain",
    "featured": false,
    "priority": 50
  },
  {
    "geonameId": 2954884,
    "name": "Atzelgift",
    "latitude": 50.7,
    "longitude": 7.83333,
    "category": "City",
    "subcategory": "Local Seat",
    "featured": false,
    "priority": 50
  },
  {
    "geonameId": 2954803,
    "name": "Au",
    "latitude": 47.95,
    "longitude": 7.83333,
    "category": "City",
    "subcategory": "Local Seat",
    "featured": false,
    "priority": 50
  },
  {
    "geonameId": 2954775,
    "name": "Au am Rhein",
    "latitude": 48.95,
    "longitude": 8.23333,
    "category": "City",
    "subcategory": "Local Seat",
    "featured": false,
    "priority": 50
  },
  {
    "geonameId": 2954088,
    "name": "Au in der Hallertau",
    "latitude": 48.55838,
    "longitude": 11.74138,
    "category": "City",
    "subcategory": "City",
    "featured": false,
    "priority": 50
  },
  {
    "geonameId": 2954723,
    "name": "Aubstadt",
    "latitude": 50.33333,
    "longitude": 10.43333,
    "category": "City",
    "subcategory": "Local Seat",
    "featured": false,
    "priority": 50
  },
  {
    "geonameId": 2954714,
    "name": "Auchtberg",
    "latitude": 48.26046,
    "longitude": 8.95923,
    "category": "Mountain",
    "subcategory": "Mountain",
    "featured": false,
    "priority": 50
  },
  {
    "geonameId": 2954708,
    "name": "Audeberg",
    "latitude": 50.55483,
    "longitude": 10.8084,
    "category": "Mountain",
    "subcategory": "Mountain",
    "featured": false,
    "priority": 50
  },
  {
    "geonameId": 2954704,
    "name": "Auderath",
    "latitude": 50.18333,
    "longitude": 7,
    "category": "City",
    "subcategory": "Local Seat",
    "featured": false,
    "priority": 50
  },
  {
    "geonameId": 2954699,
    "name": "Audorfer See",
    "latitude": 54.32053,
    "longitude": 9.71312,
    "category": "Lake",
    "subcategory": "Lake",
    "featured": false,
    "priority": 50
  },
  {
    "geonameId": 2954695,
    "name": "Aue",
    "latitude": 50.59034,
    "longitude": 12.70657,
    "category": "City",
    "subcategory": "City",
    "featured": false,
    "priority": 50
  },
  {
    "geonameId": 2954651,
    "name": "Auel",
    "latitude": 50.16667,
    "longitude": 7.76667,
    "category": "City",
    "subcategory": "Local Seat",
    "featured": false,
    "priority": 50
  },
  {
    "geonameId": 2954641,
    "name": "Auen",
    "latitude": 49.83333,
    "longitude": 7.6,
    "category": "City",
    "subcategory": "Local Seat",
    "featured": false,
    "priority": 50
  },
  {
    "geonameId": 10342015,
    "name": "Auensee",
    "latitude": 51.3688,
    "longitude": 12.31945,
    "category": "Lake",
    "subcategory": "Lake",
    "featured": false,
    "priority": 50
  },
  {
    "geonameId": 7733129,
    "name": "Auer Badesee",
    "latitude": 48.24645,
    "longitude": 10.08262,
    "category": "Lake",
    "subcategory": "Lake",
    "featured": false,
    "priority": 50
  },
  {
    "geonameId": 7645297,
    "name": "Auer Berg",
    "latitude": 47.77732,
    "longitude": 11.96727,
    "category": "Mountain",
    "subcategory": "Mountain",
    "featured": false,
    "priority": 50
  },
  {
    "geonameId": 2954601,
    "name": "Auerbach",
    "latitude": 50.68333,
    "longitude": 12.91667,
    "category": "City",
    "subcategory": "Local Seat",
    "featured": false,
    "priority": 50
  },
  {
    "geonameId": 2954579,
    "name": "Auerberg",
    "latitude": 47.72863,
    "longitude": 11.80451,
    "category": "Mountain",
    "subcategory": "Mountain",
    "featured": false,
    "priority": 50
  },
  {
    "geonameId": 7670978,
    "name": "Auergang",
    "latitude": 51.14775,
    "longitude": 8.18533,
    "category": "Mountain",
    "subcategory": "Mountain",
    "featured": false,
    "priority": 50
  },
  {
    "geonameId": 2954571,
    "name": "Auerhahnenkopf",
    "latitude": 49.40318,
    "longitude": 8.76095,
    "category": "Mountain",
    "subcategory": "Mountain",
    "featured": false,
    "priority": 50
  },
  {
    "geonameId": 6940081,
    "name": "Auerkamp",
    "latitude": 47.66111,
    "longitude": 11.66,
    "category": "Mountain",
    "subcategory": "Peak",
    "featured": false,
    "priority": 50
  },
  {
    "geonameId": 2954551,
    "name": "Auersberg",
    "latitude": 50.4563,
    "longitude": 12.64685,
    "category": "Mountain",
    "subcategory": "Mountain",
    "featured": false,
    "priority": 50
  },
  {
    "geonameId": 2954540,
    "name": "Auerspitz",
    "latitude": 47.64395,
    "longitude": 11.94518,
    "category": "Mountain",
    "subcategory": "Peak",
    "featured": false,
    "priority": 50
  },
  {
    "geonameId": 2954527,
    "name": "Auf dem Baldeberg",
    "latitude": 50.99752,
    "longitude": 8.35133,
    "category": "Mountain",
    "subcategory": "Mountain",
    "featured": false,
    "priority": 50
  },
  {
    "geonameId": 11265290,
    "name": "Auf dem Berg",
    "latitude": 48.62332,
    "longitude": 8.39034,
    "category": "Mountain",
    "subcategory": "Mountain",
    "featured": false,
    "priority": 50
  },
  {
    "geonameId": 2920626,
    "name": "Auf dem Gielsberg",
    "latitude": 48.43011,
    "longitude": 9.20006,
    "category": "Mountain",
    "subcategory": "Mountain",
    "featured": false,
    "priority": 50
  },
  {
    "geonameId": 7667529,
    "name": "Auf dem Köpfle",
    "latitude": 47.74628,
    "longitude": 7.91629,
    "category": "Mountain",
    "subcategory": "Mountain",
    "featured": false,
    "priority": 50
  },
  {
    "geonameId": 12212552,
    "name": "Auf dem Ösch",
    "latitude": 47.84785,
    "longitude": 10.37631,
    "category": "Mountain",
    "subcategory": "Mountain",
    "featured": false,
    "priority": 50
  },