[
  {
    "geonameId": 3575906,
    "name": "Bellevue Mountain",
    "latitude": 15.6151,
    "longitude": -61.43137,
    "category": "Mountain",
    "subcategory": "Mountain",
    "featured": false,
    "priority": 50
  },
  {
    "geonameId": 3575899,
    "name": "Berekua",
    "latitude": 15.23333,
    "longitude": -61.31667,
    "category": "City",
    "subcategory": "Regional Capital",
    "featured": false,
    "priority": 50
  },
  {
    "geonameId": 3575894,
    "name": "Boeri Lake",
    "latitude": 15.3522,
    "longitude": -61.3211,
    "category": "Lake",
    "subcategory": "Lake",
    "featured": false,
    "priority": 50
  },
  {
    "geonameId": 3575890,
    "name": "Bois d’Inde",
    "latitude": 15.23196,
    "longitude": -61.31868,
    "category": "Mountain",
    "subcategory": "Mountain",
    "featured": false,
    "priority": 50
  },
  {
    "geonameId": 11897687,
    "name": "Cabrits National Park",
    "latitude": 15.58679,
    "longitude": -61.47161,
    "category": "Park",
    "subcategory": "Park",
    "featured": false,
    "priority": 50
  },
  {
    "geonameId": 3575857,
    "name": "Colihaut",
    "latitude": 15.48478,
    "longitude": -61.46215,
    "category": "City",
    "subcategory": "Regional Capital",
    "featured": false,
    "priority": 50
  },
  {
    "geonameId": 3575834,
    "name": "Deux Jardins",
    "latitude": 15.38639,
    "longitude": -61.40554,
    "category": "Mountain",
    "subcategory": "Mountain",
    "featured": false,
    "priority": 50
  },
  {
    "geonameId": 3575831,
    "name": "Dominica",
    "latitude": 15.43713,
    "longitude": -61.34216,
    "category": "Island",
    "subcategory": "Island",
    "featured": false,
    "priority": 50
  },
  {
    "geonameId": 3575817,
    "name": "Fabre Hill",
    "latitude": 15.24914,
    "longitude": -61.27345,
    "category": "Mountain",
    "subcategory": "Mountain",
    "featured": false,
    "priority": 50
  },
  {
    "geonameId": 3575811,
    "name": "Foundland",
    "latitude": 15.27219,
    "longitude": -61.28685,
    "category": "Mountain",
    "subcategory": "Mountain",
    "featured": false,
    "priority": 50
  },
  {
    "geonameId": 3575807,
    "name": "Fresh Water Lake",
    "latitude": 15.34366,
    "longitude": -61.308,
    "category": "Lake",
    "subcategory": "Lake",
    "featured": false,
    "priority": 50
  },
  {
    "geonameId": 3575781,
    "name": "Gros L’Ilet",
    "latitude": 15.49318,
    "longitude": -61.2457,
    "category": "Island",
    "subcategory": "Island",
    "featured": false,
    "priority": 50
  },
  {
    "geonameId": 9063956,
    "name": "Lindo Park",
    "latitude": 15.30471,
    "longitude": -61.38565,
    "category": "Park",
    "subcategory": "Park",
    "featured": false,
    "priority": 50
  },
  {
    "geonameId": 3575724,
    "name": "Mang Peak",
    "latitude": 15.47476,
    "longitude": -61.33982,
    "category": "Mountain",
    "subcategory": "Peak",
    "featured": false,
    "priority": 50
  },
  {
    "geonameId": 3575840,
    "name": "Morne aux Delices",
    "latitude": 15.3868,
    "longitude": -61.26352,
    "category": "Mountain",
    "subcategory": "Mountain",
    "featured": false,
    "priority": 50
  },
  {
    "geonameId": 3575833,
    "name": "Morne aux Diables",
    "latitude": 15.61265,
    "longitude": -61.43592,
    "category": "Mountain",
    "subcategory": "Mountain",
    "featured": false,
    "priority": 50
  },
  {
    "geonameId": 3575918,
    "name": "Morne Balvine",
    "latitude": 15.55384,
    "longitude": -61.44183,
    "category": "Mountain",
    "subcategory": "Mountain",
    "featured": false,
    "priority": 50
  },
  {
    "geonameId": 3575884,
    "name": "Morne Brulés",
    "latitude": 15.59214,
    "longitude": -61.43572,
    "category": "Mountain",
    "subcategory": "Mountain",
    "featured": false,
    "priority": 50
  },
  {
    "geonameId": 3575858,
    "name": "Morne Cola Anglais",
    "latitude": 15.35567,
    "longitude": -61.36698,
    "category": "Mountain",
    "subcategory": "Mountain",
    "featured": false,
    "priority": 50
  },
  {
    "geonameId": 3575855,
    "name": "Morne Concorde",
    "latitude": 15.51221,
    "longitude": -61.30063,
    "category": "Mountain",
    "subcategory": "Mountain",
    "featured": false,
    "priority": 50
  },
  {
    "geonameId": 3575850,
    "name": "Morne Couronne",
    "latitude": 15.4038,
    "longitude": -61.35746,
    "category": "Mountain",
    "subcategory": "Mountain",
    "featured": false,
    "priority": 50
  },
  {
    "geonameId": 3575835,
    "name": "Morne Destinée",
    "latitude": 15.58992,
    "longitude": -61.42739,
    "category": "Mountain",
    "subcategory": "Mountain",
    "featured": false,
    "priority": 50
  },
  {
    "geonameId": 11153665,
    "name": "Morne Diablotin National Park",
    "latitude": 15.5,
    "longitude": -61.4,
    "category": "Park",
    "subcategory": "Nature Reserve",
    "featured": false,
    "priority": 50
  },
  {
    "geonameId": 3575832,
    "name": "Morne Diablotins",
    "latitude": 15.50348,
    "longitude": -61.39795,
    "category": "Mountain",
    "subcategory": "Peak",
    "featured": false,
    "priority": 50
  },
  {
    "geonameId": 3575819,
    "name": "Morne Espagnol",
    "latitude": 15.52508,
    "longitude": -61.47096,
    "category": "Mountain",
    "subcategory": "Mountain",
    "featured": false,
    "priority": 50
  },
  {
    "geonameId": 3575808,
    "name": "Morne Fraser",
    "latitude": 15.45206,
    "longitude": -61.27763,
    "category": "Mountain",
    "subcategory": "Mountain",
    "featured": false,
    "priority": 50
  },
  {
    "geonameId": 3575790,
    "name": "Morne Gouverneur",
    "latitude": 15.31994,
    "longitude": -61.27461,
    "category": "Mountain",
    "subcategory": "Mountain",
    "featured": false,
    "priority": 50
  },
  {
    "geonameId": 3575766,
    "name": "Morne Jalousie",
    "latitude": 15.4669,
    "longitude": -61.43127,
    "category": "Mountain",
    "subcategory": "Mountain",
    "featured": false,
    "priority": 50
  },
  {
    "geonameId": 3575743,
    "name": "Morne Les Resources",
    "latitude": 15.50189,
    "longitude": -61.41341,
    "category": "Mountain",
    "subcategory": "Mountain",
    "featured": false,
    "priority": 50
  },
  {
    "geonameId": 3575736,
    "name": "Morne Macaque",
    "latitude": 15.34214,
    "longitude": -61.31917,
    "category": "Mountain",
    "subcategory": "Mountain",
    "featured": false,
    "priority": 50
  },
  {
    "geonameId": 3575690,
    "name": "Morne Negres Marrons",
    "latitude": 15.40866,
    "longitude": -61.33199,
    "category": "Mountain",
    "subcategory": "Mountain",
    "featured": false,
    "priority": 50
  },
  {
    "geonameId": 3575678,
    "name": "Morne Paix Bouche",
    "latitude": 15.26236,
    "longitude": -61.26411,
    "category": "Mountain",
    "subcategory": "Mountain",
    "featured": false,
    "priority": 50
  },
  {
    "geonameId": 3575676,
    "name": "Morne Patates",
    "latitude": 15.22664,
    "longitude": -61.35588,
    "category": "Mountain",
    "subcategory": "Mountain",
    "featured": false,
    "priority": 50
  },
  {
    "geonameId": 3575661,
    "name": "Morne Plat Pays",
    "latitude": 15.24942,
    "longitude": -61.34708,
    "category": "Mountain",
    "subcategory": "Mountain",
    "featured": false,
    "priority": 50
  },
  {
    "geonameId": 3575576,
    "name": "Morne Trois Pitons",
    "latitude": 15.36878,
    "longitude": -61.32731,
    "category": "Mountain",
    "subcategory": "Mountain",
    "featured": false,
    "priority": 50
  },
  {
    "geonameId": 11153666,
    "name": "Morne Trois Pitons National Park",
    "latitude": 15.325,
    "longitude": -61.31667,
    "category": "Park",
    "subcategory": "Nature Reserve",
    "featured": false,
    "priority": 50
  },
  {
    "geonameId": 3575574,
    "name": "Morne Turner",
    "latitude": 15.53749,
    "longitude": -61.41488,
    "category": "Mountain",
    "subcategory": "Mountain",
    "featured": false,
    "priority": 50
  },
  {
    "geonameId": 3575694,
    "name": "Mosquito Mountain",
    "latitude": 15.48533,
    "longitude": -61.38168,
    "category": "Mountain",
    "subcategory": "Mountain",
    "featured": false,
    "priority": 50
  },
  {
    "geonameId": 3575691,
    "name": "National Park",
    "latitude": 15.34158,
    "longitude": -61.29235,
    "category": "Park",
    "subcategory": "Park",
    "featured": false,
    "priority": 50
  },
  {
    "geonameId": 9063958,
    "name": "Newtown Savannah",
    "latitude": 15.29431,
    "longitude": -61.3831,
    "category": "Park",
    "subcategory": "Park",
    "featured": false,
    "priority": 50
  },
  {
    "geonameId": 12151272,
    "name": "Peebles Park",
    "latitude": 15.29601,
    "longitude": -61.38665,
    "category": "Park",
    "subcategory": "Park",
    "featured": false,
    "priority": 50
  },
  {
    "geonameId": 3575665,
    "name": "Petit L’Ilet",
    "latitude": 15.49487,
    "longitude": -61.25045,
    "category": "Island",
    "subcategory": "Island",
    "featured": false,
    "priority": 50
  },
  {
    "geonameId": 3575660,
    "name": "Pointe Michel",
    "latitude": 15.25976,
    "longitude": -61.37452,
    "category": "City",
    "subcategory": "Regional Capital",
    "featured": false,
    "priority": 50
  },
  {
    "geonameId": 3575656,
    "name": "Pont Cassé",
    "latitude": 15.36667,
    "longitude": -61.35,
    "category": "City",
    "subcategory": "Regional Capital",
    "featured": false,
    "priority": 50
  },
  {
    "geonameId": 3575654,
    "name": "Portsmouth",
    "latitude": 15.58288,
    "longitude": -61.45592,
    "category": "City",
    "subcategory": "Regional Capital",
    "featured": false,
    "priority": 50
  },
  {
    "geonameId": 3575639,
    "name": "Rosalie",
    "latitude": 15.36667,
    "longitude": -61.26667,
    "category": "City",
    "subcategory": "Regional Capital",
    "featured": false,
    "priority": 50
  },
  {
    "geonameId": 3575635,
    "name": "Roseau",
    "latitude": 15.30174,
    "longitude": -61.38808,
    "category": "City",
    "subcategory": "Capital",
    "featured": false,
    "priority": 50
  },
  {
    "geonameId": 3575624,
    "name": "Saint Joseph",
    "latitude": 15.4061,
    "longitude": -61.42374,
    "category": "City",
    "subcategory": "Regional Capital",
    "featured": false,
    "priority": 50
  },
  {
    "geonameId": 3575613,
    "name": "Salibia Isles",
    "latitude": 15.49314,
    "longitude": -61.24588,
    "category": "Island",
    "subcategory": "Island Group",
    "featured": false,
    "priority": 50
  },
  {
    "geonameId": 3575602,
    "name": "Soufrière",
    "latitude": 15.23374,
    "longitude": -61.35881,
    "category": "City",
    "subcategory": "Regional Capital",
    "featured": false,
    "priority": 50
  },
  {
    "geonameId": 3575577,
    "name": "Trafalgar Falls",
    "latitude": 15.32777,
    "longitude": -61.33345,
    "category": "Waterfall",
    "subcategory": "Waterfall",
    "featured": false,
    "priority": 50
  },
  {
    "geonameId": 3575569,
    "name": "Watt Mountain",
    "latitude": 15.30653,
    "longitude": -61.30533,
    "category": "Mountain",
    "subcategory": "Mountain",
    "featured": false,
    "priority": 50
  },
  {
    "geonameId": 3575568,
    "name": "Wesley",
    "latitude": 15.56667,
    "longitude": -61.31667,
    "category": "City",
    "subcategory": "Regional Capital",
    "featured": false,
    "priority": 50
  },
  {
    "geonameId": 12151271,
    "name": "Windsor Park",
    "latitude": 15.30186,
    "longitude": -61.38445,
    "category": "Park",
    "subcategory": "Park",
    "featured": false,
    "priority": 50
  }
]