[
  {
    "geonameId": 4036197,
    "name": "Adavaci Island",
    "latitude": -17.19985,
    "longitude": -179.00827,
    "category": "Island",
    "subcategory": "Island",
    "featured": false,
    "priority": 50
  },
  {
    "geonameId": 2205313,
    "name": "Admiralty Island",
    "latitude": -18.11667,
    "longitude": 178.4,
    "category": "Island",
    "subcategory": "Island",
    "featured": false,
    "priority": 50
  },
  {
    "geonameId": 2205312,
    "name": "Afgaha",
    "latitude": -12.52256,
    "longitude": 177.14785,
    "category": "Island",
    "subcategory": "Island",
    "featured": false,
    "priority": 50
  },
  {
    "geonameId": 2205310,
    "name": "Ahau",
    "latitude": -12.5,
    "longitude": 177.05,
    "category": "City",
    "subcategory": "Regional Capital",
    "featured": false,
    "priority": 50
  },
  {
    "geonameId": 4036201,
    "name": "Aiwa Islands",
    "latitude": -18.32453,
    "longitude": -178.70178,
    "category": "Island",
    "subcategory": "Island",
    "featured": false,
    "priority": 50
  },
  {
    "geonameId": 2205306,
    "name": "Alacrity Cays",
    "latitude": -17.74509,
    "longitude": 177.37656,
    "category": "Island",
    "subcategory": "Island Group",
    "featured": false,
    "priority": 50
  },
  {
    "geonameId": 11202460,
    "name": "Albert Park",
    "latitude": -18.14716,
    "longitude": 178.42486,
    "category": "Park",
    "subcategory": "Park",
    "featured": false,
    "priority": 50
  },
  {
    "geonameId": 2205286,
    "name": "Asses Ears",
    "latitude": -19.01667,
    "longitude": 178.2,
    "category": "Mountain",
    "subcategory": "Mountain",
    "featured": false,
    "priority": 50
  },
  {
    "geonameId": 2205284,
    "name": "Ausavo",
    "latitude": -18,
    "longitude": 177.51667,
    "category": "Mountain",
    "subcategory": "Mountain",
    "featured": false,
    "priority": 50
  },
  {
    "geonameId": 4036194,
    "name": "Avea Island",
    "latitude": -17.18763,
    "longitude": -178.90343,
    "category": "Island",
    "subcategory": "Island",
    "featured": false,
    "priority": 50
  },
  {
    "geonameId": 8335413,
    "name": "Ba",
    "latitude": -17.5343,
    "longitude": 177.67407,
    "category": "City",
    "subcategory": "County Seat",
    "featured": false,
    "priority": 50
  },
  {
    "geonameId": 4036193,
    "name": "Bacon Island",
    "latitude": -18.00372,
    "longitude": -178.41602,
    "category": "Island",
    "subcategory": "Island",
    "featured": false,
    "priority": 50
  },
  {
    "geonameId": 2203836,
    "name": "Bakabaka Island",
    "latitude": -16.80237,
    "longitude": 179.5254,
    "category": "Island",
    "subcategory": "Island",
    "featured": false,
    "priority": 50
  },
  {
    "geonameId": 2203835,
    "name": "Bala Island",
    "latitude": -19.04667,
    "longitude": 178.43574,
    "category": "Island",
    "subcategory": "Island",
    "featured": false,
    "priority": 50
  },
  {
    "geonameId": 2203834,
    "name": "Balaiyanuya Island",
    "latitude": -16.90763,
    "longitude": 177.43507,
    "category": "Island",
    "subcategory": "Island",
    "featured": false,
    "priority": 50
  },
  {
    "geonameId": 11618140,
    "name": "Baleyaganilia",
    "latitude": -16.33637,
    "longitude": 179.74684,
    "category": "Mountain",
    "subcategory": "Mountain",
    "featured": false,
    "priority": 50
  },
  {
    "geonameId": 2203779,
    "name": "Batiki",
    "latitude": -17.78274,
    "longitude": 179.15683,
    "category": "Island",
    "subcategory": "Island",
    "featured": false,
    "priority": 50
  },
  {
    "geonameId": 2196962,
    "name": "Batinareba",
    "latitude": -17.30665,
    "longitude": 177.10897,
    "category": "Mountain",
    "subcategory": "Mountain",
    "featured": false,
    "priority": 50
  },
  {
    "geonameId": 2203773,
    "name": "Batinatokalau",
    "latitude": -17.73656,
    "longitude": 177.77023,
    "category": "Mountain",
    "subcategory": "Mountain",
    "featured": false,
    "priority": 50
  },
  {
    "geonameId": 2203753,
    "name": "Bau Island",
    "latitude": -17.97231,
    "longitude": 178.61548,
    "category": "Island",
    "subcategory": "Island",
    "featured": false,
    "priority": 50
  },
  {
    "geonameId": 11619277,
    "name": "Baubau Islands",
    "latitude": -19.14732,
    "longitude": -178.56392,
    "category": "Island",
    "subcategory": "Island Group",
    "featured": false,
    "priority": 50
  },
  {
    "geonameId": 11619340,
    "name": "Baumasina Islands",
    "latitude": -19.11157,
    "longitude": -178.58486,
    "category": "Island",
    "subcategory": "Island Group",
    "featured": false,
    "priority": 50
  },
  {
    "geonameId": 10231799,
    "name": "Beachcomber Island",
    "latitude": -17.65402,
    "longitude": 177.25479,
    "category": "Island",
    "subcategory": "Island",
    "featured": false,
    "priority": 50
  },
  {
    "geonameId": 2203739,
    "name": "Bekana Island",
    "latitude": -17.58914,
    "longitude": 177.43965,
    "category": "Island",
    "subcategory": "Island",
    "featured": false,
    "priority": 50
  },
  {
    "geonameId": 2203731,
    "name": "Belo Island",
    "latitude": -17.94665,
    "longitude": 178.61266,
    "category": "Island",
    "subcategory": "Island",
    "featured": false,
    "priority": 50
  },
  {
    "geonameId": 2203726,
    "name": "Benauiwai Island",
    "latitude": -16.78039,
    "longitude": 179.86769,
    "category": "Island",
    "subcategory": "Island",
    "featured": false,
    "priority": 50
  },
  {
    "geonameId": 2203719,
    "name": "Beqa Island",
    "latitude": -18.39712,
    "longitude": 178.12448,
    "category": "Island",
    "subcategory": "Island",
    "featured": false,
    "priority": 50
  },
  {
    "geonameId": 2203703,
    "name": "Bila Island",
    "latitude": -16.79271,
    "longitude": 177.52416,
    "category": "Island",
    "subcategory": "Island",
    "featured": false,
    "priority": 50
  },
  {
    "geonameId": 2203653,
    "name": "Buabua Island",
    "latitude": -19.01892,
    "longitude": 178.47329,
    "category": "Island",
    "subcategory": "Island",
    "featured": false,
    "priority": 50
  },
  {
    "geonameId": 2203645,
    "name": "Buinimasilailai Island",
    "latitude": -19.02407,
    "longitude": 178.45949,
    "category": "Island",
    "subcategory": "Island",
    "featured": false,
    "priority": 50
  },
  {
    "geonameId": 2203644,
    "name": "Buinimasilevu Island",
    "latitude": -19.02347,
    "longitude": 178.45864,
    "category": "Island",
    "subcategory": "Island",
    "featured": false,
    "priority": 50
  },
  {
    "geonameId": 2203629,
    "name": "Bulebulewa",
    "latitude": -16.48217,
    "longitude": 179.06689,
    "category": "Mountain",
    "subcategory": "Mountain",
    "featured": false,
    "priority": 50
  },
  {
    "geonameId": 11233012,
    "name": "Bulia",
    "latitude": -18.38779,
    "longitude": 178.11916,
    "category": "Mountain",
    "subcategory": "Mountain",
    "featured": false,
    "priority": 50
  },
  {
    "geonameId": 2203620,
    "name": "Bulia Island",
    "latitude": -18.83833,
    "longitude": 178.53194,
    "category": "Island",
    "subcategory": "Island",
    "featured": false,
    "priority": 50
  },
  {
    "geonameId": 11191124,
    "name": "Bulibuligone",
    "latitude": -17.61418,
    "longitude": 178.22227,
    "category": "Mountain",
    "subcategory": "Mountain",
    "featured": false,
    "priority": 50
  },
  {
    "geonameId": 11499779,
    "name": "Bulu Island",
    "latitude": -16.88413,
    "longitude": 178.61615,
    "category": "Island",
    "subcategory": "Island",
    "featured": false,
    "priority": 50
  },
  {
    "geonameId": 11203599,
    "name": "Burelevu",
    "latitude": -17.69168,
    "longitude": 178.10004,
    "category": "Mountain",
    "subcategory": "Mountain",
    "featured": false,
    "priority": 50
  },
  {
    "geonameId": 2203564,
    "name": "Burua",
    "latitude": -18.06351,
    "longitude": 177.46474,
    "category": "Mountain",
    "subcategory": "Mountain",
    "featured": false,
    "priority": 50
  },
  {
    "geonameId": 11190771,
    "name": "Cacailiku",
    "latitude": -17.52655,
    "longitude": 178.2865,
    "category": "Mountain",
    "subcategory": "Mountain",
    "featured": false,
    "priority": 50
  },
  {
    "geonameId": 2197802,
    "name": "Cagalai Island",
    "latitude": -17.78822,
    "longitude": 178.73029,
    "category": "Island",
    "subcategory": "Island",
    "featured": false,
    "priority": 50
  },
  {
    "geonameId": 2197827,
    "name": "Cakari Island",
    "latitude": -16.41859,
    "longitude": 179.16286,
    "category": "Island",
    "subcategory": "Island",
    "featured": false,
    "priority": 50
  },
  {
    "geonameId": 11619212,
    "name": "Cakau-i-ra Island",
    "latitude": -20.60382,
    "longitude": -178.69817,
    "category": "Island",
    "subcategory": "Island",
    "featured": false,
    "priority": 50
  },
  {
    "geonameId": 2197821,
    "name": "Cakaudrove Island",
    "latitude": -16.73154,
    "longitude": 179.7798,
    "category": "Island",
    "subcategory": "Island",
    "featured": false,
    "priority": 50
  },
  {
    "geonameId": 2205278,
    "name": "Cakaunisici Island",
    "latitude": -18.345,
    "longitude": 178.00037,
    "category": "Island",
    "subcategory": "Island",
    "featured": false,
    "priority": 50
  },
  {
    "geonameId": 2197818,
    "name": "Cakauvo Island",
    "latitude": -16.7359,
    "longitude": 179.34999,
    "category": "Island",
    "subcategory": "Island",
    "featured": false,
    "priority": 50
  },
  {
    "geonameId": 11104025,
    "name": "Churchill Park",
    "latitude": -17.60712,
    "longitude": 177.45241,
    "category": "Park",
    "subcategory": "Park",
    "featured": false,
    "priority": 50
  },
  {
    "geonameId": 2197752,
    "name": "Cibacibanivore Island",
    "latitude": -18.95707,
    "longitude": 178.43689,
    "category": "Island",
    "subcategory": "Island",
    "featured": false,
    "priority": 50
  },
  {
    "geonameId": 4035880,
    "name": "Cicia Island",
    "latitude": -17.74706,
    "longitude": -179.31272,
    "category": "Island",
    "subcategory": "Island",
    "featured": false,
    "priority": 50
  },
  {
    "geonameId": 2197756,
    "name": "Ciko",
    "latitude": -17.91979,
    "longitude": 177.4296,
    "category": "Mountain",
    "subcategory": "Mountain",
    "featured": false,
    "priority": 50
  },
  {
    "geonameId": 4035883,
    "name": "Cikobia-I-Lau Island",
    "latitude": -17.28277,
    "longitude": -178.78692,
    "category": "Island",
    "subcategory": "Island",
    "featured": false,
    "priority": 50
  },
  {
    "geonameId": 4035882,
    "name": "Cikobia-i-Ra",
    "latitude": -15.73105,
    "longitude": -179.92922,
    "category": "Island",
    "subcategory": "Island",
    "featured": false,
    "priority": 50
  },
  {
    "geonameId": 4035879,
    "name": "Cobia Island",
    "latitude": -16.46365,
    "longitude": -179.6739,
    "category": "Island",
    "subcategory": "Island",
    "featured": false,
    "priority": 50
  },
  {
    "geonameId": 9570075,
    "name": "Colo-i-Suva Forest",
    "latitude": -18.03285,
    "longitude": 178.41582,
    "category": "Park",
    "subcategory": "Park",
    "featured": false,
    "priority": 50
  },
  {
    "geonameId": 13434028,
    "name": "Colo-i-Suva Forest Park",
    "latitude": -18.05887,
    "longitude": 178.46457,
    "category": "Park",
    "subcategory": "Park",
    "featured": false,
    "priority": 50
  },
  {
    "geonameId": 2197697,
    "name": "Cubu Island",
    "latitude": -17.35143,
    "longitude": 178.10148,
    "category": "Island",
    "subcategory": "Island",
    "featured": false,
    "priority": 50
  },
  {
    "geonameId": 2197710,
    "name": "Cukini Island",
    "latitude": -16.3863,
    "longitude": 179.20822,
    "category": "Island",
    "subcategory": "Island",
    "featured": false,
    "priority": 50
  },
  {
    "geonameId": 2197699,
    "name": "Culavesi Island",
    "latitude": -16.33483,
    "longitude": 179.37345,
    "category": "Island",
    "subcategory": "Island",
    "featured": false,
    "priority": 50
  },
  {
    "geonameId": 2197684,
    "name": "Cuvu Island",
    "latitude": -17.81529,
    "longitude": 177.36689,
    "category": "Island",
    "subcategory": "Island",
    "featured": false,
    "priority": 50
  },
  {
    "geonameId": 2200123,
    "name": "Dakui Island",
    "latitude": -18.00543,
    "longitude": 179.34652,
    "category": "Island",
    "subcategory": "Island",
    "featured": false,
    "priority": 50
  },
  {
    "geonameId": 2200105,
    "name": "Dakuninuku Island",
    "latitude": -16.60031,
    "longitude": 178.7683,
    "category": "Island",
    "subcategory": "Island",
    "featured": false,
    "priority": 50
  },
  {
    "geonameId": 11202425,
    "name": "Dakunisea Island",
    "latitude": -18.12591,
    "longitude": 178.51745,
    "category": "Island",
    "subcategory": "Island",
    "featured": false,
    "priority": 50
  },
  {
    "geonameId": 2200061,
    "name": "Dana",
    "latitude": -16.84226,
    "longitude": 179.99111,
    "category": "Mountain",
    "subcategory": "Mountain",
    "featured": false,
    "priority": 50
  },
  {
    "geonameId": 11327457,
    "name": "Deer Island",
    "latitude": -17.65475,
    "longitude": 179.02469,
    "category": "Island",
    "subcategory": "Island",
    "featured": false,
    "priority": 50
  },
  {
    "geonameId": 2199944,
    "name": "Delaco",
    "latitude": -17.99246,
    "longitude": 179.28028,
    "category": "Mountain",
    "subcategory": "Peak",
    "featured": false,
    "priority": 50
  },
  {
    "geonameId": 2199967,
    "name": "Delaibeloloa",
    "latitude": -16.6396,
    "longitude": 179.31689,
    "category": "Mountain",
    "subcategory": "Mountain",
    "featured": false,
    "priority": 50
  },
  {
    "geonameId": 2199976,
    "name": "Delaikalou",
    "latitude": -18.943,
    "longitude": 178.32778,
    "category": "Mountain",
    "subcategory": "Mountain",
    "featured": false,
    "priority": 50
  },
  {
    "geonameId": 2199974,
    "name": "Delaikoro",
    "latitude": -16.58733,
    "longitude": 179.31416,
    "category": "Mountain",
    "subcategory": "Mountain",
    "featured": false,
    "priority": 50
  },
  {
    "geonameId": 2199969,
    "name": "Delailumuni",
    "latitude": -17.68884,
    "longitude": 177.88797,
    "category": "Mountain",
    "subcategory": "Mountain",
    "featured": false,
    "priority": 50
  },
  {
    "geonameId": 11706032,
    "name": "Delainaba Peak",
    "latitude": -16.85829,
    "longitude": -179.90555,
    "category": "Mountain",
    "subcategory": "Peak",
    "featured": false,
    "priority": 50
  },
  {
    "geonameId": 2199958,
    "name": "Delainabace",
    "latitude": -16.72891,
    "longitude": 179.34777,
    "category": "Mountain",
    "subcategory": "Mountain",
    "featured": false,
    "priority": 50
  },
  {
    "geonameId": 2199957,
    "name": "Delainabukelevu",
    "latitude": -19.11768,
    "longitude": 177.98848,
    "category": "Mountain",
    "subcategory": "Mountain",
    "featured": false,
    "priority": 50
  },
  {
    "geonameId": 2199956,
    "name": "Delainadarivatu",
    "latitude": -17.56768,
    "longitude": 177.95548,
    "category": "Mountain",
    "subcategory": "Mountain",
    "featured": false,
    "priority": 50
  },
  {
    "geonameId": 2199955,
    "name": "Delainadrano",
    "latitude": -16.571,
    "longitude": 179.38905,
    "category": "Mountain",
    "subcategory": "Mountain",
    "featured": false,
    "priority": 50
  },
  {
    "geonameId": 2199960,
    "name": "Delainalili",
    "latitude": -17.50194,
    "longitude": 177.82793,
    "category": "Mountain",
    "subcategory": "Mountain",
    "featured": false,
    "priority": 50
  },
  {
    "geonameId": 11334025,
    "name": "Delainanunu",
    "latitude": -17.6985,
    "longitude": 178.81029,
    "category": "Mountain",
    "subcategory": "Mountain",
    "featured": false,
    "priority": 50
  },
  {
    "geonameId": 11249847,
    "name": "Delainavuga Hill",
    "latitude": -17.99297,
    "longitude": 179.2647,
    "category": "Mountain",
    "subcategory": "Mountain",
    "featured": false,
    "priority": 50
  },
  {
    "geonameId": 4035980,
    "name": "Delairabi",
    "latitude": -16.50113,
    "longitude": -179.98819,
    "category": "Mountain",
    "subcategory": "Mountain",
    "featured": false,
    "priority": 50
  },
  {
    "geonameId": 11104234,
    "name": "Delaisonadradra",
    "latitude": -17.75968,
    "longitude": 177.7182,
    "category": "Mountain",
    "subcategory": "Mountain",
    "featured": false,
    "priority": 50
  },
  {
    "geonameId": 2199941,
    "name": "Delaituacoko",
    "latitude": -16.7491,
    "longitude": 179.42756,
    "category": "Mountain",
    "subcategory": "Mountain",
    "featured": false,
    "priority": 50
  },
  {
    "geonameId": 2199935,
    "name": "Delaivoda",
    "latitude": -18.00107,
    "longitude": 179.25067,
    "category": "Mountain",
    "subcategory": "Mountain",
    "featured": false,
    "priority": 50
  },
  {
    "geonameId": 11249846,
    "name": "Delaivoda Hill",
    "latitude": -17.98704,
    "longitude": 179.27025,
    "category": "Mountain",
    "subcategory": "Mountain",
    "featured": false,
    "priority": 50
  },
  {
    "geonameId": 2199933,
    "name": "Delaivuniivi",
    "latitude": -19.11453,
    "longitude": 178.07533,
    "category": "Mountain",
    "subcategory": "Mountain",
    "featured": false,
    "priority": 50
  },
  {
    "geonameId": 11231685,
    "name": "Delaiwaisulubonu",
    "latitude": -18.10438,
    "longitude": 178.23931,
    "category": "Mountain",
    "subcategory": "Mountain",
    "featured": false,
    "priority": 50
  },
  {
    "geonameId": 2199921,
    "name": "Delanacau",
    "latitude": -16.70141,
    "longitude": 178.9059,
    "category": "Mountain",
    "subcategory": "Mountain",
    "featured": false,
    "priority": 50
  },
  {
    "geonameId": 2199918,
    "name": "Delatavea Island",
    "latitude": -16.44047,
    "longitude": 179.15041,
    "category": "Island",
    "subcategory": "Island",
    "featured": false,
    "priority": 50
  },
  {
    "geonameId": 2199913,
    "name": "Denarau Island",
    "latitude": -17.77141,
    "longitude": 177.37024,
    "category": "Island",
    "subcategory": "Island",
    "featured": false,
    "priority": 50
  },
  {
    "geonameId": 2199887,
    "name": "Deviulau Island",
    "latitude": -16.98074,
    "longitude": 177.32742,
    "category": "Island",
    "subcategory": "Island",
    "featured": false,
    "priority": 50
  },
  {
    "geonameId": 11232005,
    "name": "Devo",
    "latitude": -17.99788,
    "longitude": 178.2445,
    "category": "Mountain",
    "subcategory": "Mountain",
    "featured": false,
    "priority": 50
  },
  {
    "geonameId": 11706518,
    "name": "Devo Peak",
    "latitude": -16.84145,
    "longitude": -179.96399,
    "category": "Mountain",
    "subcategory": "Peak",
    "featured": false,
    "priority": 50
  },
  {
    "geonameId": 2199902,
    "name": "Devoi Island",
    "latitude": -16.80617,
    "longitude": 177.47577,
    "category": "Island",
    "subcategory": "Island",
    "featured": false,
    "priority": 50
  },
  {
    "geonameId": 2199901,
    "name": "Devoilau Island",
    "latitude": -17.35476,
    "longitude": 178.13655,
    "category": "Island",
    "subcategory": "Island",
    "featured": false,
    "priority": 50
  },
  {
    "geonameId": 11334015,
    "name": "Digilo",
    "latitude": -17.68837,
    "longitude": 178.7801,
    "category": "Mountain",
    "subcategory": "Mountain",
    "featured": false,
    "priority": 50
  },
  {
    "geonameId": 2199884,
    "name": "Dikeva",
    "latitude": -16.53752,
    "longitude": 179.5045,
    "category": "Mountain",
    "subcategory": "Mountain",
    "featured": false,
    "priority": 50
  },
  {
    "geonameId": 2199882,
    "name": "Diligo",
    "latitude": -18.0424,
    "longitude": 178.06003,
    "category": "Mountain",
    "subcategory": "Mountain",
    "featured": false,
    "priority": 50
  },
  {
    "geonameId": 11104214,
    "name": "Diriyaga Falls",
    "latitude": -17.76391,
    "longitude": 177.69286,
    "category": "Waterfall",
    "subcategory": "Waterfall",
    "featured": false,
    "priority": 50
  },
  {
    "geonameId": 2199826,
    "name": "Dogodogo Island",
    "latitude": -16.76385,
    "longitude": 179.14155,
    "category": "Island",
    "subcategory": "Island",
    "featured": false,
    "priority": 50
  },
  {
    "geonameId": 2199827,
    "name": "Dogomotu Island",
    "latitude": -16.87043,
    "longitude": 178.61087,
    "category": "Island",
    "subcategory": "Island",
    "featured": false,
    "priority": 50
  },
  {
    "geonameId": 2199822,
    "name": "Dogosalove Island",
    "latitude": -16.40861,
    "longitude": 179.14547,
    "category": "Island",
    "subcategory": "Island",
    "featured": false,
    "priority": 50
  },
  {
    "geonameId": 11619213,
    "name": "Dogovua Island",
    "latitude": -20.60584,
    "longitude": -178.68642,
    "category": "Island",
    "subcategory": "Island",
    "featured": false,
    "priority": 50
  },
  {
    "geonameId": 11705652,
    "name": "Domonisau Falls",
    "latitude": -17.74435,
    "longitude": -179.31284,
    "category": "Waterfall",
    "subcategory": "Waterfall",
    "featured": false,
    "priority": 50
  },
  {
    "geonameId": 2199804,
    "name": "Drakale Island",
    "latitude": -16.70824,
    "longitude": 179.29208,
    "category": "Island",
    "subcategory": "Island",
    "featured": false,
    "priority": 50
  },
  {
    "geonameId": 2199795,
    "name": "Drala Island",
    "latitude": -17.99934,
    "longitude": 178.69595,
    "category": "Island",
    "subcategory": "Island",
    "featured": false,
    "priority": 50
  },
  {
    "geonameId": 11715149,
    "name": "Dranoniveilomo Lake",
    "latitude": -17.19804,
    "longitude": -178.9574,
    "category": "Lake",
    "subcategory": "Lake",
    "featured": false,
    "priority": 50
  },
  {
    "geonameId": 11715170,
    "name": "Dranouli Lake",
    "latitude": -17.19919,
    "longitude": -178.96087,
    "category": "Lake",
    "subcategory": "Lake",
    "featured": false,
    "priority": 50
  },
  {
    "geonameId": 2205273,
    "name": "Draunibota Island",
    "latitude": -18.11583,
    "longitude": 178.38713,
    "category": "Island",
    "subcategory": "Island",
    "featured": false,
    "priority": 50
  },
  {
    "geonameId": 2199748,
    "name": "Drauniwalai Island",
    "latitude": -18.20056,
    "longitude": 178.23153,
    "category": "Island",
    "subcategory": "Island",
    "featured": false,
    "priority": 50
  },
  {
    "geonameId": 2199747,
    "name": "Drautana",
    "latitude": -17.42087,
    "longitude": 177.77883,
    "category": "Mountain",
    "subcategory": "Mountain",
    "featured": false,
    "priority": 50
  },
  {
    "geonameId": 2199742,
    "name": "Dravuni Falls",
    "latitude": -17.87941,
    "longitude": 178.39219,
    "category": "Waterfall",
    "subcategory": "Waterfall",
    "featured": false,
    "priority": 50
  },
  {
    "geonameId": 2199741,
    "name": "Dravuni Island",
    "latitude": -18.762,
    "longitude": 178.52203,
    "category": "Island",
    "subcategory": "Island",
    "featured": false,
    "priority": 50
  },
  {
    "geonameId": 2199737,
    "name": "Drawa Island",
    "latitude": -16.81493,
    "longitude": 178.89562,
    "category": "Island",
    "subcategory": "Island",
    "featured": false,
    "priority": 50
  },
  {
    "geonameId": 2199736,
    "name": "Drawaqa Island",
    "latitude": -17.17201,
    "longitude": 177.19162,
    "category": "Island",
    "subcategory": "Island",
    "featured": false,
    "priority": 50
  },
  {
    "geonameId": 2194305,
    "name": "Dredre Island",
    "latitude": -17.35261,
    "longitude": 178.11185,
    "category": "Island",
    "subcategory": "Island Group",
    "featured": false,
    "priority": 50
  },
  {
    "geonameId": 11619275,
    "name": "Drekeinukulevu Island",
    "latitude": -19.15505,
    "longitude": -178.55555,
    "category": "Island",
    "subcategory": "Island",
    "featured": false,
    "priority": 50
  },
  {
    "geonameId": 2199706,
    "name": "Drelaga",
    "latitude": -17.69775,
    "longitude": 177.50582,
    "category": "Mountain",
    "subcategory": "Mountain",
    "featured": false,
    "priority": 50
  },
  {
    "geonameId": 2199690,
    "name": "Drokavia",
    "latitude": -16.19732,
    "longitude": 179.92453,
    "category": "Mountain",
    "subcategory": "Mountain",
    "featured": false,
    "priority": 50
  },
  {
    "geonameId": 2199673,
    "name": "Druadrua Island",
    "latitude": -16.19756,
    "longitude": 179.61454,
    "category": "Island",
    "subcategory": "Island",
    "featured": false,
    "priority": 50
  },
  {
    "geonameId": 2199668,
    "name": "Drumasi",
    "latitude": -17.47468,
    "longitude": 177.93103,
    "category": "Mountain",
    "subcategory": "Mountain",
    "featured": false,
    "priority": 50
  },
  {
    "geonameId": 11339353,
    "name": "Dulevi",
    "latitude": -17.32313,
    "longitude": 179.41754,
    "category": "Mountain",
    "subcategory": "Mountain",
    "featured": false,
    "priority": 50
  },
  {
    "geonameId": 11706774,
    "name": "Edward Island",
    "latitude": -17.46945,
    "longitude": -179.18063,
    "category": "Island",
    "subcategory": "Island",
    "featured": false,
    "priority": 50
  },
  {
    "geonameId": 11104298,
    "name": "Ekubu Island",
    "latitude": -17.85997,
    "longitude": 177.32692,
    "category": "Island",
    "subcategory": "Island",
    "featured": false,
    "priority": 50
  },
  {
    "geonameId": 2204187,
    "name": "Eluvuka Island",
    "latitude": -17.65487,
    "longitude": 177.2678,
    "category": "Island",
    "subcategory": "Island",
    "featured": false,
    "priority": 50
  },
  {
    "geonameId": 2205236,
    "name": "Eori Island",
    "latitude": -17.43793,
    "longitude": 177.0639,
    "category": "Island",
    "subcategory": "Island",
    "featured": false,
    "priority": 50
  },
  {
    "geonameId": 2198133,
    "name": "Etai Island",
    "latitude": -17.65391,
    "longitude": 177.25527,
    "category": "Island",
    "subcategory": "Island",
    "featured": false,
    "priority": 50
  },
  {
    "geonameId": 4036171,
    "name": "Exploring Isles",
    "latitude": -17.25,
    "longitude": -178.86667,
    "category": "Island",
    "subcategory": "Island Group",
    "featured": false,
    "priority": 50
  },
  {
    "geonameId": 2205217,
    "name": "Fiji Islands",
    "latitude": -18,
    "longitude": 178,
    "category": "Island",
    "subcategory": "Island Group",
    "featured": false,
    "priority": 50
  },
  {
    "geonameId": 2199614,
    "name": "Gaganaura Falls",
    "latitude": -17.85335,
    "longitude": 178.03269,
    "category": "Waterfall",
    "subcategory": "Waterfall",
    "featured": false,
    "priority": 50
  },
  {
    "geonameId": 2199622,
    "name": "Galoa Island",
    "latitude": -19.08146,
    "longitude": 178.18181,
    "category": "Island",
    "subcategory": "Island",
    "featured": false,
    "priority": 50
  },
  {
    "geonameId": 11812543,
    "name": "Ganilau Park",
    "latitude": -16.76961,
    "longitude": 179.35486,
    "category": "Park",
    "subcategory": "Park",
    "featured": false,
    "priority": 50
  },
  {
    "geonameId": 2199599,
    "name": "Gevo Island",
    "latitude": -16.21923,
    "longitude": 179.60164,
    "category": "Island",
    "subcategory": "Island",
    "featured": false,
    "priority": 50
  },
  {
    "geonameId": 2205197,
    "name": "Hatana Island",
    "latitude": -12.48008,
    "longitude": 176.96169,
    "category": "Island",
    "subcategory": "Island",
    "featured": false,
    "priority": 50
  },
  {
    "geonameId": 2205196,
    "name": "Hauameamea Island",
    "latitude": -12.48097,
    "longitude": 177.1233,
    "category": "Island",
    "subcategory": "Island",
    "featured": false,
    "priority": 50
  },
  {
    "geonameId": 2205195,
    "name": "Hautiu Island",
    "latitude": -12.47907,
    "longitude": 177.12456,
    "category": "Island",
    "subcategory": "Island",
    "featured": false,
    "priority": 50
  },
  {
    "geonameId": 2205189,
    "name": "Hofliua Island",
    "latitude": -12.49811,
    "longitude": 176.93509,
    "category": "Island",
    "subcategory": "Island",
    "featured": false,
    "priority": 50
  },
  {
    "geonameId": 2205169,
    "name": "Ividua Island",
    "latitude": -16.22463,
    "longitude": 179.83964,
    "category": "Island",
    "subcategory": "Island",
    "featured": false,
    "priority": 50
  },
  {
    "geonameId": 2205134,
    "name": "Kaba Island",
    "latitude": -18.13651,
    "longitude": 177.40809,
    "category": "Island",
    "subcategory": "Island",
    "featured": false,
    "priority": 50
  },
  {
    "geonameId": 4036160,
    "name": "Kabara",
    "latitude": -18.95565,
    "longitude": -178.95419,
    "category": "Island",
    "subcategory": "Island",
    "featured": false,
    "priority": 50
  },
  {
    "geonameId": 2205118,
    "name": "Kadavu Island",
    "latitude": -17.67326,
    "longitude": 177.3062,
    "category": "Island",
    "subcategory": "Island",
    "featured": false,
    "priority": 50
  },
  {
    "geonameId": 11405396,
    "name": "Kadavulailai Island",
    "latitude": -19.15169,
    "longitude": 178.01264,
    "category": "Island",
    "subcategory": "Island",
    "featured": false,
    "priority": 50
  },
  {
    "geonameId": 2205111,
    "name": "Kadomo Island",
    "latitude": -17.49344,
    "longitude": 177.05207,
    "category": "Island",
    "subcategory": "Island",
    "featured": false,
    "priority": 50
  },
  {
    "geonameId": 4036161,
    "name": "Kaibu Island",
    "latitude": -17.25794,
    "longitude": -179.48623,
    "category": "Island",
    "subcategory": "Island",
    "featured": false,
    "priority": 50
  },
  {
    "geonameId": 11104217,
    "name": "Kakanagone",
    "latitude": -17.76509,
    "longitude": 177.65443,
    "category": "Mountain",
    "subcategory": "Mountain",
    "featured": false,
    "priority": 50
  },
  {
    "geonameId": 11104631,
    "name": "Kakanaura",
    "latitude": -18.01092,
    "longitude": 177.73663,
    "category": "Mountain",
    "subcategory": "Mountain",
    "featured": false,
    "priority": 50
  },
  {
    "geonameId": 2205129,
    "name": "Kambasese Falls",
    "latitude": -17.78333,
    "longitude": 178,
    "category": "Waterfall",
    "subcategory": "Waterfall",
    "featured": false,
    "priority": 50
  },
  {
    "geonameId": 4036159,
    "name": "Kanacea Island",
    "latitude": -17.26472,
    "longitude": -179.15299,
    "category": "Island",
    "subcategory": "Island",
    "featured": false,
    "priority": 50
  },
  {
    "geonameId": 2205123,
    "name": "Kanamoiyanuca Island",
    "latitude": -18.96032,
    "longitude": 178.24927,
    "category": "Island",
    "subcategory": "Island",
    "featured": false,
    "priority": 50
  },
  {
    "geonameId": 2205121,
    "name": "Kanavi Island",
    "latitude": -16.71493,
    "longitude": 179.31219,
    "category": "Island",
    "subcategory": "Island",
    "featured": false,
    "priority": 50
  },
  {
    "geonameId": 2205103,
    "name": "Karawa",
    "latitude": -17.66667,
    "longitude": 177.65,
    "category": "Mountain",
    "subcategory": "Mountain",
    "featured": false,
    "priority": 50
  },
  {
    "geonameId": 2205101,
    "name": "Karoa Rock",
    "latitude": -17.53771,
    "longitude": 178.38061,
    "category": "Island",
    "subcategory": "Island",
    "featured": false,
    "priority": 50
  },
  {
    "geonameId": 2205100,
    "name": "Karokaro",
    "latitude": -17.78903,
    "longitude": 177.77691,
    "category": "Mountain",
    "subcategory": "Mountain",
    "featured": false,
    "priority": 50
  },
  {
    "geonameId": 11595000,
    "name": "Kasi",
    "latitude": -16.76704,
    "longitude": 179.02817,
    "category": "Mountain",
    "subcategory": "Mountain",
    "featured": false,
    "priority": 50
  },
  {
    "geonameId": 11706073,
    "name": "Kasivibale Peak",
    "latitude": -16.75161,
    "longitude": -179.86841,
    "category": "Mountain",
    "subcategory": "Peak",
    "featured": false,
    "priority": 50
  },
  {
    "geonameId": 4036157,
    "name": "Katafaga Island",
    "latitude": -17.5218,
    "longitude": -178.7162,
    "category": "Island",
    "subcategory": "Island",
    "featured": false,
    "priority": 50
  },
  {
    "geonameId": 11202417,
    "name": "Katanayalewa Island",
    "latitude": -18.10772,
    "longitude": 178.54291,
    "category": "Island",
    "subcategory": "Island",
    "featured": false,
    "priority": 50
  },
  {
    "geonameId": 2205069,
    "name": "Katawaqa Island",
    "latitude": -16.19443,
    "longitude": 179.55975,
    "category": "Island",
    "subcategory": "Island",
    "featured": false,
    "priority": 50
  },
  {
    "geonameId": 2205070,
    "name": "Katikua Island",
    "latitude": -19.02391,
    "longitude": 178.24932,
    "category": "Island",
    "subcategory": "Island",
    "featured": false,
    "priority": 50
  },
  {
    "geonameId": 2205067,
    "name": "Kaukilagi Island",
    "latitude": -16.64892,
    "longitude": 178.70171,
    "category": "Island",
    "subcategory": "Island",
    "featured": false,
    "priority": 50
  },
  {
    "geonameId": 2205061,
    "name": "Kavewa Island",
    "latitude": -16.19059,
    "longitude": 179.57558,
    "category": "Island",
    "subcategory": "Island",
    "featured": false,
    "priority": 50
  },
  {
    "geonameId": 2205056,
    "name": "Kavote Island",
    "latitude": -19.15105,
    "longitude": 178.11925,
    "category": "Island",
    "subcategory": "Island",
    "featured": false,
    "priority": 50
  },
  {
    "geonameId": 2205051,
    "name": "Kavukavu",
    "latitude": -17.92087,
    "longitude": 177.8925,
    "category": "Mountain",
    "subcategory": "Mountain",
    "featured": false,
    "priority": 50
  },
  {
    "geonameId": 2205048,
    "name": "Kavula Island",
    "latitude": -16.3,
    "longitude": 179.7,
    "category": "Island",
    "subcategory": "Island",
    "featured": false,
    "priority": 50
  },
  {
    "geonameId": 11104468,
    "name": "Kavulei Island",
    "latitude": -18.15784,
    "longitude": 177.44388,
    "category": "Island",
    "subcategory": "Island",
    "featured": false,
    "priority": 50
  },
  {
    "geonameId": 2205022,
    "name": "Kederuarua Island",
    "latitude": -18.20062,
    "longitude": 178.22881,
    "category": "Island",
    "subcategory": "Island",
    "featured": false,
    "priority": 50
  },
  {
    "geonameId": 11104078,
    "name": "Ketenasevou Island",
    "latitude": -17.81029,
    "longitude": 177.36338,
    "category": "Island",
    "subcategory": "Island",
    "featured": false,
    "priority": 50
  },
  {
    "geonameId": 2205009,
    "name": "Kia Island",
    "latitude": -16.23333,
    "longitude": 179.08333,
    "category": "Island",
    "subcategory": "Island",
    "featured": false,
    "priority": 50
  },
  {
    "geonameId": 4036154,
    "name": "Kibobo Islets",
    "latitude": -17.05564,
    "longitude": -179.02642,
    "category": "Island",
    "subcategory": "Island Group",
    "featured": false,
    "priority": 50
  },
  {
    "geonameId": 11706773,
    "name": "Kid Island",
    "latitude": -17.47513,
    "longitude": -179.16778,
    "category": "Island",
    "subcategory": "Island",
    "featured": false,
    "priority": 50
  },
  {
    "geonameId": 11706953,
    "name": "Kikokiko Island",
    "latitude": -17.18724,
    "longitude": -179.00042,
    "category": "Island",
    "subcategory": "Island",
    "featured": false,
    "priority": 50
  },
  {
    "geonameId": 2205000,
    "name": "Kioa Island",
    "latitude": -16.65,
    "longitude": 179.91667,
    "category": "Island",
    "subcategory": "Island",
    "featured": false,
    "priority": 50
  },
  {
    "geonameId": 4036151,
    "name": "Komo Driti Island",
    "latitude": -18.6814,
    "longitude": -178.64876,
    "category": "Island",
    "subcategory": "Island",
    "featured": false,
    "priority": 50
  },
  {
    "geonameId": 4036152,
    "name": "Komo Island",
    "latitude": -18.68418,
    "longitude": -178.62818,
    "category": "Island",
    "subcategory": "Island",
    "featured": false,
    "priority": 50
  },
  {
    "geonameId": 2204972,
    "name": "Kora Island",
    "latitude": -16.23333,
    "longitude": 179.1,
    "category": "Island",
    "subcategory": "Island",
    "featured": false,
    "priority": 50
  },
  {
    "geonameId": 2204923,
    "name": "Koro",
    "latitude": -17.3042,
    "longitude": 179.40326,
    "category": "Island",
    "subcategory": "Island",
    "featured": false,
    "priority": 50
  },
  {
    "geonameId": 2204845,
    "name": "Koroba",
    "latitude": -17.89007,
    "longitude": 177.5622,
    "category": "Mountain",
    "subcategory": "Mountain",
    "featured": false,
    "priority": 50
  },
  {
    "geonameId": 9570076,
    "name": "Korobaba",
    "latitude": -18.06029,
    "longitude": 178.41613,
    "category": "Mountain",
    "subcategory": "Mountain",
    "featured": false,
    "priority": 50
  },
  {
    "geonameId": 2204838,
    "name": "Korobasoga",
    "latitude": -16.85052,
    "longitude": 178.99667,
    "category": "Mountain",
    "subcategory": "Mountain",
    "featured": false,
    "priority": 50
  },
  {
    "geonameId": 11104664,
    "name": "Korocivicivi",
    "latitude": -17.8511,
    "longitude": 177.64031,
    "category": "Mountain",
    "subcategory": "Mountain",
    "featured": false,
    "priority": 50
  },
  {
    "geonameId": 2204812,
    "name": "Korodene",
    "latitude": -17.63311,
    "longitude": 177.85385,
    "category": "Mountain",
    "subcategory": "Mountain",
    "featured": false,
    "priority": 50
  },
  {
    "geonameId": 2204806,
    "name": "Korodranadole",
    "latitude": -17.8102,
    "longitude": 177.58747,
    "category": "Mountain",
    "subcategory": "Mountain",
    "featured": false,
    "priority": 50
  },
  {
    "geonameId": 11104617,
    "name": "Korodruga",
    "latitude": -17.94793,
    "longitude": 177.8159,
    "category": "Mountain",
    "subcategory": "Mountain",
    "featured": false,
    "priority": 50
  },
  {
    "geonameId": 11709619,
    "name": "Korogasau Peak",
    "latitude": -16.76648,
    "longitude": -179.76552,
    "category": "Mountain",
    "subcategory": "Peak",
    "featured": false,
    "priority": 50
  },
  {
    "geonameId": 2204964,
    "name": "Koroiamaia",
    "latitude": -17.9512,
    "longitude": 177.76168,
    "category": "Mountain",
    "subcategory": "Mountain",
    "featured": false,
    "priority": 50
  },
  {
    "geonameId": 2204947,
    "name": "Koroibalavu",
    "latitude": -17.9301,
    "longitude": 177.68534,
    "category": "Mountain",
    "subcategory": "Mountain",
    "featured": false,
    "priority": 50
  },
  {
    "geonameId": 2204943,
    "name": "Koroibuto",
    "latitude": -17.33145,
    "longitude": 179.38077,
    "category": "Mountain",
    "subcategory": "Peak",
    "featured": false,
    "priority": 50
  },
  {
    "geonameId": 2204963,
    "name": "Koroiemalu",
    "latitude": -17.98676,
    "longitude": 177.60932,
    "category": "Mountain",
    "subcategory": "Mountain",
    "featured": false,
    "priority": 50
  },
  {
    "geonameId": 2204962,
    "name": "Koroieqo",
    "latitude": -18.14439,
    "longitude": 177.68279,
    "category": "Mountain",
    "subcategory": "Mountain",
    "featured": false,
    "priority": 50
  },
  {
    "geonameId": 2204957,
    "name": "Koroika Island",
    "latitude": -16.94012,
    "longitude": 177.33433,
    "category": "Island",
    "subcategory": "Island",
    "featured": false,
    "priority": 50
  },
  {
    "geonameId": 2204958,
    "name": "Koroikavukavu",
    "latitude": -17.7796,
    "longitude": 177.68174,
    "category": "Mountain",
    "subcategory": "Peak",
    "featured": false,
    "priority": 50
  },
  {
    "geonameId": 11104231,
    "name": "Koroikiki",
    "latitude": -17.74242,
    "longitude": 177.79023,
    "category": "Mountain",
    "subcategory": "Mountain",
    "featured": false,
    "priority": 50
  },
  {
    "geonameId": 2204956,
    "name": "Koroikovu Island",
    "latitude": -16.92779,
    "longitude": 179.00281,
    "category": "Island",
    "subcategory": "Island",
    "featured": false,
    "priority": 50
  },
  {
    "geonameId": 2204954,
    "name": "Koroilaulau",
    "latitude": -17.82324,
    "longitude": 177.92151,
    "category": "Mountain",
    "subcategory": "Mountain",
    "featured": false,
    "priority": 50
  },
  {
    "geonameId": 2204953,
    "name": "Koroilele",
    "latitude": -17.90614,
    "longitude": 177.68017,
    "category": "Mountain",
    "subcategory": "Mountain",
    "featured": false,
    "priority": 50
  },
  {
    "geonameId": 2204951,
    "name": "Koroimavua",
    "latitude": -17.70937,
    "longitude": 177.73067,
    "category": "Mountain",
    "subcategory": "Peak",
    "featured": false,
    "priority": 50
  },
  {
    "geonameId": 2204942,
    "name": "Koroimudu Island",
    "latitude": -16.76416,
    "longitude": 179.49358,
    "category": "Island",
    "subcategory": "Island",
    "featured": false,
    "priority": 50
  },
  {
    "geonameId": 2204933,
    "name": "Koroineii",
    "latitude": -17.7,
    "longitude": 177.56667,
    "category": "Mountain",
    "subcategory": "Mountain",
    "featured": false,
    "priority": 50
  },
  {
    "geonameId": 2204932,
    "name": "Koroingundro Island",
    "latitude": -16.46667,
    "longitude": 179.38333,
    "category": "Island",
    "subcategory": "Island",
    "featured": false,
    "priority": 50
  },
  {
    "geonameId": 2204931,
    "name": "Koroinondamu",
    "latitude": -17.7,
    "longitude": 177.63333,
    "category": "Mountain",
    "subcategory": "Mountain",
    "featured": false,
    "priority": 50
  },
  {
    "geonameId": 2204929,
    "name": "Koroira Island",
    "latitude": -16.91719,
    "longitude": 177.38716,
    "category": "Island",
    "subcategory": "Island",
    "featured": false,
    "priority": 50
  },
  {
    "geonameId": 2204926,
    "name": "Koroirea Island",
    "latitude": -16.92742,
    "longitude": 178.80205,
    "category": "Island",
    "subcategory": "Island",
    "featured": false,
    "priority": 50
  },
  {
    "geonameId": 2204924,
    "name": "Koroisalusalu",
    "latitude": -16.65486,
    "longitude": 179.03935,
    "category": "Mountain",
    "subcategory": "Mountain",
    "featured": false,
    "priority": 50
  },
  {
    "geonameId": 2204920,
    "name": "Koroitakala",
    "latitude": -16.61667,
    "longitude": 179.85,
    "category": "Mountain",
    "subcategory": "Mountain",
    "featured": false,
    "priority": 50
  },
  {
    "geonameId": 2204916,
    "name": "Koroithake Island",
    "latitude": -16.68333,
    "longitude": 179.66667,
    "category": "Island",
    "subcategory": "Island",
    "featured": false,
    "priority": 50
  },
  {
    "geonameId": 2204914,
    "name": "Koroito",
    "latitude": -17.70579,
    "longitude": 177.79155,
    "category": "Mountain",
    "subcategory": "Mountain",
    "featured": false,
    "priority": 50
  },
  {
    "geonameId": 11104759,
    "name": "Koroivakaka Island",
    "latitude": -18.236,
    "longitude": 177.82683,
    "category": "Island",
    "subcategory": "Island",
    "featured": false,
    "priority": 50
  },
  {
    "geonameId": 2204909,
    "name": "Koroivatumbuli",
    "latitude": -17.61667,
    "longitude": 177.81667,
    "category": "Mountain",
    "subcategory": "Mountain",
    "featured": false,
    "priority": 50
  },
  {
    "geonameId": 2204902,
    "name": "Koroiyavoca",
    "latitude": -17.74607,
    "longitude": 177.90774,
    "category": "Mountain",
    "subcategory": "Mountain",
    "featured": false,
    "priority": 50
  },
  {
    "geonameId": 2204899,
    "name": "Korokalou",
    "latitude": -17.64659,
    "longitude": 178.43355,
    "category": "Mountain",
    "subcategory": "Mountain",
    "featured": false,
    "priority": 50
  },
  {
    "geonameId": 2204895,
    "name": "Korokayiu",
    "latitude": -18.18566,
    "longitude": 177.90225,
    "category": "Mountain",
    "subcategory": "Mountain",
    "featured": false,
    "priority": 50
  },
  {
    "geonameId": 2204886,
    "name": "Korolagituvi",
    "latitude": -17.99323,
    "longitude": 177.65076,
    "category": "Mountain",
    "subcategory": "Mountain",
    "featured": false,
    "priority": 50
  },
  {
    "geonameId": 2204889,
    "name": "Korolailai",
    "latitude": -16.36667,
    "longitude": 179.58333,
    "category": "Mountain",
    "subcategory": "Mountain",
    "featured": false,
    "priority": 50
  },
  {
    "geonameId": 11203600,
    "name": "Korolelele",
    "latitude": -17.71695,
    "longitude": 178.13241,
    "category": "Mountain",
    "subcategory": "Mountain",
    "featured": false,
    "priority": 50
  },
  {
    "geonameId": 2204869,
    "name": "Korolevu",
    "latitude": -18.98265,
    "longitude": 178.22118,
    "category": "Mountain",
    "subcategory": "Mountain",
    "featured": false,
    "priority": 50
  },
  {
    "geonameId": 4036149,
    "name": "Korolevu Island",
    "latitude": -16.76888,
    "longitude": -180,
    "category": "Island",
    "subcategory": "Island",
    "featured": false,
    "priority": 50
  },
  {
    "geonameId": 2204856,
    "name": "Korolewasagana",
    "latitude": -17.85769,
    "longitude": 177.79981,
    "category": "Mountain",
    "subcategory": "Mountain",
    "featured": false,
    "priority": 50
  },
  {
    "geonameId": 2204855,
    "name": "Korolueqe",
    "latitude": -17.98905,
    "longitude": 177.75176,
    "category": "Mountain",
    "subcategory": "Mountain",
    "featured": false,
    "priority": 50
  },
  {
    "geonameId": 2204846,
    "name": "Koromaya",
    "latitude": -16.66548,
    "longitude": 179.45745,
    "category": "Mountain",
    "subcategory": "Mountain",
    "featured": false,
    "priority": 50
  },
  {
    "geonameId": 2204842,
    "name": "Korombalavu",
    "latitude": -17.68333,
    "longitude": 178.41667,
    "category": "Mountain",
    "subcategory": "Mountain",
    "featured": false,
    "priority": 50
  },
  {
    "geonameId": 2204837,
    "name": "Korombasonga",
    "latitude": -16.58333,
    "longitude": 179.38333,
    "category": "Mountain",
    "subcategory": "Mountain",
    "featured": false,
    "priority": 50
  },
  {
    "geonameId": 2204828,
    "name": "Koromomo",
    "latitude": -17.63179,
    "longitude": 177.64376,
    "category": "Mountain",
    "subcategory": "Mountain",
    "featured": false,
    "priority": 50
  },
  {
    "geonameId": 2204824,
    "name": "Koronabala",
    "latitude": -17.61683,
    "longitude": 177.91074,
    "category": "Mountain",
    "subcategory": "Mountain",
    "featured": false,
    "priority": 50
  },
  {
    "geonameId": 2204816,
    "name": "Koronawa Island",
    "latitude": -16.29873,
    "longitude": 179.7039,
    "category": "Island",
    "subcategory": "Island",
    "featured": false,
    "priority": 50
  },
  {
    "geonameId": 2204802,
    "name": "Korongatule",
    "latitude": -18.99047,
    "longitude": 178.44974,
    "category": "Mountain",
    "subcategory": "Mountain",
    "featured": false,
    "priority": 50
  },
  {
    "geonameId": 4036158,
    "name": "Koroni Island",
    "latitude": -18.70144,
    "longitude": -178.47777,
    "category": "Island",
    "subcategory": "Island",
    "featured": false,
    "priority": 50
  },
  {
    "geonameId": 2204781,
    "name": "Koronibakera Island",
    "latitude": -16.67449,
    "longitude": 178.64783,
    "category": "Island",
    "subcategory": "Island",
    "featured": false,
    "priority": 50
  },
  {
    "geonameId": 2204780,
    "name": "Koronibanuve",
    "latitude": -18.9829,
    "longitude": 178.32023,
    "category": "Mountain",
    "subcategory": "Peak",
    "featured": false,
    "priority": 50
  },
  {
    "geonameId": 2204826,
    "name": "Koronibelo",
    "latitude": -17.80501,
    "longitude": 179.41858,
    "category": "Mountain",
    "subcategory": "Mountain",
    "featured": false,
    "priority": 50
  },
  {
    "geonameId": 4036147,
    "name": "Koronibelo Island",
    "latitude": -16.68457,
    "longitude": -179.87023,
    "category": "Island",
    "subcategory": "Island",
    "featured": false,
    "priority": 50
  },
  {
    "geonameId": 11104523,
    "name": "Koronibotabota",
    "latitude": -17.8225,
    "longitude": 177.63201,
    "category": "Mountain",
    "subcategory": "Mountain",
    "featured": false,
    "priority": 50
  },
  {
    "geonameId": 11706033,
    "name": "Koronibuabua Peak",
    "latitude": -16.85393,
    "longitude": -179.89358,
    "category": "Mountain",
    "subcategory": "Peak",
    "featured": false,
    "priority": 50
  },
  {
    "geonameId": 11707000,
    "name": "Koronidre Island",
    "latitude": -17.28558,
    "longitude": -179.64875,
    "category": "Island",
    "subcategory": "Island",
    "featured": false,
    "priority": 50
  },
  {
    "geonameId": 11197800,
    "name": "Koronigogo",
    "latitude": -17.71871,
    "longitude": 178.03375,
    "category": "Mountain",
    "subcategory": "Mountain",
    "featured": false,
    "priority": 50
  },
  {
    "geonameId": 2204790,
    "name": "Koronikaivasi Falls",
    "latitude": -16.65,
    "longitude": 179.81667,
    "category": "Waterfall",
    "subcategory": "Waterfall",
    "featured": false,
    "priority": 50
  },
  {
    "geonameId": 11596486,
    "name": "Koronikava Island",
    "latitude": -16.75329,
    "longitude": 179.47933,
    "category": "Island",
    "subcategory": "Island",
    "featured": false,
    "priority": 50
  },
  {
    "geonameId": 2204787,
    "name": "Koronikoli",
    "latitude": -18.56667,
    "longitude": 179.93333,
    "category": "Mountain",
    "subcategory": "Mountain",
    "featured": false,
    "priority": 50
  },
  {
    "geonameId": 2204786,
    "name": "Koronikula Island",
    "latitude": -16.91276,
    "longitude": 177.42251,
    "category": "Island",
    "subcategory": "Island",
    "featured": false,
    "priority": 50
  },
  {
    "geonameId": 2204785,
    "name": "Koronikura Island",
    "latitude": -16.22691,
    "longitude": 179.81536,
    "category": "Island",
    "subcategory": "Island",
    "featured": false,
    "priority": 50
  },
  {
    "geonameId": 2204782,
    "name": "Koronimarai Island",
    "latitude": -17.72832,
    "longitude": 178.82525,
    "category": "Island",
    "subcategory": "Island",
    "featured": false,
    "priority": 50
  },
  {
    "geonameId": 11202423,
    "name": "Koronimoli Island",
    "latitude": -18.12355,
    "longitude": 178.5237,
    "category": "Island",
    "subcategory": "Island",
    "featured": false,
    "priority": 50
  },
  {
    "geonameId": 2204775,
    "name": "Koronindoli Island",
    "latitude": -16.7,
    "longitude": 179.25,
    "category": "Island",
    "subcategory": "Island",
    "featured": false,
    "priority": 50
  },
  {
    "geonameId": 2204771,
    "name": "Koroninokonoko",
    "latitude": -18.0175,
    "longitude": 179.29939,
    "category": "Mountain",
    "subcategory": "Mountain",
    "featured": false,
    "priority": 50
  },
  {
    "geonameId": 2204774,
    "name": "Koroniqala",
    "latitude": -19.05464,
    "longitude": 178.13761,
    "category": "Mountain",
    "subcategory": "Mountain",
    "featured": false,
    "priority": 50
  },
  {
    "geonameId": 11339359,
    "name": "Koroniqiqi",
    "latitude": -17.34137,
    "longitude": 179.39663,
    "category": "Mountain",
    "subcategory": "Mountain",
    "featured": false,
    "priority": 50
  },
  {
    "geonameId": 2204768,
    "name": "Koronisaca Island",
    "latitude": -16.91772,
    "longitude": 178.99845,
    "category": "Island",
    "subcategory": "Island",
    "featured": false,
    "priority": 50
  },
  {
    "geonameId": 2204770,
    "name": "Koronisako Island",
    "latitude": -18.14997,
    "longitude": 178.34173,
    "category": "Island",
    "subcategory": "Island",
    "featured": false,
    "priority": 50
  },
  {
    "geonameId": 2204761,
    "name": "Koronitu",
    "latitude": -17.55174,
    "longitude": 177.84725,
    "category": "Mountain",
    "subcategory": "Mountain",
    "featured": false,
    "priority": 50
  },
  {
    "geonameId": 2204757,
    "name": "Koroniurau Island",
    "latitude": -16.2,
    "longitude": 179.86667,
    "category": "Island",
    "subcategory": "Island",
    "featured": false,
    "priority": 50
  },
  {
    "geonameId": 2204754,
    "name": "Koronivira",
    "latitude": -17.55017,
    "longitude": 177.63398,
    "category": "Mountain",
    "subcategory": "Mountain",
    "featured": false,
    "priority": 50
  },
  {
    "geonameId": 2204753,
    "name": "Koronivonabuli Island",
    "latitude": -16.80467,
    "longitude": 179.56315,
    "category": "Island",
    "subcategory": "Island",
    "featured": false,
    "priority": 50
  },
  {
    "geonameId": 2204747,
    "name": "Koroniyasaea Island",
    "latitude": -16.28428,
    "longitude": 179.52177,
    "category": "Island",
    "subcategory": "Island",
    "featured": false,
    "priority": 50
  },
  {
    "geonameId": 2204798,
    "name": "Koroqele",
    "latitude": -18.01809,
    "longitude": 177.59844,
    "category": "Mountain",
    "subcategory": "Mountain",
    "featured": false,
    "priority": 50
  },
  {
    "geonameId": 2204742,
    "name": "Korosamusamu",
    "latitude": -16.51169,
    "longitude": 179.42169,
    "category": "Mountain",
    "subcategory": "Mountain",
    "featured": false,
    "priority": 50
  },
  {
    "geonameId": 2204741,
    "name": "Korosarau",
    "latitude": -17.67632,
    "longitude": 178.48803,
    "category": "Mountain",
    "subcategory": "Mountain",
    "featured": false,
    "priority": 50
  },
  {
    "geonameId": 11706998,
    "name": "Korosiga Island",
    "latitude": -17.27996,
    "longitude": -179.63267,
    "category": "Island",
    "subcategory": "Island",
    "featured": false,
    "priority": 50
  },
  {
    "geonameId": 11191120,
    "name": "Korosovaulevu",
    "latitude": -17.61066,
    "longitude": 178.10458,
    "category": "Mountain",
    "subcategory": "Mountain",
    "featured": false,
    "priority": 50
  },
  {
    "geonameId": 11595264,
    "name": "Korotagane",
    "latitude": -16.6267,
    "longitude": 178.9243,
    "category": "Mountain",
    "subcategory": "Mountain",
    "featured": false,
    "priority": 50
  },
  {
    "geonameId": 2204725,
    "name": "Korotolu",
    "latitude": -17.5,
    "longitude": 178.05,
    "category": "Mountain",
    "subcategory": "Mountain",
    "featured": false,
    "priority": 50
  },
  {
    "geonameId": 4036144,
    "name": "Koroturaga",
    "latitude": -16.79943,
    "longitude": -179.90927,
    "category": "Mountain",
    "subcategory": "Mountain",
    "featured": false,
    "priority": 50
  },
  {
    "geonameId": 2204714,
    "name": "Koroua Island",
    "latitude": -18.16159,
    "longitude": 177.5048,
    "category": "Island",
    "subcategory": "Island",
    "featured": false,
    "priority": 50
  },
  {
    "geonameId": 2204713,
    "name": "Korouluvatu",
    "latitude": -17.95112,
    "longitude": 177.59751,
    "category": "Mountain",
    "subcategory": "Mountain",
    "featured": false,
    "priority": 50
  },
  {
    "geonameId": 2204707,
    "name": "Korovatu",
    "latitude": -17.78827,
    "longitude": 179.41759,
    "category": "Mountain",
    "subcategory": "Mountain",
    "featured": false,
    "priority": 50
  },
  {
    "geonameId": 2204704,
    "name": "Korovaturu",
    "latitude": -17.76844,
    "longitude": 177.61577,
    "category": "Mountain",
    "subcategory": "Mountain",
    "featured": false,
    "priority": 50
  },
  {
    "geonameId": 2204693,
    "name": "Korovotua Island",
    "latitude": -16.72315,
    "longitude": 177.56905,
    "category": "Island",
    "subcategory": "Island",
    "featured": false,
    "priority": 50
  },
  {
    "geonameId": 2204692,
    "name": "Korovou",
    "latitude": -17.94584,
    "longitude": 177.52373,
    "category": "Mountain",
    "subcategory": "Mountain",
    "featured": false,
    "priority": 50
  },
  {
    "geonameId": 2204674,
    "name": "Korovou Island",
    "latitude": -16.20202,
    "longitude": 179.64926,
    "category": "Island",
    "subcategory": "Island",
    "featured": false,
    "priority": 50
  },
  {
    "geonameId": 2204669,
    "name": "Korovudivudi Island",
    "latitude": -16.89813,
    "longitude": 178.82884,
    "category": "Island",
    "subcategory": "Island",
    "featured": false,
    "priority": 50
  },
  {
    "geonameId": 2204668,
    "name": "Korovunima",
    "latitude": -17.8843,
    "longitude": 177.84652,
    "category": "Mountain",
    "subcategory": "Mountain",
    "featured": false,
    "priority": 50
  },
  {
    "geonameId": 2204663,
    "name": "Korowai",
    "latitude": -16.48333,
    "longitude": 179.11667,
    "category": "Mountain",
    "subcategory": "Mountain",
    "featured": false,
    "priority": 50
  },
  {
    "geonameId": 2204657,
    "name": "Korowiri Island",
    "latitude": -16.21603,
    "longitude": 179.79307,
    "category": "Island",
    "subcategory": "Island",
    "featured": false,
    "priority": 50
  },
  {
    "geonameId": 2204656,
    "name": "Koroyanitu",
    "latitude": -17.66771,
    "longitude": 177.57442,
    "category": "Mountain",
    "subcategory": "Peak",
    "featured": false,
    "priority": 50
  },
  {
    "geonameId": 2204651,
    "name": "Koso Island",
    "latitude": -16.66152,
    "longitude": 178.63973,
    "category": "Island",
    "subcategory": "Island",
    "featured": false,
    "priority": 50
  },
  {
    "geonameId": 2204640,
    "name": "Kuata Island",
    "latitude": -17.37058,
    "longitude": 177.13759,
    "category": "Island",
    "subcategory": "Island",
    "featured": false,
    "priority": 50
  },
  {
    "geonameId": 2204617,
    "name": "Kubulau Island",
    "latitude": -16.97919,
    "longitude": 177.35622,
    "category": "Island",
    "subcategory": "Island",
    "featured": false,
    "priority": 50
  },
  {
    "geonameId": 2205126,
    "name": "Kubuna Island",
    "latitude": -17.9596,
    "longitude": 178.60544,
    "category": "Island",
    "subcategory": "Island",
    "featured": false,
    "priority": 50
  },
  {
    "geonameId": 2204608,
    "name": "Kubunataba",
    "latitude": -18.05897,
    "longitude": 177.67915,
    "category": "Mountain",
    "subcategory": "Mountain",
    "featured": false,
    "priority": 50
  },
  {
    "geonameId": 2204639,
    "name": "Kuitarua",
    "latitude": -17.28636,
    "longitude": 179.40442,
    "category": "Mountain",
    "subcategory": "Mountain",
    "featured": false,
    "priority": 50
  },
  {
    "geonameId": 11104432,
    "name": "Kula Bird Park",
    "latitude": -18.17401,
    "longitude": 177.55822,
    "category": "Park",
    "subcategory": "Park",
    "featured": false,
    "priority": 50
  },
  {
    "geonameId": 2204636,
    "name": "Kularesi",
    "latitude": -17.80233,
    "longitude": 177.75511,
    "category": "Mountain",
    "subcategory": "Mountain",
    "featured": false,
    "priority": 50
  },
  {
    "geonameId": 2204600,
    "name": "Kutusewa",
    "latitude": -17.44371,
    "longitude": 177.90517,
    "category": "Mountain",
    "subcategory": "Mountain",
    "featured": false,
    "priority": 50
  },
  {
    "geonameId": 2204582,
    "name": "Labasa",
    "latitude": -16.4332,
    "longitude": 179.36451,
    "category": "City",
    "subcategory": "Regional Capital",
    "featured": false,
    "priority": 50
  },
  {
    "geonameId": 11202526,
    "name": "Labiko Island",
    "latitude": -18.10957,
    "longitude": 178.3941,
    "category": "Island",
    "subcategory": "Island",
    "featured": false,
    "priority": 50
  },
  {
    "geonameId": 11104064,
    "name": "Labone Island",
    "latitude": -17.72397,
    "longitude": 177.42294,
    "category": "Island",
    "subcategory": "Island",
    "featured": false,
    "priority": 50
  },
  {
    "geonameId": 2204568,
    "name": "Ladotagane Island",
    "latitude": -17.74196,
    "longitude": 178.75813,
    "category": "Island",
    "subcategory": "Island",
    "featured": false,
    "priority": 50
  },
  {
    "geonameId": 2204567,
    "name": "Ladoyalewa Island",
    "latitude": -17.74193,
    "longitude": 178.76469,
    "category": "Island",
    "subcategory": "Island",
    "featured": false,
    "priority": 50
  },
  {
    "geonameId": 11705954,
    "name": "Lagalagalevu Island",
    "latitude": -16.75988,
    "longitude": -179.70527,
    "category": "Island",
    "subcategory": "Island",
    "featured": false,
    "priority": 50
  },
  {
    "geonameId": 11103944,
    "name": "Lagi Island",
    "latitude": -17.47565,
    "longitude": 177.64914,
    "category": "Island",
    "subcategory": "Island",
    "featured": false,
    "priority": 50
  },
  {
    "geonameId": 4036142,
    "name": "Lakeba Island",
    "latitude": -18.21131,
    "longitude": -178.79856,
    "category": "Island",
    "subcategory": "Island",
    "featured": false,
    "priority": 50
  },
  {
    "geonameId": 2204575,
    "name": "Lami",
    "latitude": -18.11094,
    "longitude": 178.40943,
    "category": "City",
    "subcategory": "City",
    "featured": false,
    "priority": 50
  },
  {
    "geonameId": 11202534,
    "name": "Lami Reservoir",
    "latitude": -18.09636,
    "longitude": 178.38861,
    "category": "Lake",
    "subcategory": "Reservoir",
    "featured": false,
    "priority": 50
  },
  {
    "geonameId": 2204551,
    "name": "Lanitua Island",
    "latitude": -18.92098,
    "longitude": 178.51064,
    "category": "Island",
    "subcategory": "Island",
    "featured": false,
    "priority": 50
  },
  {
    "geonameId": 2204547,
    "name": "Lasakalada Island",
    "latitude": -17.99127,
    "longitude": 178.59064,
    "category": "Island",
    "subcategory": "Island",
    "featured": false,
    "priority": 50
  },
  {
    "geonameId": 4036138,
    "name": "Lasea Island",
    "latitude": -16.13043,
    "longitude": -179.98247,
    "category": "Island",
    "subcategory": "Island",
    "featured": false,
    "priority": 50
  },
  {
    "geonameId": 4036136,
    "name": "Late-i-Tonga Island",
    "latitude": -17.92939,
    "longitude": -178.28639,
    "category": "Island",
    "subcategory": "Island",
    "featured": false,
    "priority": 50
  },
  {
    "geonameId": 4036135,
    "name": "Late-i-Viti Island",
    "latitude": -17.88525,
    "longitude": -178.30686,
    "category": "Island",
    "subcategory": "Island",
    "featured": false,
    "priority": 50
  },
  {
    "geonameId": 4036133,
    "name": "Lau Group",
    "latitude": -18.33333,
    "longitude": -178.5,
    "category": "Island",
    "subcategory": "Island Group",
    "featured": false,
    "priority": 50
  },
  {
    "geonameId": 2204510,
    "name": "Laucala Island",
    "latitude": -18.14824,
    "longitude": 178.5191,
    "category": "Island",
    "subcategory": "Island",
    "featured": false,
    "priority": 50
  },
  {
    "geonameId": 2204520,
    "name": "Launavuga",
    "latitude": -17.55441,
    "longitude": 177.78595,
    "category": "Mountain",
    "subcategory": "Mountain",
    "featured": false,
    "priority": 50
  },
  {
    "geonameId": 2204507,
    "name": "Lauthi Island",
    "latitude": -17.76667,
    "longitude": 178.56667,
    "category": "Island",
    "subcategory": "Island",
    "featured": false,
    "priority": 50
  },
  {
    "geonameId": 2204506,
    "name": "Lautoka",
    "latitude": -17.61686,
    "longitude": 177.45049,
    "category": "City",
    "subcategory": "Regional Capital",
    "featured": false,
    "priority": 50
  },
  {
    "geonameId": 2204475,
    "name": "Lawakilevu",
    "latitude": -18.15108,
    "longitude": 177.64033,
    "category": "Mountain",
    "subcategory": "Mountain",
    "featured": false,
    "priority": 50
  },
  {
    "geonameId": 2204465,
    "name": "Lawaqalevu Island",
    "latitude": -18.39156,
    "longitude": 178.15246,
    "category": "Island",
    "subcategory": "Island",
    "featured": false,
    "priority": 50
  },
  {
    "geonameId": 2204459,
    "name": "Leading Peak",
    "latitude": -16.91667,
    "longitude": 178.73333,
    "category": "Mountain",
    "subcategory": "Peak",
    "featured": false,
    "priority": 50
  },
  {
    "geonameId": 2204445,
    "name": "Lekubi Island",
    "latitude": -16.87217,
    "longitude": 178.57109,
    "category": "Island",
    "subcategory": "Island",
    "featured": false,
    "priority": 50
  },
  {
    "geonameId": 2204434,
    "name": "Leleuvia Island",
    "latitude": -17.80759,
    "longitude": 178.72203,
    "category": "Island",
    "subcategory": "Island",
    "featured": false,
    "priority": 50
  },
  {
    "geonameId": 11189501,
    "name": "Lelewaqa",
    "latitude": -17.7387,
    "longitude": 177.94619,
    "category": "Mountain",
    "subcategory": "Mountain",
    "featured": false,
    "priority": 50
  },
  {
    "geonameId": 2204417,
    "name": "Levuka",
    "latitude": -18.06667,
    "longitude": 179.31667,
    "category": "City",
    "subcategory": "Regional Capital",
    "featured": false,
    "priority": 50
  },
  {
    "geonameId": 2204392,
    "name": "Lewaula Falls",
    "latitude": -16.68333,
    "longitude": 178.9,
    "category": "Waterfall",
    "subcategory": "Waterfall",
    "featured": false,
    "priority": 50
  },
  {
    "geonameId": 2204381,
    "name": "Likuri Island",
    "latitude": -18.05672,
    "longitude": 177.28781,
    "category": "Island",
    "subcategory": "Island",
    "featured": false,
    "priority": 50
  },
  {
    "geonameId": 4036121,
    "name": "Loa Island",
    "latitude": -18.42963,
    "longitude": -178.4432,
    "category": "Island",
    "subcategory": "Island",
    "featured": false,
    "priority": 50
  },
  {
    "geonameId": 2204356,
    "name": "Lokalevu",
    "latitude": -18.17712,
    "longitude": 177.81079,
    "category": "Mountain",
    "subcategory": "Mountain",
    "featured": false,
    "priority": 50
  },
  {
    "geonameId": 2204320,
    "name": "Loma Island",
    "latitude": -17.77114,
    "longitude": 178.23506,
    "category": "Island",
    "subcategory": "Island",
    "featured": false,
    "priority": 50
  },
  {
    "geonameId": 11619241,
    "name": "Lomati Island",
    "latitude": -19.19526,
    "longitude": -178.40587,
    "category": "Island",
    "subcategory": "Island",
    "featured": false,
    "priority": 50
  },
  {
    "geonameId": 2204264,
    "name": "Lotu Island",
    "latitude": -16.8053,
    "longitude": 179.42737,
    "category": "Island",
    "subcategory": "Island",
    "featured": false,
    "priority": 50
  },
  {
    "geonameId": 2204252,
    "name": "Lovoloa Island",
    "latitude": -16.15,
    "longitude": 179.98333,
    "category": "Island",
    "subcategory": "Island",
    "featured": false,
    "priority": 50
  },
  {
    "geonameId": 2204229,
    "name": "Lua",
    "latitude": -17.99345,
    "longitude": 177.38596,
    "category": "Mountain",
    "subcategory": "Mountain",
    "featured": false,
    "priority": 50
  },
  {
    "geonameId": 11706031,
    "name": "Lutunataraki Peak",
    "latitude": -16.86605,
    "longitude": -179.8939,
    "category": "Mountain",
    "subcategory": "Peak",
    "featured": false,
    "priority": 50
  },
  {
    "geonameId": 2202333,
    "name": "Mabua Island",
    "latitude": -17.32994,
    "longitude": 178.2399,
    "category": "Island",
    "subcategory": "Island",
    "featured": false,
    "priority": 50
  },
  {
    "geonameId": 2203885,
    "name": "Macakani",
    "latitude": -16.67492,
    "longitude": 179.23289,
    "category": "Mountain",
    "subcategory": "Mountain",
    "featured": false,
    "priority": 50
  },
  {
    "geonameId": 2203878,
    "name": "Macuata Island",
    "latitude": -17.35515,
    "longitude": 178.03462,
    "category": "Island",
    "subcategory": "Island",
    "featured": false,
    "priority": 50
  },
  {
    "geonameId": 2204091,
    "name": "Madre",
    "latitude": -18.90033,
    "longitude": 178.46769,
    "category": "Mountain",
    "subcategory": "Mountain",
    "featured": false,
    "priority": 50
  },
  {
    "geonameId": 11706972,
    "name": "Madrose Island",
    "latitude": -17.17352,
    "longitude": -179.03254,
    "category": "Island",
    "subcategory": "Island",
    "featured": false,
    "priority": 50
  },
  {
    "geonameId": 2204086,
    "name": "Mago Island",
    "latitude": -19.02189,
    "longitude": 178.25582,
    "category": "Island",
    "subcategory": "Island",
    "featured": false,
    "priority": 50
  },
  {
    "geonameId": 2204085,
    "name": "Magodro",
    "latitude": -17.79132,
    "longitude": 177.73213,
    "category": "Mountain",
    "subcategory": "Mountain",
    "featured": false,
    "priority": 50
  },
  {
    "geonameId": 11706772,
    "name": "Magolailai Island",
    "latitude": -17.47271,
    "longitude": -179.17047,
    "category": "Island",
    "subcategory": "Island",
    "featured": false,
    "priority": 50
  },
  {
    "geonameId": 11104553,
    "name": "Magunu Falls",
    "latitude": -17.81623,
    "longitude": 177.70797,
    "category": "Waterfall",
    "subcategory": "Waterfall",
    "featured": false,
    "priority": 50
  },
  {
    "geonameId": 2204176,
    "name": "Makaluva",
    "latitude": -18.03365,
    "longitude": 178.28305,
    "category": "Mountain",
    "subcategory": "Mountain",
    "featured": false,
    "priority": 50
  },
  {
    "geonameId": 2204170,
    "name": "Makodraga Island",
    "latitude": -17.42298,
    "longitude": 178.94903,
    "category": "Island",
    "subcategory": "Island",
    "featured": false,
    "priority": 50
  },
  {
    "geonameId": 2204167,
    "name": "Makogai Island",
    "latitude": -17.45165,
    "longitude": 178.96446,
    "category": "Island",
    "subcategory": "Island",
    "featured": false,
    "priority": 50
  },
  {
    "geonameId": 2204166,
    "name": "Makuluva Island",
    "latitude": -18.18838,
    "longitude": 178.51732,
    "category": "Island",
    "subcategory": "Island",
    "featured": false,
    "priority": 50
  },
  {
    "geonameId": 2204156,
    "name": "Malake Island",
    "latitude": -17.32225,
    "longitude": 178.14352,
    "category": "Island",
    "subcategory": "Island",
    "featured": false,
    "priority": 50
  },
  {
    "geonameId": 2204152,
    "name": "Malamala Island",
    "latitude": -17.72386,
    "longitude": 177.27517,
    "category": "Island",
    "subcategory": "Island",
    "featured": false,
    "priority": 50
  },
  {
    "geonameId": 2204147,
    "name": "Malanggeo Island",
    "latitude": -16.26667,
    "longitude": 179.6,
    "category": "Island",
    "subcategory": "Island",
    "featured": false,
    "priority": 50
  },
  {
    "geonameId": 2204133,
    "name": "Malevu Island",
    "latitude": -17.48444,
    "longitude": 177.53593,
    "category": "Island",
    "subcategory": "Island",
    "featured": false,
    "priority": 50
  },
  {
    "geonameId": 2204130,
    "name": "Mali Island",
    "latitude": -16.34784,
    "longitude": 179.35563,
    "category": "Island",
    "subcategory": "Island",
    "featured": false,
    "priority": 50
  },
  {
    "geonameId": 11750792,
    "name": "Malima Lailai Island",
    "latitude": -17.11791,
    "longitude": -179.19881,
    "category": "Island",
    "subcategory": "Island",
    "featured": false,
    "priority": 50
  },
  {
    "geonameId": 4036111,
    "name": "Malima Levu Island",
    "latitude": -17.12269,
    "longitude": -179.19292,
    "category": "Island",
    "subcategory": "Island",
    "featured": false,
    "priority": 50
  },
  {
    "geonameId": 2204119,
    "name": "Malolo Island",
    "latitude": -17.74493,
    "longitude": 177.1692,
    "category": "Island",
    "subcategory": "Island",
    "featured": false,
    "priority": 50
  },
  {
    "geonameId": 2204118,
    "name": "Malolo Islands",
    "latitude": -17.75637,
    "longitude": 177.18149,
    "category": "Island",
    "subcategory": "Island Group",
    "featured": false,
    "priority": 50
  },
  {
    "geonameId": 2204117,
    "name": "Malolo Lailai Island",
    "latitude": -17.77819,
    "longitude": 177.19334,
    "category": "Island",
    "subcategory": "Island",
    "featured": false,
    "priority": 50
  },
  {
    "geonameId": 2204112,
    "name": "Malua",
    "latitude": -17.83055,
    "longitude": 177.8519,
    "category": "Mountain",
    "subcategory": "Mountain",
    "featured": false,
    "priority": 50
  },
  {
    "geonameId": 2204108,
    "name": "Mamanuca-I-Cake Group",
    "latitude": -17.59302,
    "longitude": 177.08328,
    "category": "Island",
    "subcategory": "Island Group",
    "featured": false,
    "priority": 50
  },
  {
    "geonameId": 2204107,
    "name": "Mamanuca-I-Ra Group",
    "latitude": -17.4766,
    "longitude": 177.04928,
    "category": "Island",
    "subcategory": "Island Group",
    "featured": false,
    "priority": 50
  },
  {
    "geonameId": 2204106,
    "name": "Mamanutha-i-Thake Group",
    "latitude": -17.61667,
    "longitude": 177.08333,
    "category": "Island",
    "subcategory": "Island Group",
    "featured": false,
    "priority": 50
  },
  {
    "geonameId": 2204104,
    "name": "Mambualau Islet",
    "latitude": -17.9732,
    "longitude": 178.75644,
    "category": "Island",
    "subcategory": "Island",
    "featured": false,
    "priority": 50
  },
  {
    "geonameId": 2204099,
    "name": "Mana Island",
    "latitude": -17.67318,
    "longitude": 177.10768,
    "category": "Island",
    "subcategory": "Island",
    "featured": false,
    "priority": 50
  },
  {
    "geonameId": 2204097,
    "name": "Manava Island",
    "latitude": -17.34627,
    "longitude": 177.81142,
    "category": "Island",
    "subcategory": "Island",
    "featured": false,
    "priority": 50
  },
  {
    "geonameId": 4036105,
    "name": "Manuka",
    "latitude": -16.83279,
    "longitude": -179.98202,
    "category": "Mountain",
    "subcategory": "Mountain",
    "featured": false,
    "priority": 50
  },
  {
    "geonameId": 2204073,
    "name": "Manukumo Island",
    "latitude": -17.98853,
    "longitude": 178.58973,
    "category": "Island",
    "subcategory": "Island",
    "featured": false,
    "priority": 50
  },
  {
    "geonameId": 2204071,
    "name": "Manuqiwa Island",
    "latitude": -18.97862,
    "longitude": 178.47769,
    "category": "Island",
    "subcategory": "Island",
    "featured": false,
    "priority": 50
  },
  {
    "geonameId": 4036107,
    "name": "Maqewa Island",
    "latitude": -16.49934,
    "longitude": -179.68101,
    "category": "Island",
    "subcategory": "Island",
    "featured": false,
    "priority": 50
  },
  {
    "geonameId": 2204088,
    "name": "Maqove",
    "latitude": -19.02013,
    "longitude": 178.19132,
    "category": "Mountain",
    "subcategory": "Mountain",
    "featured": false,
    "priority": 50
  },
  {
    "geonameId": 4036104,
    "name": "Marabo",
    "latitude": -18.98776,
    "longitude": -178.828,
    "category": "Island",
    "subcategory": "Island",
    "featured": false,
    "priority": 50
  },
  {
    "geonameId": 2204070,
    "name": "Marakunavicabe",
    "latitude": -18.03042,
    "longitude": 177.64733,
    "category": "Mountain",
    "subcategory": "Mountain",
    "featured": false,
    "priority": 50
  },
  {
    "geonameId": 2204064,
    "name": "Mariko",
    "latitude": -16.69013,
    "longitude": 179.39292,
    "category": "Mountain",
    "subcategory": "Mountain",
    "featured": false,
    "priority": 50
  },
  {
    "geonameId": 11245140,
    "name": "Matabelo Island",
    "latitude": -17.8033,
    "longitude": 178.59112,
    "category": "Island",
    "subcategory": "Island",
    "featured": false,
    "priority": 50
  },
  {
    "geonameId": 2203913,
    "name": "Matacawa Levu Island",
    "latitude": -16.95419,
    "longitude": 177.33556,
    "category": "Island",
    "subcategory": "Island",
    "featured": false,
    "priority": 50
  },
  {
    "geonameId": 11715199,
    "name": "Mataidrotu Island",
    "latitude": -17.24635,
    "longitude": -179.53212,
    "category": "Island",
    "subcategory": "Island",
    "featured": false,
    "priority": 50
  },
  {
    "geonameId": 11619313,
    "name": "Mataifeke Island",
    "latitude": -19.12415,
    "longitude": -178.59418,
    "category": "Island",
    "subcategory": "Island",
    "featured": false,
    "priority": 50
  },
  {
    "geonameId": 2204045,
    "name": "Mataikadavu Island",
    "latitude": -19.04167,
    "longitude": 178.44149,
    "category": "Island",
    "subcategory": "Island",
    "featured": false,
    "priority": 50
  },
  {
    "geonameId": 11619328,
    "name": "Matailakeba Islands",
    "latitude": -19.10822,
    "longitude": -178.57212,
    "category": "Island",
    "subcategory": "Island Group",
    "featured": false,
    "priority": 50
  },
  {
    "geonameId": 2204005,
    "name": "Matamanoa Island",
    "latitude": -17.63804,
    "longitude": 177.06659,
    "category": "Island",
    "subcategory": "Island",
    "featured": false,
    "priority": 50
  },
  {
    "geonameId": 2203987,
    "name": "Matana",
    "latitude": -16.47722,
    "longitude": 179.26624,
    "category": "Mountain",
    "subcategory": "Mountain",
    "featured": false,
    "priority": 50
  },
  {
    "geonameId": 4036103,
    "name": "Matangi Island",
    "latitude": -16.7291,
    "longitude": -179.7389,
    "category": "Island",
    "subcategory": "Island",
    "featured": false,
    "priority": 50
  },
  {
    "geonameId": 11189392,
    "name": "Matanigasau Island",
    "latitude": -18.25862,
    "longitude": 177.97831,
    "category": "Island",
    "subcategory": "Island",
    "featured": false,
    "priority": 50
  },
  {
    "geonameId": 2203944,
    "name": "Matanivusavusa",
    "latitude": -16.5164,
    "longitude": 179.22015,
    "category": "Mountain",
    "subcategory": "Mountain",
    "featured": false,
    "priority": 50
  },
  {
    "geonameId": 2203933,
    "name": "Matanuku Island",
    "latitude": -19.17014,
    "longitude": 178.1052,
    "category": "Island",
    "subcategory": "Island",
    "featured": false,
    "priority": 50
  },
  {
    "geonameId": 2203908,
    "name": "Matava Island",
    "latitude": -19.01656,
    "longitude": 178.25177,
    "category": "Island",
    "subcategory": "Island",
    "featured": false,
    "priority": 50
  },
  {
    "geonameId": 2203876,
    "name": "Mathuata-i-Wai Island",
    "latitude": -16.42716,
    "longitude": 179.06354,
    "category": "Island",
    "subcategory": "Island",
    "featured": false,
    "priority": 50
  },
  {
    "geonameId": 11200483,
    "name": "Matidamu",
    "latitude": -17.78169,
    "longitude": 178.3265,
    "category": "Mountain",
    "subcategory": "Mountain",
    "featured": false,
    "priority": 50
  },
  {
    "geonameId": 2203867,
    "name": "Matuku",
    "latitude": -19.15663,
    "longitude": 179.766,
    "category": "Island",
    "subcategory": "Island",
    "featured": false,
    "priority": 50
  },
  {
    "geonameId": 11706543,
    "name": "Matuku Island",
    "latitude": -16.53824,
    "longitude": -179.9718,
    "category": "Island",
    "subcategory": "Island",
    "featured": false,
    "priority": 50
  },
  {
    "geonameId": 11706544,
    "name": "Matuku Lailai Island",
    "latitude": -16.53634,
    "longitude": -179.96723,
    "category": "Island",
    "subcategory": "Island",
    "featured": false,
    "priority": 50
  },
  {
    "geonameId": 2203855,
    "name": "Mautu Island",
    "latitude": -19.01527,
    "longitude": 178.44649,
    "category": "Island",
    "subcategory": "Island",
    "featured": false,
    "priority": 50
  },
  {
    "geonameId": 12282181,
    "name": "Mavai Island",
    "latitude": -19.12744,
    "longitude": 179.7773,
    "category": "Island",
    "subcategory": "Island",
    "featured": false,
    "priority": 50
  },
  {
    "geonameId": 2203846,
    "name": "Mavuva Island",
    "latitude": -16.41412,
    "longitude": 179.08107,
    "category": "Island",
    "subcategory": "Island",
    "featured": false,
    "priority": 50
  },
  {
    "geonameId": 2203799,
    "name": "Mba Peak",
    "latitude": -17.55,
    "longitude": 177.56667,
    "category": "Mountain",
    "subcategory": "Peak",
    "featured": false,
    "priority": 50
  },
  {
    "geonameId": 2203833,
    "name": "Mbalama",
    "latitude": -17.66667,
    "longitude": 178.53333,
    "category": "Mountain",
    "subcategory": "Mountain",
    "featured": false,
    "priority": 50
  },
  {
    "geonameId": 2203754,
    "name": "Mbau Island",
    "latitude": -16.76667,
    "longitude": 179.35,
    "category": "Island",
    "subcategory": "Island",
    "featured": false,
    "priority": 50
  },
  {
    "geonameId": 2203717,
    "name": "Mbenggalevu Island",
    "latitude": -16.56667,
    "longitude": 179.76667,
    "category": "Island",
    "subcategory": "Island",
    "featured": false,
    "priority": 50
  },
  {
    "geonameId": 2203715,
    "name": "Mbenutha",
    "latitude": -16.66667,
    "longitude": 178.9,
    "category": "Mountain",
    "subcategory": "Mountain",
    "featured": false,
    "priority": 50
  },
  {
    "geonameId": 2203700,
    "name": "Mbiloniyanggona",
    "latitude": -18.98333,
    "longitude": 178.36667,
    "category": "Mountain",
    "subcategory": "Mountain",
    "featured": false,
    "priority": 50
  },
  {
    "geonameId": 2203669,
    "name": "Mboutini",
    "latitude": -16.58333,
    "longitude": 179.53333,
    "category": "Mountain",
    "subcategory": "Mountain",
    "featured": false,
    "priority": 50
  },
  {
    "geonameId": 2203522,
    "name": "Menaga Island",
    "latitude": -19.15211,
    "longitude": 178.10785,
    "category": "Island",
    "subcategory": "Island",
    "featured": false,
    "priority": 50
  },
  {
    "geonameId": 2203510,
    "name": "Mill Rock Island",
    "latitude": -16.7938,
    "longitude": 179.52674,
    "category": "Island",
    "subcategory": "Island",
    "featured": false,
    "priority": 50
  },
  {
    "geonameId": 2203506,
    "name": "Mindramata",
    "latitude": -16.68333,
    "longitude": 179.8,
    "category": "Mountain",
    "subcategory": "Mountain",
    "featured": false,
    "priority": 50
  },
  {
    "geonameId": 2203499,
    "name": "Moala",
    "latitude": -18.59211,
    "longitude": 179.89404,
    "category": "Island",
    "subcategory": "Island",
    "featured": false,
    "priority": 50
  },
  {
    "geonameId": 8410940,
    "name": "Moala Group",
    "latitude": -18.83514,
    "longitude": -179.93443,
    "category": "Island",
    "subcategory": "Island Group",
    "featured": false,
    "priority": 50
  },
  {
    "geonameId": 4036087,
    "name": "Moce",
    "latitude": -18.65018,
    "longitude": -178.50665,
    "category": "Island",
    "subcategory": "Island",
    "featured": false,
    "priority": 50
  },
  {
    "geonameId": 2203495,
    "name": "Moka Island",
    "latitude": -16.21667,
    "longitude": 179.1,
    "category": "Island",
    "subcategory": "Island",
    "featured": false,
    "priority": 50
  },
  {
    "geonameId": 2203475,
    "name": "Monasavu Falls",
    "latitude": -17.76667,
    "longitude": 178.05,
    "category": "Waterfall",
    "subcategory": "Waterfall",
    "featured": false,
    "priority": 50
  },
  {
    "geonameId": 11197799,
    "name": "Monasavu Lake",
    "latitude": -17.7356,
    "longitude": 178.02446,
    "category": "Lake",
    "subcategory": "Reservoir",
    "featured": false,
    "priority": 50
  },
  {
    "geonameId": 2203474,
    "name": "Monavatu",
    "latitude": -17.88986,
    "longitude": 177.96001,
    "category": "Mountain",
    "subcategory": "Mountain",
    "featured": false,
    "priority": 50
  },
  {
    "geonameId": 2203472,
    "name": "Monu Island",
    "latitude": -17.596,
    "longitude": 177.0421,
    "category": "Island",
    "subcategory": "Island",
    "featured": false,
    "priority": 50
  },
  {
    "geonameId": 2203471,
    "name": "Monuriki Island",
    "latitude": -17.60977,
    "longitude": 177.03412,
    "category": "Island",
    "subcategory": "Island",
    "featured": false,
    "priority": 50
  },
  {
    "geonameId": 2203468,
    "name": "Mosquito Island",
    "latitude": -18.11667,
    "longitude": 178.4,
    "category": "Island",
    "subcategory": "Island",
    "featured": false,
    "priority": 50
  },
  {
    "geonameId": 2203464,
    "name": "Mothiu Island",
    "latitude": -17.71827,
    "longitude": 177.1475,
    "category": "Island",
    "subcategory": "Island",
    "featured": false,
    "priority": 50
  },
  {
    "geonameId": 11499338,
    "name": "Motubua Island",
    "latitude": -16.8188,
    "longitude": 178.32887,
    "category": "Island",
    "subcategory": "Island",
    "featured": false,
    "priority": 50
  },
  {
    "geonameId": 2203450,
    "name": "Moturiki Island",
    "latitude": -18.4078,
    "longitude": 178.15277,
    "category": "Island",
    "subcategory": "Island",
    "featured": false,
    "priority": 50
  },
  {
    "geonameId": 2203448,
    "name": "Motuwa Island",
    "latitude": -16.4209,
    "longitude": 179.14018,
    "category": "Island",
    "subcategory": "Island",
    "featured": false,
    "priority": 50
  },
  {
    "geonameId": 2203447,
    "name": "Motuwangga Island",
    "latitude": -16.23333,
    "longitude": 179.81667,
    "category": "Island",
    "subcategory": "Island",
    "featured": false,
    "priority": 50
  },
  {
    "geonameId": 11231688,
    "name": "Mount Delailutunabitu",
    "latitude": -18.12069,
    "longitude": 178.20954,
    "category": "Mountain",
    "subcategory": "Mountain",
    "featured": false,
    "priority": 50
  },
  {
    "geonameId": 11231562,
    "name": "Mount Delaivitogo",
    "latitude": -18.16152,
    "longitude": 178.08877,
    "category": "Mountain",
    "subcategory": "Mountain",
    "featured": false,
    "priority": 50
  },
  {
    "geonameId": 11231687,
    "name": "Mount Delaiwainaraitava",
    "latitude": -18.12915,
    "longitude": 178.21961,
    "category": "Mountain",
    "subcategory": "Mountain",
    "featured": false,
    "priority": 50
  },
  {
    "geonameId": 11230142,
    "name": "Mount Kaname",
    "latitude": -18.10048,
    "longitude": 178.27959,
    "category": "Mountain",
    "subcategory": "Mountain",
    "featured": false,
    "priority": 50
  },
  {
    "geonameId": 2204868,
    "name": "Mount Korolevu",
    "latitude": -19.15434,
    "longitude": 179.76543,
    "category": "Mountain",
    "subcategory": "Mountain",
    "featured": false,
    "priority": 50
  },
  {
    "geonameId": 10347162,
    "name": "Mount Koromatovo",
    "latitude": -17.99659,
    "longitude": 177.84808,
    "category": "Mountain",
    "subcategory": "Mountain",
    "featured": false,
    "priority": 50
  },
  {
    "geonameId": 11104627,
    "name": "Mount Koronaburua",
    "latitude": -18.04656,
    "longitude": 177.7272,
    "category": "Mountain",
    "subcategory": "Mountain",
    "featured": false,
    "priority": 50
  },
  {
    "geonameId": 2204723,
    "name": "Mount Korotogaviti",
    "latitude": -19.17448,
    "longitude": 179.75019,
    "category": "Mountain",
    "subcategory": "Mountain",
    "featured": false,
    "priority": 50
  },
  {
    "geonameId": 11104632,
    "name": "Mount Nadarakalou",
    "latitude": -17.83688,
    "longitude": 177.91628,
    "category": "Mountain",
    "subcategory": "Mountain",
    "featured": false,
    "priority": 50
  },
  {
    "geonameId": 11104588,
    "name": "Mount Nasivia",
    "latitude": -17.87687,
    "longitude": 177.83295,
    "category": "Mountain",
    "subcategory": "Mountain",
    "featured": false,
    "priority": 50
  },
  {
    "geonameId": 2200430,
    "name": "Mount Navugavuga",
    "latitude": -19.16533,
    "longitude": 179.77078,
    "category": "Mountain",
    "subcategory": "Mountain",
    "featured": false,
    "priority": 50
  },
  {
    "geonameId": 2199348,
    "name": "Mount Qilaqila",
    "latitude": -19.13659,
    "longitude": 179.7533,
    "category": "Mountain",
    "subcategory": "Mountain",
    "featured": false,
    "priority": 50
  },
  {
    "geonameId": 11230203,
    "name": "Mount Rama",
    "latitude": -18.0877,
    "longitude": 178.30306,
    "category": "Mountain",
    "subcategory": "Mountain",
    "featured": false,
    "priority": 50
  },
  {
    "geonameId": 2198340,
    "name": "Mount Smythe",
    "latitude": -18.06667,
    "longitude": 178.23333,
    "category": "Mountain",
    "subcategory": "Mountain",
    "featured": false,
    "priority": 50
  },
  {
    "geonameId": 2197707,
    "name": "Mount Thuku",
    "latitude": -16.2,
    "longitude": 179.9,
    "category": "Mountain",
    "subcategory": "Mountain",
    "featured": false,
    "priority": 50
  },
  {
    "geonameId": 2197411,
    "name": "Mount Tuvutau",
    "latitude": -18.06513,
    "longitude": 177.76672,
    "category": "Mountain",
    "subcategory": "Mountain",
    "featured": false,
    "priority": 50
  },
  {
    "geonameId": 11231684,
    "name": "Mount Vatani",
    "latitude": -18.10895,
    "longitude": 178.25599,
    "category": "Mountain",
    "subcategory": "Mountain",
    "featured": false,
    "priority": 50
  },
  {
    "geonameId": 11104681,
    "name": "Mount Viribaioboro",
    "latitude": -17.9241,
    "longitude": 177.97016,
    "category": "Mountain",
    "subcategory": "Mountain",
    "featured": false,
    "priority": 50
  },
  {
    "geonameId": 2196351,
    "name": "Mount Vugadrodrolevu",
    "latitude": -18.01515,
    "longitude": 177.97566,
    "category": "Mountain",
    "subcategory": "Mountain",
    "featured": false,
    "priority": 50
  },
  {
    "geonameId": 11104567,
    "name": "Mount Vunaoumu",
    "latitude": -17.99357,
    "longitude": 177.83311,
    "category": "Mountain",
    "subcategory": "Mountain",
    "featured": false,
    "priority": 50
  },
  {
    "geonameId": 2203444,
    "name": "Mouthuri Island",
    "latitude": -16.58333,
    "longitude": 179.88333,
    "category": "Island",
    "subcategory": "Island",
    "featured": false,
    "priority": 50
  },
  {
    "geonameId": 2203417,
    "name": "Muaituna Island",
    "latitude": -16.45807,
    "longitude": 178.94357,
    "category": "Island",
    "subcategory": "Island",
    "featured": false,
    "priority": 50
  },
  {
    "geonameId": 2203363,
    "name": "Muasigasiga",
    "latitude": -17.88962,
    "longitude": 177.45618,
    "category": "Mountain",
    "subcategory": "Mountain",
    "featured": false,
    "priority": 50
  },
  {
    "geonameId": 2203352,
    "name": "Mundumundu Falls",
    "latitude": -16.78333,
    "longitude": 178.88333,
    "category": "Waterfall",
    "subcategory": "Waterfall",
    "featured": false,
    "priority": 50
  },
  {
    "geonameId": 4036077,
    "name": "Munia Island",
    "latitude": -17.36667,
    "longitude": -178.88333,
    "category": "Island",
    "subcategory": "Island",
    "featured": false,
    "priority": 50
  },
  {
    "geonameId": 2202532,
    "name": "Nabaka Island",
    "latitude": -16.76429,
    "longitude": 179.8476,
    "category": "Island",
    "subcategory": "Island",
    "featured": false,
    "priority": 50
  },
  {
    "geonameId": 2202531,
    "name": "Nabakanace Island",
    "latitude": -16.37514,
    "longitude": 179.78244,
    "category": "Island",
    "subcategory": "Island",
    "featured": false,
    "priority": 50
  },
  {
    "geonameId": 2202511,
    "name": "Nabalelailai Island",
    "latitude": -16.38928,
    "longitude": 179.33523,
    "category": "Island",
    "subcategory": "Island",
    "featured": false,
    "priority": 50
  },
  {
    "geonameId": 2202510,
    "name": "Nabalelevu Island",
    "latitude": -16.38817,
    "longitude": 179.33718,
    "category": "Island",
    "subcategory": "Island",
    "featured": false,
    "priority": 50
  },
  {
    "geonameId": 2202500,
    "name": "Nabama Island",
    "latitude": -17.57684,
    "longitude": 177.69022,
    "category": "Island",
    "subcategory": "Island",
    "featured": false,
    "priority": 50
  },
  {
    "geonameId": 2202485,
    "name": "Nabaseya",
    "latitude": -16.61328,
    "longitude": 179.46992,
    "category": "Mountain",
    "subcategory": "Mountain",
    "featured": false,
    "priority": 50
  },
  {
    "geonameId": 2202459,
    "name": "Nabaucara",
    "latitude": -17.78176,
    "longitude": 178.21729,
    "category": "Mountain",
    "subcategory": "Mountain",
    "featured": false,
    "priority": 50
  },
  {
    "geonameId": 2202450,
    "name": "Nabawaqa Island",
    "latitude": -17.20934,
    "longitude": 177.21827,
    "category": "Island",
    "subcategory": "Island",
    "featured": false,
    "priority": 50
  },
  {
    "geonameId": 2202442,
    "name": "Nabekavu Island",
    "latitude": -16.57125,
    "longitude": 178.88954,
    "category": "Island",
    "subcategory": "Island",
    "featured": false,
    "priority": 50
  },
  {
    "geonameId": 2202426,
    "name": "Nabilabila Falls",
    "latitude": -17.81571,
    "longitude": 178.04148,
    "category": "Waterfall",
    "subcategory": "Waterfall",
    "featured": false,
    "priority": 50
  },
  {
    "geonameId": 2202383,
    "name": "Naboreyava Island",
    "latitude": -17.76929,
    "longitude": 178.76707,
    "category": "Island",
    "subcategory": "Island",
    "featured": false,
    "priority": 50
  },
  {
    "geonameId": 2202332,
    "name": "Nabuakala",
    "latitude": -17.31215,
    "longitude": 179.38779,
    "category": "Mountain",
    "subcategory": "Mountain",
    "featured": false,
    "priority": 50
  },
  {
    "geonameId": 2199165,
    "name": "Nabuiloa",
    "latitude": -16.39778,
    "longitude": 179.42541,
    "category": "Mountain",
    "subcategory": "Mountain",
    "featured": false,
    "priority": 50
  },
  {
    "geonameId": 2202316,
    "name": "Nabukelevu",
    "latitude": -17.95019,
    "longitude": 178.26933,
    "category": "Mountain",
    "subcategory": "Peak",
    "featured": false,
    "priority": 50
  },
  {
    "geonameId": 2202308,
    "name": "Nabulailai",
    "latitude": -19.09026,
    "longitude": 178.06245,
    "category": "Mountain",
    "subcategory": "Mountain",
    "featured": false,
    "priority": 50
  },
  {
    "geonameId": 2202306,
    "name": "Nabulebulewa Island",
    "latitude": -17.63645,
    "longitude": 178.5822,
    "category": "Island",
    "subcategory": "Island",
    "featured": false,
    "priority": 50
  },
  {
    "geonameId": 2202302,
    "name": "Nabulikai Island",
    "latitude": -16.21775,
    "longitude": 179.84387,
    "category": "Island",
    "subcategory": "Island",
    "featured": false,
    "priority": 50
  },
  {
    "geonameId": 11619289,
    "name": "Nabulumiti Island",
    "latitude": -19.14183,
    "longitude": -178.59983,
    "category": "Island",
    "subcategory": "Island",
    "featured": false,
    "priority": 50
  },
  {
    "geonameId": 2199147,
    "name": "Nabuluni Island",
    "latitude": -16.58333,
    "longitude": 178.56667,
    "category": "Island",
    "subcategory": "Island",
    "featured": false,
    "priority": 50
  },
  {
    "geonameId": 2199099,
    "name": "Nabunivai Island",
    "latitude": -18.24953,
    "longitude": 178.13112,
    "category": "Island",
    "subcategory": "Island",
    "featured": false,
    "priority": 50
  },
  {
    "geonameId": 2202377,
    "name": "Naburogo Island",
    "latitude": -16.77868,
    "longitude": 179.88511,
    "category": "Island",
    "subcategory": "Island",
    "featured": false,
    "priority": 50
  },
  {
    "geonameId": 2201098,
    "name": "Nacau",
    "latitude": -17.8354,
    "longitude": 178.24893,
    "category": "Mountain",
    "subcategory": "Mountain",
    "featured": false,
    "priority": 50
  },
  {
    "geonameId": 11104079,
    "name": "Nacova Island",
    "latitude": -17.80934,
    "longitude": 177.37111,
    "category": "Island",
    "subcategory": "Island",
    "featured": false,
    "priority": 50
  },
  {
    "geonameId": 2201028,
    "name": "Nacula Island",
    "latitude": -16.89426,
    "longitude": 177.42064,
    "category": "Island",
    "subcategory": "Island",
    "featured": false,
    "priority": 50
  },
  {
    "geonameId": 2202130,
    "name": "Nadai",
    "latitude": -18.17847,
    "longitude": 177.64013,
    "category": "Mountain",
    "subcategory": "Mountain",
    "featured": false,
    "priority": 50
  },
  {
    "geonameId": 2202120,
    "name": "Nadakuniumu Island",
    "latitude": -16.18713,
    "longitude": 179.62223,
    "category": "Island",
    "subcategory": "Island",
    "featured": false,
    "priority": 50
  },
  {
    "geonameId": 2202080,
    "name": "Nadelaidovukula",
    "latitude": -17.79267,
    "longitude": 178.03345,
    "category": "Mountain",
    "subcategory": "Mountain",
    "featured": false,
    "priority": 50
  },
  {
    "geonameId": 2202079,
    "name": "Nadelaiovalau",
    "latitude": -17.67088,
    "longitude": 178.80898,
    "category": "Mountain",
    "subcategory": "Mountain",
    "featured": false,
    "priority": 50
  },
  {
    "geonameId": 2202077,
    "name": "Nadelanadro",
    "latitude": -17.48745,
    "longitude": 178.29706,
    "category": "Mountain",
    "subcategory": "Mountain",
    "featured": false,
    "priority": 50
  },
  {
    "geonameId": 2202064,
    "name": "Nadi",
    "latitude": -17.80309,
    "longitude": 177.41617,
    "category": "City",
    "subcategory": "City",
    "featured": false,
    "priority": 50
  },
  {
    "geonameId": 11594952,
    "name": "Nadogociri Island",
    "latitude": -16.89173,
    "longitude": 178.91089,
    "category": "Island",
    "subcategory": "Island",
    "featured": false,
    "priority": 50
  },
  {
    "geonameId": 11189512,
    "name": "Nadoi Reservoir",
    "latitude": -17.55115,
    "longitude": 177.94669,
    "category": "Lake",
    "subcategory": "Reservoir",
    "featured": false,
    "priority": 50
  },
  {
    "geonameId": 2201989,
    "name": "Nadrevutuka",
    "latitude": -17.62251,
    "longitude": 177.95576,
    "category": "Mountain",
    "subcategory": "Mountain",
    "featured": false,
    "priority": 50
  },
  {
    "geonameId": 11619171,
    "name": "Nadruadrua Island",
    "latitude": -21.03833,
    "longitude": -178.84288,
    "category": "Island",
    "subcategory": "Island",
    "featured": false,
    "priority": 50
  },
  {
    "geonameId": 11706968,
    "name": "Nadugu Island",
    "latitude": -17.17518,
    "longitude": -179.02072,
    "category": "Island",
    "subcategory": "Island",
    "featured": false,
    "priority": 50
  },
  {
    "geonameId": 4035992,
    "name": "Naevo Island",
    "latitude": -18.95302,
    "longitude": -178.34931,
    "category": "Island",
    "subcategory": "Island",
    "featured": false,
    "priority": 50
  },
  {
    "geonameId": 11705696,
    "name": "Nagagadamu Peak",
    "latitude": -17.76536,
    "longitude": -179.33775,
    "category": "Mountain",
    "subcategory": "Peak",
    "featured": false,
    "priority": 50
  },