[
  {
    "geonameId": 3427194,
    "name": "Anchor Island",
    "latitude": -52.18333,
    "longitude": -59.6,
    "category": "Island",
    "subcategory": "Island",
    "featured": false,
    "priority": 50
  },
  {
    "geonameId": 3473765,
    "name": "Annie Island",
    "latitude": -52.26703,
    "longitude": -59.6814,
    "category": "Island",
    "subcategory": "Island",
    "featured": false,
    "priority": 50
  },
  {
    "geonameId": 3832034,
    "name": "Arch Islands",
    "latitude": -52.21273,
    "longitude": -60.44214,
    "category": "Island",
    "subcategory": "Island Group",
    "featured": false,
    "priority": 50
  },
  {
    "geonameId": 3427190,
    "name": "Arrow Islands",
    "latitude": -51.87016,
    "longitude": -58.92361,
    "category": "Island",
    "subcategory": "Island Group",
    "featured": false,
    "priority": 50
  },
  {
    "geonameId": 3832032,
    "name": "Bald Island",
    "latitude": -51.77608,
    "longitude": -60.96422,
    "category": "Island",
    "subcategory": "Island",
    "featured": false,
    "priority": 50
  },
  {
    "geonameId": 3832030,
    "name": "Barclay Island",
    "latitude": -51.78642,
    "longitude": -61.10014,
    "category": "Island",
    "subcategory": "Island",
    "featured": false,
    "priority": 50
  },
  {
    "geonameId": 3427187,
    "name": "Barren Island",
    "latitude": -52.37743,
    "longitude": -59.69171,
    "category": "Island",
    "subcategory": "Island",
    "featured": false,
    "priority": 50
  },
  {
    "geonameId": 3427180,
    "name": "Beauchêne Island",
    "latitude": -52.91667,
    "longitude": -59.2,
    "category": "Island",
    "subcategory": "Island",
    "featured": false,
    "priority": 50
  },
  {
    "geonameId": 3832024,
    "name": "Beaver Island",
    "latitude": -51.83901,
    "longitude": -61.27255,
    "category": "Island",
    "subcategory": "Island",
    "featured": false,
    "priority": 50
  },
  {
    "geonameId": 3427179,
    "name": "Becher Islands",
    "latitude": -51.90729,
    "longitude": -58.78327,
    "category": "Island",
    "subcategory": "Island Group",
    "featured": false,
    "priority": 50
  },
  {
    "geonameId": 3965418,
    "name": "Beef Island",
    "latitude": -51.72773,
    "longitude": -61.27234,
    "category": "Island",
    "subcategory": "Island",
    "featured": false,
    "priority": 50
  },
  {
    "geonameId": 3832022,
    "name": "Bense Islands",
    "latitude": -51.4938,
    "longitude": -60.52258,
    "category": "Island",
    "subcategory": "Island Group",
    "featured": false,
    "priority": 50
  },
  {
    "geonameId": 3473359,
    "name": "Big Shag Island",
    "latitude": -51.39493,
    "longitude": -58.31644,
    "category": "Island",
    "subcategory": "Island",
    "featured": false,
    "priority": 50
  },
  {
    "geonameId": 3832021,
    "name": "Bird Island",
    "latitude": -52.16793,
    "longitude": -60.92679,
    "category": "Island",
    "subcategory": "Island",
    "featured": false,
    "priority": 50
  },
  {
    "geonameId": 3427170,
    "name": "Bleaker Island",
    "latitude": -52.21918,
    "longitude": -58.87542,
    "category": "Island",
    "subcategory": "Island",
    "featured": false,
    "priority": 50
  },
  {
    "geonameId": 3427169,
    "name": "Blind Island",
    "latitude": -52.27348,
    "longitude": -59.54731,
    "category": "Island",
    "subcategory": "Island",
    "featured": false,
    "priority": 50
  },
  {
    "geonameId": 3832019,
    "name": "Bluff Island",
    "latitude": -51.48126,
    "longitude": -60.14308,
    "category": "Island",
    "subcategory": "Island",
    "featured": false,
    "priority": 50
  },
  {
    "geonameId": 3427162,
    "name": "Bobs Island",
    "latitude": -51.45351,
    "longitude": -58.48885,
    "category": "Island",
    "subcategory": "Island",
    "featured": false,
    "priority": 50
  },
  {
    "geonameId": 3473804,
    "name": "Box Island",
    "latitude": -51.35,
    "longitude": -59.84095,
    "category": "Island",
    "subcategory": "Island",
    "featured": false,
    "priority": 50
  },
  {
    "geonameId": 3427147,
    "name": "Broken Island",
    "latitude": -51.34439,
    "longitude": -59.67508,
    "category": "Island",
    "subcategory": "Island",
    "featured": false,
    "priority": 50
  },
  {
    "geonameId": 3427144,
    "name": "Bull Islet",
    "latitude": -52.29019,
    "longitude": -59.33785,
    "category": "Island",
    "subcategory": "Island",
    "featured": false,
    "priority": 50
  },
  {
    "geonameId": 3427137,
    "name": "Burnt Island",
    "latitude": -52.02801,
    "longitude": -59.18436,
    "category": "Island",
    "subcategory": "Island",
    "featured": false,
    "priority": 50
  },
  {
    "geonameId": 3427134,
    "name": "Button Island",
    "latitude": -52.07861,
    "longitude": -59.05779,
    "category": "Island",
    "subcategory": "Island",
    "featured": false,
    "priority": 50
  },
  {
    "geonameId": 3832006,
    "name": "Button Islet",
    "latitude": -51.34264,
    "longitude": -60.44662,
    "category": "Island",
    "subcategory": "Island",
    "featured": false,
    "priority": 50
  },
  {
    "geonameId": 3427132,
    "name": "Calista Island",
    "latitude": -52.03047,
    "longitude": -59.85516,
    "category": "Island",
    "subcategory": "Island",
    "featured": false,
    "priority": 50
  },
  {
    "geonameId": 3832002,
    "name": "Carcass Island",
    "latitude": -51.28228,
    "longitude": -60.55769,
    "category": "Island",
    "subcategory": "Island",
    "featured": false,
    "priority": 50
  },
  {
    "geonameId": 3427118,
    "name": "Cat Islet",
    "latitude": -51.53687,
    "longitude": -59.15376,
    "category": "Island",
    "subcategory": "Island",
    "featured": false,
    "priority": 50
  },
  {
    "geonameId": 3427114,
    "name": "Centre Island",
    "latitude": -51.94522,
    "longitude": -58.56701,
    "category": "Island",
    "subcategory": "Island",
    "featured": false,
    "priority": 50
  },
  {
    "geonameId": 3831997,
    "name": "Channel Islands",
    "latitude": -51.80572,
    "longitude": -61.19455,
    "category": "Island",
    "subcategory": "Island Group",
    "featured": false,
    "priority": 50
  },
  {
    "geonameId": 3831990,
    "name": "Circum Island",
    "latitude": -51.93483,
    "longitude": -60.87624,
    "category": "Island",
    "subcategory": "Island",
    "featured": false,
    "priority": 50
  },
  {
    "geonameId": 3831989,
    "name": "Cliff Island",
    "latitude": -51.47702,
    "longitude": -60.56321,
    "category": "Island",
    "subcategory": "Island",
    "featured": false,
    "priority": 50
  },
  {
    "geonameId": 3965417,
    "name": "Cliff Knob Island",
    "latitude": -51.72064,
    "longitude": -61.23313,
    "category": "Island",
    "subcategory": "Island",
    "featured": false,
    "priority": 50
  },
  {
    "geonameId": 3831988,
    "name": "Cliff Mountain",
    "latitude": -51.36369,
    "longitude": -60.70706,
    "category": "Mountain",
    "subcategory": "Mountain",
    "featured": false,
    "priority": 50
  },
  {
    "geonameId": 3831985,
    "name": "Clump Island",
    "latitude": -52.21667,
    "longitude": -60.5,
    "category": "Island",
    "subcategory": "Island",
    "featured": false,
    "priority": 50
  },
  {
    "geonameId": 3831984,
    "name": "Clump Islands",
    "latitude": -52.23333,
    "longitude": -60.5,
    "category": "Island",
    "subcategory": "Island Group",
    "featured": false,
    "priority": 50
  },
  {
    "geonameId": 3427101,
    "name": "Clump Islet",
    "latitude": -52.02461,
    "longitude": -59.75313,
    "category": "Island",
    "subcategory": "Island",
    "featured": false,
    "priority": 50
  },
  {
    "geonameId": 3427100,
    "name": "Cochon Island",
    "latitude": -51.60473,
    "longitude": -57.78929,
    "category": "Island",
    "subcategory": "Island",
    "featured": false,
    "priority": 50
  },
  {
    "geonameId": 3831983,
    "name": "Coffin Island",
    "latitude": -51.73799,
    "longitude": -61.25652,
    "category": "Island",
    "subcategory": "Island",
    "featured": false,
    "priority": 50
  },
  {
    "geonameId": 3831978,
    "name": "Cross Island",
    "latitude": -52.18715,
    "longitude": -60.698,
    "category": "Island",
    "subcategory": "Island",
    "featured": false,
    "priority": 50
  },
  {
    "geonameId": 3427082,
    "name": "Direction Islet",
    "latitude": -51.89663,
    "longitude": -58.35122,
    "category": "Island",
    "subcategory": "Island",
    "featured": false,
    "priority": 50
  },
  {
    "geonameId": 3965435,
    "name": "Double Creek Islands",
    "latitude": -51.98054,
    "longitude": -60.57592,
    "category": "Island",
    "subcategory": "Island Group",
    "featured": false,
    "priority": 50
  },
  {
    "geonameId": 3831974,
    "name": "Double Island",
    "latitude": -51.86727,
    "longitude": -60.50841,
    "category": "Island",
    "subcategory": "Island",
    "featured": false,
    "priority": 50
  },
  {
    "geonameId": 3427070,
    "name": "Dry Island",
    "latitude": -51.37145,
    "longitude": -59.89413,
    "category": "Island",
    "subcategory": "Island",
    "featured": false,
    "priority": 50
  },
  {
    "geonameId": 3831970,
    "name": "Dunbar Island",
    "latitude": -51.36316,
    "longitude": -60.38841,
    "category": "Island",
    "subcategory": "Island",
    "featured": false,
    "priority": 50
  },
  {
    "geonameId": 3831967,
    "name": "Dyke Island",
    "latitude": -51.99222,
    "longitude": -60.88707,
    "category": "Island",
    "subcategory": "Island",
    "featured": false,
    "priority": 50
  },
  {
    "geonameId": 3427063,
    "name": "Ear Island",
    "latitude": -51.46697,
    "longitude": -58.39014,
    "category": "Island",
    "subcategory": "Island",
    "featured": false,
    "priority": 50
  },
  {
    "geonameId": 3427061,
    "name": "East Falkland",
    "latitude": -51.96067,
    "longitude": -59.27251,
    "category": "Island",
    "subcategory": "Island",
    "featured": false,
    "priority": 50
  },
  {
    "geonameId": 3427058,
    "name": "East Island",
    "latitude": -51.78965,
    "longitude": -58.06582,
    "category": "Island",
    "subcategory": "Island",
    "featured": false,
    "priority": 50
  },
  {
    "geonameId": 3427048,
    "name": "Elephant Cays",
    "latitude": -52.13003,
    "longitude": -59.85119,
    "category": "Island",
    "subcategory": "Island Group",
    "featured": false,
    "priority": 50
  },
  {
    "geonameId": 3427047,
    "name": "Elephant Island",
    "latitude": -51.87712,
    "longitude": -58.2924,
    "category": "Island",
    "subcategory": "Island",
    "featured": false,
    "priority": 50
  },
  {
    "geonameId": 3831955,
    "name": "Elephant Jason",
    "latitude": -51.15893,
    "longitude": -60.84737,
    "category": "Island",
    "subcategory": "Island",
    "featured": false,
    "priority": 50
  },
  {
    "geonameId": 3427040,
    "name": "Falkland Islands (Islas Malvinas)",
    "latitude": -51.75,
    "longitude": -59,
    "category": "Island",
    "subcategory": "Island Group",
    "featured": false,
    "priority": 50
  },
  {
    "geonameId": 3427034,
    "name": "Fanning Island",
    "latitude": -51.48361,
    "longitude": -59.0745,
    "category": "Island",
    "subcategory": "Island",
    "featured": false,
    "priority": 50
  },
  {
    "geonameId": 3427033,
    "name": "Fanny Islets",
    "latitude": -52.24122,
    "longitude": -59.31253,
    "category": "Island",
    "subcategory": "Island Group",
    "featured": false,
    "priority": 50
  },
  {
    "geonameId": 3831948,
    "name": "First Island",
    "latitude": -51.64042,
    "longitude": -60.68122,
    "category": "Island",
    "subcategory": "Island",
    "featured": false,
    "priority": 50
  },
  {
    "geonameId": 3831943,
    "name": "Flat Islet",
    "latitude": -51.95,
    "longitude": -60.06667,
    "category": "Island",
    "subcategory": "Island",
    "featured": false,
    "priority": 50
  },
  {
    "geonameId": 3831942,
    "name": "Flat Jason",
    "latitude": -51.10381,
    "longitude": -60.8863,
    "category": "Island",
    "subcategory": "Island",
    "featured": false,
    "priority": 50
  },
  {
    "geonameId": 3473762,
    "name": "Flores Harbour Island",
    "latitude": -52.22871,
    "longitude": -59.59031,
    "category": "Island",
    "subcategory": "Island",
    "featured": false,
    "priority": 50
  },
  {
    "geonameId": 3831940,
    "name": "Fourth Salem",
    "latitude": -51.5627,
    "longitude": -60.87238,
    "category": "Island",
    "subcategory": "Island",
    "featured": false,
    "priority": 50
  },
  {
    "geonameId": 3965450,
    "name": "Fox Bay Mount",
    "latitude": -51.98381,
    "longitude": -60.12446,
    "category": "Mountain",
    "subcategory": "Mountain",
    "featured": false,
    "priority": 50
  },
  {
    "geonameId": 3831935,
    "name": "Fox Island",
    "latitude": -51.83966,
    "longitude": -60.48995,
    "category": "Island",
    "subcategory": "Island",
    "featured": false,
    "priority": 50
  },
  {
    "geonameId": 3427005,
    "name": "George Island",
    "latitude": -52.33283,
    "longitude": -59.74289,
    "category": "Island",
    "subcategory": "Island",
    "featured": false,
    "priority": 50
  },
  {
    "geonameId": 3965436,
    "name": "Gid’s Island",
    "latitude": -51.64782,
    "longitude": -60.30251,
    "category": "Island",
    "subcategory": "Island",
    "featured": false,
    "priority": 50
  },
  {
    "geonameId": 3426999,
    "name": "Golding Island",
    "latitude": -51.35185,
    "longitude": -59.75023,
    "category": "Island",
    "subcategory": "Island",
    "featured": false,
    "priority": 50
  },
  {
    "geonameId": 3426994,
    "name": "Government Islet",
    "latitude": -51.21568,
    "longitude": -59.9154,
    "category": "Island",
    "subcategory": "Island",
    "featured": false,
    "priority": 50
  },
  {
    "geonameId": 3831926,
    "name": "Governor Island",
    "latitude": -51.85698,
    "longitude": -61.18609,
    "category": "Island",
    "subcategory": "Island",
    "featured": false,
    "priority": 50
  },
  {
    "geonameId": 3831924,
    "name": "Grand Jason",
    "latitude": -51.05783,
    "longitude": -61.09229,
    "category": "Island",
    "subcategory": "Island",
    "featured": false,
    "priority": 50
  },
  {
    "geonameId": 3426990,
    "name": "Great Island",
    "latitude": -52.07541,
    "longitude": -59.0843,
    "category": "Island",
    "subcategory": "Island",
    "featured": false,
    "priority": 50
  },
  {
    "geonameId": 3426988,
    "name": "Green Island",
    "latitude": -51.96248,
    "longitude": -58.50995,
    "category": "Island",
    "subcategory": "Island",
    "featured": false,
    "priority": 50
  },
  {
    "geonameId": 3426985,
    "name": "Gull Island",
    "latitude": -51.9469,
    "longitude": -58.76629,
    "category": "Island",
    "subcategory": "Island",
    "featured": false,
    "priority": 50
  },
  {
    "geonameId": 3831913,
    "name": "Half Tide Island",
    "latitude": -51.76648,
    "longitude": -60.22105,
    "category": "Island",
    "subcategory": "Island",
    "featured": false,
    "priority": 50
  },
  {
    "geonameId": 3426982,
    "name": "Halt Island",
    "latitude": -52.18884,
    "longitude": -58.87835,
    "category": "Island",
    "subcategory": "Island",
    "featured": false,
    "priority": 50
  },
  {
    "geonameId": 3426979,
    "name": "Harbour Islands",
    "latitude": -52.24838,
    "longitude": -59.29882,
    "category": "Island",
    "subcategory": "Island Group",
    "featured": false,
    "priority": 50
  },
  {
    "geonameId": 3426977,
    "name": "Hare Island",
    "latitude": -51.83333,
    "longitude": -58.95,
    "category": "Island",
    "subcategory": "Island",
    "featured": false,
    "priority": 50
  },
  {
    "geonameId": 3426971,
    "name": "High Cliff Island",
    "latitude": -51.80852,
    "longitude": -59.482,
    "category": "Island",
    "subcategory": "Island",
    "featured": false,
    "priority": 50
  },
  {
    "geonameId": 3426970,
    "name": "High Island",
    "latitude": -51.53394,
    "longitude": -58.35419,
    "category": "Island",
    "subcategory": "Island",
    "featured": false,
    "priority": 50
  },
  {
    "geonameId": 3473751,
    "name": "Hill Gap Island",
    "latitude": -51.84499,
    "longitude": -59.76434,
    "category": "Island",
    "subcategory": "Island",
    "featured": false,
    "priority": 50
  },
  {
    "geonameId": 3831907,
    "name": "Hill Island",
    "latitude": -51.79875,
    "longitude": -61.08316,
    "category": "Island",
    "subcategory": "Island",
    "featured": false,
    "priority": 50
  },
  {
    "geonameId": 3426967,
    "name": "Hog Island",
    "latitude": -51.53333,
    "longitude": -58.08333,
    "category": "Island",
    "subcategory": "Island",
    "featured": false,
    "priority": 50
  },
  {
    "geonameId": 3831899,
    "name": "Hummock Island",
    "latitude": -51.61536,
    "longitude": -60.43837,
    "category": "Island",
    "subcategory": "Island",
    "featured": false,
    "priority": 50
  },
  {
    "geonameId": 3831894,
    "name": "Jason East Cay",
    "latitude": -51.00283,
    "longitude": -61.30588,
    "category": "Island",
    "subcategory": "Island",
    "featured": false,
    "priority": 50
  },
  {
    "geonameId": 3831893,
    "name": "Jason Islands",
    "latitude": -51.0961,
    "longitude": -60.97892,
    "category": "Island",
    "subcategory": "Island Group",
    "featured": false,
    "priority": 50
  },
  {
    "geonameId": 3831892,
    "name": "Jason West Cay",
    "latitude": -50.99957,
    "longitude": -61.45034,
    "category": "Island",
    "subcategory": "Island",
    "featured": false,
    "priority": 50
  },
  {
    "geonameId": 3426940,
    "name": "Kelp Island",
    "latitude": -52.2,
    "longitude": -59.25,
    "category": "Island",
    "subcategory": "Island",
    "featured": false,
    "priority": 50
  },
  {
    "geonameId": 3426939,
    "name": "Kelp Islands",
    "latitude": -51.86667,
    "longitude": -58.2,
    "category": "Island",
    "subcategory": "Island Group",
    "featured": false,
    "priority": 50
  },
  {
    "geonameId": 3426938,
    "name": "Kelp Islet",
    "latitude": -52.1313,
    "longitude": -59.01466,
    "category": "Island",
    "subcategory": "Island",
    "featured": false,
    "priority": 50
  },
  {
    "geonameId": 3426933,
    "name": "Keppel Island",
    "latitude": -51.31535,
    "longitude": -59.97257,
    "category": "Island",
    "subcategory": "Island",
    "featured": false,
    "priority": 50
  },
  {
    "geonameId": 3426932,
    "name": "Keppel Islet",
    "latitude": -51.26998,
    "longitude": -59.89255,
    "category": "Island",
    "subcategory": "Island",
    "featured": false,
    "priority": 50
  },
  {
    "geonameId": 3426929,
    "name": "Kidney Island",
    "latitude": -51.62407,
    "longitude": -57.75054,
    "category": "Island",
    "subcategory": "Island",
    "featured": false,
    "priority": 50
  },
  {
    "geonameId": 3426928,
    "name": "Kidney Islands",
    "latitude": -51.99412,
    "longitude": -58.52508,
    "category": "Island",
    "subcategory": "Island Group",
    "featured": false,
    "priority": 50
  },
  {
    "geonameId": 3831887,
    "name": "Knob Islet",
    "latitude": -51.96667,
    "longitude": -60.06667,
    "category": "Island",
    "subcategory": "Island",
    "featured": false,
    "priority": 50
  },
  {
    "geonameId": 3831886,
    "name": "Knoll Island",
    "latitude": -52.14195,
    "longitude": -60.76979,
    "category": "Island",
    "subcategory": "Island",
    "featured": false,
    "priority": 50
  },
  {
    "geonameId": 3965442,
    "name": "Lake Hammond",
    "latitude": -51.94711,
    "longitude": -60.34597,
    "category": "Lake",
    "subcategory": "Lake",
    "featured": false,
    "priority": 50
  },
  {
    "geonameId": 3965444,
    "name": "Lake Sulivan",
    "latitude": -51.82628,
    "longitude": -60.19568,
    "category": "Lake",
    "subcategory": "Lake",
    "featured": false,
    "priority": 50
  },
  {
    "geonameId": 3426919,
    "name": "Large Island",
    "latitude": -52.14142,
    "longitude": -59.00025,
    "category": "Island",
    "subcategory": "Island",
    "featured": false,
    "priority": 50
  },
  {
    "geonameId": 3965576,
    "name": "Little Bense",
    "latitude": -51.48486,
    "longitude": -60.5107,
    "category": "Island",
    "subcategory": "Island",
    "featured": false,
    "priority": 50
  },
  {
    "geonameId": 3426914,
    "name": "Little East Island",
    "latitude": -51.795,
    "longitude": -58.04572,
    "category": "Island",
    "subcategory": "Island",
    "featured": false,
    "priority": 50
  },
  {
    "geonameId": 3426913,
    "name": "Little Harbour Island",
    "latitude": -52.25478,
    "longitude": -59.26732,
    "category": "Island",
    "subcategory": "Island",
    "featured": false,
    "priority": 50
  },
  {
    "geonameId": 3426912,
    "name": "Little Island",
    "latitude": -52.14319,
    "longitude": -58.97132,
    "category": "Island",
    "subcategory": "Island",
    "featured": false,
    "priority": 50
  },
  {
    "geonameId": 3426712,
    "name": "Little Shag Island",
    "latitude": -51.39124,
    "longitude": -58.32026,
    "category": "Island",
    "subcategory": "Island",
    "featured": false,
    "priority": 50
  },
  {
    "geonameId": 3426910,
    "name": "Lively Island",
    "latitude": -52.04206,
    "longitude": -58.47922,
    "category": "Island",
    "subcategory": "Island",
    "featured": false,
    "priority": 50
  },
  {
    "geonameId": 3473613,
    "name": "Loch Head Pond",
    "latitude": -51.39769,
    "longitude": -57.91049,
    "category": "Lake",
    "subcategory": "Lake",
    "featured": false,
    "priority": 50
  },
  {
    "geonameId": 3426907,
    "name": "Long Island",
    "latitude": -51.55671,
    "longitude": -58.07002,
    "category": "Island",
    "subcategory": "Island",
    "featured": false,
    "priority": 50
  },
  {
    "geonameId": 3426906,
    "name": "Long Island Mountain",
    "latitude": -51.60997,
    "longitude": -58.08768,
    "category": "Mountain",
    "subcategory": "Mountain",
    "featured": false,
    "priority": 50
  },
  {
    "geonameId": 3831881,
    "name": "Low Island",
    "latitude": -51.80221,
    "longitude": -61.11888,
    "category": "Island",
    "subcategory": "Island",
    "featured": false,
    "priority": 50
  },
  {
    "geonameId": 3426872,
    "name": "Mid Island",
    "latitude": -52.2383,
    "longitude": -59.63012,
    "category": "Island",
    "subcategory": "Island",
    "featured": false,
    "priority": 50
  },
  {
    "geonameId": 3426876,
    "name": "Middle Island",
    "latitude": -51.95559,
    "longitude": -58.46923,
    "category": "Island",
    "subcategory": "Island",
    "featured": false,
    "priority": 50
  },
  {
    "geonameId": 3426857,
    "name": "Motley Island",
    "latitude": -52.13499,
    "longitude": -58.61223,
    "category": "Island",
    "subcategory": "Island",
    "featured": false,
    "priority": 50
  },
  {
    "geonameId": 3427199,
    "name": "Mount Adam",
    "latitude": -51.5818,
    "longitude": -60.06575,
    "category": "Mountain",
    "subcategory": "Mountain",
    "featured": false,
    "priority": 50
  },
  {
    "geonameId": 3832028,
    "name": "Mount Beaufort",
    "latitude": -51.56667,
    "longitude": -60.05,
    "category": "Mountain",
    "subcategory": "Mountain",
    "featured": false,
    "priority": 50
  },
  {
    "geonameId": 3832012,
    "name": "Mount Brown",
    "latitude": -51.46323,
    "longitude": -60.38113,
    "category": "Mountain",
    "subcategory": "Mountain",
    "featured": false,
    "priority": 50
  },
  {
    "geonameId": 3427110,
    "name": "Mount Challenger",
    "latitude": -51.7123,
    "longitude": -58.10031,
    "category": "Mountain",
    "subcategory": "Mountain",
    "featured": false,
    "priority": 50
  },
  {
    "geonameId": 3831994,
    "name": "Mount Chartres",
    "latitude": -51.71667,
    "longitude": -60.11667,
    "category": "Mountain",
    "subcategory": "Mountain",
    "featured": false,
    "priority": 50
  },
  {
    "geonameId": 3965451,
    "name": "Mount Dean",
    "latitude": -52.08869,
    "longitude": -60.78306,
    "category": "Mountain",
    "subcategory": "Mountain",
    "featured": false,
    "priority": 50
  },
  {
    "geonameId": 3831972,
    "name": "Mount Doyle",
    "latitude": -51.76129,
    "longitude": -60.14305,
    "category": "Mountain",
    "subcategory": "Mountain",
    "featured": false,
    "priority": 50
  },
  {
    "geonameId": 3427053,
    "name": "Mount Edgeworth",
    "latitude": -51.55207,
    "longitude": -59.88655,
    "category": "Mountain",
    "subcategory": "Mountain",
    "featured": false,
    "priority": 50
  },
  {
    "geonameId": 3965449,
    "name": "Mount Emery",
    "latitude": -52.04501,
    "longitude": -60.33846,
    "category": "Mountain",
    "subcategory": "Mountain",
    "featured": false,
    "priority": 50
  },
  {
    "geonameId": 3831950,
    "name": "Mount Fegen",
    "latitude": -51.49954,
    "longitude": -60.2827,
    "category": "Mountain",
    "subcategory": "Mountain",
    "featured": false,
    "priority": 50
  },
  {
    "geonameId": 3831911,
    "name": "Mount Harston",
    "latitude": -51.28867,
    "longitude": -60.27831,
    "category": "Mountain",
    "subcategory": "Mountain",
    "featured": false,
    "priority": 50
  },
  {
    "geonameId": 3426935,
    "name": "Mount Kent",
    "latitude": -51.67367,
    "longitude": -58.10807,
    "category": "Mountain",
    "subcategory": "Mountain",
    "featured": false,
    "priority": 50
  },
  {
    "geonameId": 3426934,
    "name": "Mount Keppel",
    "latitude": -51.33225,
    "longitude": -59.9618,
    "category": "Mountain",
    "subcategory": "Mountain",
    "featured": false,
    "priority": 50
  },
  {
    "geonameId": 3426884,
    "name": "Mount Maria",
    "latitude": -51.61804,
    "longitude": -59.60152,
    "category": "Mountain",
    "subcategory": "Mountain",
    "featured": false,
    "priority": 50
  },
  {
    "geonameId": 3965558,
    "name": "Mount Misery",
    "latitude": -51.37508,
    "longitude": -60.70291,
    "category": "Mountain",
    "subcategory": "Mountain",
    "featured": false,
    "priority": 50
  },
  {
    "geonameId": 3426862,
    "name": "Mount Moody",
    "latitude": -51.76414,
    "longitude": -59.76065,
    "category": "Mountain",
    "subcategory": "Mountain",
    "featured": false,
    "priority": 50
  },
  {
    "geonameId": 3831843,
    "name": "Mount Philomel",
    "latitude": -51.77016,
    "longitude": -60.06798,
    "category": "Mountain",
    "subcategory": "Mountain",
    "featured": false,
    "priority": 50
  },
  {
    "geonameId": 3831839,
    "name": "Mount Pickthorne",
    "latitude": -51.50803,
    "longitude": -60.49511,
    "category": "Mountain",
    "subcategory": "Mountain",
    "featured": false,
    "priority": 50
  },
  {
    "geonameId": 3426785,
    "name": "Mount Purvis",
    "latitude": -51.4232,
    "longitude": -59.53467,
    "category": "Mountain",
    "subcategory": "Mountain",
    "featured": false,
    "priority": 50
  },
  {
    "geonameId": 3831812,
    "name": "Mount Rees",
    "latitude": -51.39075,
    "longitude": -60.24381,
    "category": "Mountain",
    "subcategory": "Mountain",
    "featured": false,
    "priority": 50
  },
  {
    "geonameId": 3831810,
    "name": "Mount Richards",
    "latitude": -51.3273,
    "longitude": -60.17474,
    "category": "Mountain",
    "subcategory": "Mountain",
    "featured": false,
    "priority": 50
  },
  {
    "geonameId": 3473357,
    "name": "Mount Robinson",
    "latitude": -51.6078,
    "longitude": -59.94888,
    "category": "Mountain",
    "subcategory": "Mountain",
    "featured": false,
    "priority": 50
  },
  {
    "geonameId": 3426757,
    "name": "Mount Rosalie",
    "latitude": -51.471,
    "longitude": -59.34139,
    "category": "Mountain",
    "subcategory": "Mountain",
    "featured": false,
    "priority": 50
  },
  {
    "geonameId": 3426701,
    "name": "Mount Simon",
    "latitude": -51.63341,
    "longitude": -58.53469,
    "category": "Mountain",
    "subcategory": "Mountain",
    "featured": false,
    "priority": 50
  },
  {
    "geonameId": 3831748,
    "name": "Mount Sulivan",
    "latitude": -51.85731,
    "longitude": -60.12895,
    "category": "Mountain",
    "subcategory": "Mountain",
    "featured": false,
    "priority": 50
  },
  {
    "geonameId": 3426652,
    "name": "Mount Usborne",
    "latitude": -51.70019,
    "longitude": -58.8259,
    "category": "Mountain",
    "subcategory": "Mountain",
    "featured": false,
    "priority": 50
  },
  {
    "geonameId": 3426651,
    "name": "Mount Vernet",
    "latitude": -51.63333,
    "longitude": -58.08333,
    "category": "Mountain",
    "subcategory": "Mountain",
    "featured": false,
    "priority": 50
  },
  {
    "geonameId": 3831726,
    "name": "Mount Weddell",
    "latitude": -51.92712,
    "longitude": -60.95519,
    "category": "Mountain",
    "subcategory": "Mountain",
    "featured": false,
    "priority": 50
  },
  {
    "geonameId": 3426619,
    "name": "Mount Wickham",
    "latitude": -51.73385,
    "longitude": -58.53436,
    "category": "Mountain",
    "subcategory": "Mountain",
    "featured": false,
    "priority": 50
  },
  {
    "geonameId": 3831704,
    "name": "Mount Young",
    "latitude": -52.09507,
    "longitude": -60.60289,
    "category": "Mountain",
    "subcategory": "Mountain",
    "featured": false,
    "priority": 50
  },
  {
    "geonameId": 3426850,
    "name": "Narrow Island",
    "latitude": -51.38299,
    "longitude": -59.71086,
    "category": "Island",
    "subcategory": "Island",
    "featured": false,
    "priority": 50
  },
  {
    "geonameId": 3831868,
    "name": "New Island",
    "latitude": -51.7,
    "longitude": -61.28333,
    "category": "Island",
    "subcategory": "Island",
    "featured": false,
    "priority": 50
  },
  {
    "geonameId": 3473342,
    "name": "North East Island",
    "latitude": -52.01443,
    "longitude": -58.36543,
    "category": "Island",
    "subcategory": "Island",
    "featured": false,
    "priority": 50
  },
  {
    "geonameId": 3831861,
    "name": "North Fur Island",
    "latitude": -51.12952,
    "longitude": -60.74525,
    "category": "Island",
    "subcategory": "Island",
    "featured": false,
    "priority": 50
  },
  {
    "geonameId": 3426836,
    "name": "North Island",
    "latitude": -52,
    "longitude": -59.13333,
    "category": "Island",
    "subcategory": "Island",
    "featured": false,
    "priority": 50
  },
  {
    "geonameId": 3426833,
    "name": "North Point Island",
    "latitude": -52.14147,
    "longitude": -58.85649,
    "category": "Island",
    "subcategory": "Island",
    "featured": false,
    "priority": 50
  },
  {
    "geonameId": 3426832,
    "name": "North Swan Island",
    "latitude": -51.74028,
    "longitude": -59.51567,
    "category": "Island",
    "subcategory": "Island",
    "featured": false,
    "priority": 50
  },
  {
    "geonameId": 3426830,
    "name": "North West Islands",
    "latitude": -51.58747,
    "longitude": -59.21173,
    "category": "Island",
    "subcategory": "Island Group",
    "featured": false,
    "priority": 50
  },
  {
    "geonameId": 3831853,
    "name": "Outer Island",
    "latitude": -51.86398,
    "longitude": -60.52492,
    "category": "Island",
    "subcategory": "Island",
    "featured": false,
    "priority": 50
  },
  {
    "geonameId": 3426821,
    "name": "Passage Island",
    "latitude": -51.37068,
    "longitude": -59.84728,
    "category": "Island",
    "subcategory": "Island",
    "featured": false,
    "priority": 50
  },
  {
    "geonameId": 3831852,
    "name": "Passage Islands",
    "latitude": -51.58103,
    "longitude": -60.74855,
    "category": "Island",
    "subcategory": "Island Group",
    "featured": false,
    "priority": 50
  },
  {
    "geonameId": 3426819,
    "name": "Peat Islet",
    "latitude": -51.55,
    "longitude": -58.06667,
    "category": "Island",
    "subcategory": "Island",
    "featured": false,
    "priority": 50
  },
  {
    "geonameId": 3426817,
    "name": "Pebble Island",
    "latitude": -51.28923,
    "longitude": -59.62236,
    "category": "Island",
    "subcategory": "Island",
    "featured": false,
    "priority": 50
  },
  {
    "geonameId": 3473356,
    "name": "Pebble Islet",
    "latitude": -51.25296,
    "longitude": -59.86969,
    "category": "Island",
    "subcategory": "Island",
    "featured": false,
    "priority": 50
  },
  {
    "geonameId": 3831847,
    "name": "Penguin Island",
    "latitude": -51.40538,
    "longitude": -60.20622,
    "category": "Island",
    "subcategory": "Island",
    "featured": false,
    "priority": 50
  },
  {
    "geonameId": 3831845,
    "name": "Penn Island",
    "latitude": -51.78805,
    "longitude": -61.14934,
    "category": "Island",
    "subcategory": "Island",
    "featured": false,
    "priority": 50
  },
  {
    "geonameId": 3426808,
    "name": "Phillimore Island",
    "latitude": -51.98031,
    "longitude": -58.4655,
    "category": "Island",
    "subcategory": "Island",
    "featured": false,
    "priority": 50
  },
  {
    "geonameId": 3426801,
    "name": "Pleasant Island",
    "latitude": -51.80553,
    "longitude": -58.19735,
    "category": "Island",
    "subcategory": "Island",
    "featured": false,
    "priority": 50
  },
  {
    "geonameId": 3426800,
    "name": "Pleasant Lagoon",
    "latitude": -51.78551,
    "longitude": -58.38964,
    "category": "Lake",
    "subcategory": "Lake",
    "featured": false,
    "priority": 50
  },
  {
    "geonameId": 3426794,
    "name": "Porpoise Island",
    "latitude": -52.32922,
    "longitude": -59.29522,
    "category": "Island",
    "subcategory": "Island",
    "featured": false,
    "priority": 50
  },
  {
    "geonameId": 3831830,
    "name": "Port Egmont Cays",
    "latitude": -51.20591,
    "longitude": -60.02721,
    "category": "Island",
    "subcategory": "Island Group",
    "featured": false,
    "priority": 50
  },
  {
    "geonameId": 3831825,
    "name": "Quaker Island",
    "latitude": -51.78295,
    "longitude": -61.0531,
    "category": "Island",
    "subcategory": "Island",
    "featured": false,
    "priority": 50
  },
  {
    "geonameId": 3426778,
    "name": "Rabbit Island",
    "latitude": -51.85,
    "longitude": -58.95,
    "category": "Island",
    "subcategory": "Island",
    "featured": false,
    "priority": 50
  },
  {
    "geonameId": 3426773,
    "name": "Rat Island",
    "latitude": -51.4478,
    "longitude": -58.33048,
    "category": "Island",
    "subcategory": "Island",
    "featured": false,
    "priority": 50
  },
  {
    "geonameId": 3426771,
    "name": "Reef Island",
    "latitude": -51.9816,
    "longitude": -58.4912,
    "category": "Island",
    "subcategory": "Island",
    "featured": false,
    "priority": 50
  },
  {
    "geonameId": 3426765,
    "name": "River Island",
    "latitude": -51.41388,
    "longitude": -59.61682,
    "category": "Island",
    "subcategory": "Island",
    "featured": false,
    "priority": 50
  },
  {
    "geonameId": 3965422,
    "name": "Rookery Island",
    "latitude": -51.83735,
    "longitude": -61.21455,
    "category": "Island",
    "subcategory": "Island",
    "featured": false,
    "priority": 50
  },
  {
    "geonameId": 3965581,
    "name": "Rookery Mount",
    "latitude": -51.31997,
    "longitude": -60.13219,
    "category": "Mountain",
    "subcategory": "Mountain",
    "featured": false,
    "priority": 50
  },
  {
    "geonameId": 3426756,
    "name": "Round Island",
    "latitude": -51.55,
    "longitude": -58.1,
    "category": "Island",
    "subcategory": "Island",
    "featured": false,
    "priority": 50
  },
  {
    "geonameId": 3426755,
    "name": "Round Islands",
    "latitude": -52.15,
    "longitude": -59.36667,
    "category": "Island",
    "subcategory": "Island Group",
    "featured": false,
    "priority": 50
  },
  {
    "geonameId": 3426750,
    "name": "Ruggles Island",
    "latitude": -52.07407,
    "longitude": -59.73248,
    "category": "Island",
    "subcategory": "Island",
    "featured": false,
    "priority": 50
  },
  {
    "geonameId": 3831799,
    "name": "Saddle Island",
    "latitude": -51.66882,
    "longitude": -61.2398,
    "category": "Island",
    "subcategory": "Island",
    "featured": false,
    "priority": 50
  },
  {
    "geonameId": 3426743,
    "name": "Samuel Islands",
    "latitude": -51.95,
    "longitude": -58.66667,
    "category": "Island",
    "subcategory": "Island Group",
    "featured": false,
    "priority": 50
  },
  {
    "geonameId": 3426738,
    "name": "Sandbar Island",
    "latitude": -51.9235,
    "longitude": -59.64674,
    "category": "Island",
    "subcategory": "Island",
    "featured": false,
    "priority": 50
  },
  {
    "geonameId": 3426734,
    "name": "Sandy Bay Island",
    "latitude": -52.19414,
    "longitude": -58.80246,
    "category": "Island",
    "subcategory": "Island",
    "featured": false,
    "priority": 50
  },
  {
    "geonameId": 3426732,
    "name": "Sandy Island",
    "latitude": -51.88218,
    "longitude": -59.63159,
    "category": "Island",
    "subcategory": "Island",
    "featured": false,
    "priority": 50
  },
  {
    "geonameId": 3831797,
    "name": "Saunders Island",
    "latitude": -51.33916,
    "longitude": -60.13626,
    "category": "Island",
    "subcategory": "Island",
    "featured": false,
    "priority": 50
  },
  {
    "geonameId": 3426728,
    "name": "Scott Island",
    "latitude": -51.85466,
    "longitude": -58.93613,
    "category": "Island",
    "subcategory": "Island",
    "featured": false,
    "priority": 50
  },
  {
    "geonameId": 3831796,
    "name": "Sea Dog Island",
    "latitude": -52.00465,
    "longitude": -61.09548,
    "category": "Island",
    "subcategory": "Island",
    "featured": false,
    "priority": 50
  },
  {
    "geonameId": 3426726,
    "name": "Sea Lion Island",
    "latitude": -51.92961,
    "longitude": -58.72132,
    "category": "Island",
    "subcategory": "Island",
    "featured": false,
    "priority": 50
  },
  {
    "geonameId": 3426725,
    "name": "Sea Lion Islands",
    "latitude": -52.44311,
    "longitude": -59.00164,
    "category": "Island",
    "subcategory": "Island Group",
    "featured": false,
    "priority": 50
  },
  {
    "geonameId": 3426721,
    "name": "Seal Island",
    "latitude": -52.03683,
    "longitude": -58.59847,
    "category": "Island",
    "subcategory": "Island",
    "featured": false,
    "priority": 50
  },
  {
    "geonameId": 3831792,
    "name": "Seal Rocks",
    "latitude": -51.11651,
    "longitude": -60.80031,
    "category": "Island",
    "subcategory": "Island Group",
    "featured": false,
    "priority": 50
  },
  {
    "geonameId": 3426715,
    "name": "Seccomb Islands",
    "latitude": -51.85264,
    "longitude": -58.94019,
    "category": "Island",
    "subcategory": "Island Group",
    "featured": false,
    "priority": 50
  },
  {
    "geonameId": 3831790,
    "name": "Second Flat Islet",
    "latitude": -51.93333,
    "longitude": -60.06667,
    "category": "Island",
    "subcategory": "Island",
    "featured": false,
    "priority": 50
  },
  {
    "geonameId": 3831789,
    "name": "Second Island",
    "latitude": -51.57651,
    "longitude": -60.77233,
    "category": "Island",
    "subcategory": "Island",
    "featured": false,
    "priority": 50
  },
  {
    "geonameId": 3831788,
    "name": "Sedge Island",
    "latitude": -51.1481,
    "longitude": -60.40465,
    "category": "Island",
    "subcategory": "Island",
    "featured": false,
    "priority": 50
  },
  {
    "geonameId": 3426711,
    "name": "Shag Rock",
    "latitude": -52.23619,
    "longitude": -58.64503,
    "category": "Island",
    "subcategory": "Island",
    "featured": false,
    "priority": 50
  },
  {
    "geonameId": 3426705,
    "name": "Shell Island",
    "latitude": -52.08359,
    "longitude": -59.00413,
    "category": "Island",
    "subcategory": "Island",
    "featured": false,
    "priority": 50
  },
  {
    "geonameId": 3426700,
    "name": "Sisters",
    "latitude": -52.18731,
    "longitude": -58.99265,
    "category": "Island",
    "subcategory": "Island Group",
    "featured": false,
    "priority": 50
  },
  {
    "geonameId": 3473345,
    "name": "Smoko Mountain",
    "latitude": -51.70819,
    "longitude": -58.25651,
    "category": "Mountain",
    "subcategory": "Mountain",
    "featured": false,
    "priority": 50
  },
  {
    "geonameId": 3831774,
    "name": "South Fur Island",
    "latitude": -51.25856,
    "longitude": -60.84693,
    "category": "Island",
    "subcategory": "Island",
    "featured": false,
    "priority": 50
  },
  {
    "geonameId": 3831769,
    "name": "South Jason",
    "latitude": -51.20423,
    "longitude": -60.88317,
    "category": "Island",
    "subcategory": "Island",
    "featured": false,
    "priority": 50
  },
  {
    "geonameId": 3426694,
    "name": "Speedwell Island",
    "latitude": -52.21802,
    "longitude": -59.71654,
    "category": "Island",
    "subcategory": "Island",
    "featured": false,
    "priority": 50
  },
  {
    "geonameId": 3831766,
    "name": "Split Island",
    "latitude": -51.81325,
    "longitude": -61.31701,
    "category": "Island",
    "subcategory": "Island",
    "featured": false,
    "priority": 50
  },
  {
    "geonameId": 3831762,
    "name": "Staats Island",
    "latitude": -51.88985,
    "longitude": -61.18861,
    "category": "Island",
    "subcategory": "Island",
    "featured": false,
    "priority": 50
  },
  {
    "geonameId": 3426691,
    "name": "Stanley",
    "latitude": -51.69382,
    "longitude": -57.85701,
    "category": "City",
    "subcategory": "Capital",
    "featured": false,
    "priority": 50
  },
  {
    "geonameId": 3831758,
    "name": "Steeple Jason",
    "latitude": -51.03681,
    "longitude": -61.20904,
    "category": "Island",
    "subcategory": "Island",
    "featured": false,
    "priority": 50
  },
  {
    "geonameId": 3473754,
    "name": "Stinker Island",
    "latitude": -52.1262,
    "longitude": -59.79445,
    "category": "Island",
    "subcategory": "Island",
    "featured": false,
    "priority": 50
  },
  {
    "geonameId": 3831750,
    "name": "Stop Islet",
    "latitude": -51.98333,
    "longitude": -60.96615,
    "category": "Island",
    "subcategory": "Island",
    "featured": false,
    "priority": 50
  },
  {
    "geonameId": 3965575,
    "name": "Storm Mount",
    "latitude": -51.43155,
    "longitude": -60.54119,
    "category": "Mountain",
    "subcategory": "Mountain",
    "featured": false,
    "priority": 50
  },
  {
    "geonameId": 3965574,
    "name": "Sugar Loaf",
    "latitude": -51.42074,
    "longitude": -60.60258,
    "category": "Mountain",
    "subcategory": "Mountain",
    "featured": false,
    "priority": 50
  },
  {
    "geonameId": 3426682,
    "name": "Swan Island",
    "latitude": -51.7939,
    "longitude": -59.5851,
    "category": "Island",
    "subcategory": "Island",
    "featured": false,
    "priority": 50
  },
  {
    "geonameId": 3426680,
    "name": "Swan Pond",
    "latitude": -51.27016,
    "longitude": -58.94192,
    "category": "Lake",
    "subcategory": "Lake",
    "featured": false,
    "priority": 50
  },
  {
    "geonameId": 3831741,
    "name": "Tea Island",
    "latitude": -51.90099,
    "longitude": -61.16765,
    "category": "Island",
    "subcategory": "Island",
    "featured": false,
    "priority": 50
  },
  {
    "geonameId": 3949789,
    "name": "Ten Shilling Bay Islands",
    "latitude": -52.19603,
    "longitude": -60.74827,
    "category": "Island",
    "subcategory": "Island Group",
    "featured": false,
    "priority": 50
  },
  {
    "geonameId": 3965456,
    "name": "The Big Mollyhawk",
    "latitude": -52.12385,
    "longitude": -60.51063,
    "category": "Mountain",
    "subcategory": "Mountain",
    "featured": false,
    "priority": 50
  },
  {
    "geonameId": 3831932,
    "name": "The Fridays",
    "latitude": -51.05513,
    "longitude": -60.97905,
    "category": "Island",
    "subcategory": "Island Group",
    "featured": false,
    "priority": 50
  },
  {
    "geonameId": 3831729,
    "name": "The Twins",
    "latitude": -51.23685,
    "longitude": -60.6488,
    "category": "Island",
    "subcategory": "Island Group",
    "featured": false,
    "priority": 50
  },
  {
    "geonameId": 3831736,
    "name": "Third Island",
    "latitude": -51.5714,
    "longitude": -60.8417,
    "category": "Island",
    "subcategory": "Island",
    "featured": false,
    "priority": 50
  },
  {
    "geonameId": 3426670,
    "name": "Triste Islands",
    "latitude": -52.13273,
    "longitude": -58.71605,
    "category": "Island",
    "subcategory": "Island Group",
    "featured": false,
    "priority": 50
  },
  {
    "geonameId": 3965544,
    "name": "Turkey Island",
    "latitude": -51.57853,
    "longitude": -60.31658,
    "category": "Island",
    "subcategory": "Island",
    "featured": false,
    "priority": 50
  },
  {
    "geonameId": 3426667,
    "name": "Turn Islet",
    "latitude": -52.1241,
    "longitude": -58.91793,
    "category": "Island",
    "subcategory": "Island",
    "featured": false,
    "priority": 50
  },
  {
    "geonameId": 3426663,
    "name": "Tussac Island",
    "latitude": -51.96667,
    "longitude": -58.6,
    "category": "Island",
    "subcategory": "Island",
    "featured": false,
    "priority": 50
  },
  {
    "geonameId": 3426662,
    "name": "Tussac Islands",
    "latitude": -51.67217,
    "longitude": -57.74459,
    "category": "Island",
    "subcategory": "Island Group",
    "featured": false,
    "priority": 50
  },
  {
    "geonameId": 3831731,
    "name": "Tussac Islet",
    "latitude": -52.21082,
    "longitude": -60.50376,
    "category": "Island",
    "subcategory": "Island",
    "featured": false,
    "priority": 50
  },
  {
    "geonameId": 3426657,
    "name": "Two Sisters",
    "latitude": -51.69066,
    "longitude": -58.03404,
    "category": "Mountain",
    "subcategory": "Mountain",
    "featured": false,
    "priority": 50
  },
  {
    "geonameId": 3426656,
    "name": "Tyssen Islands",
    "latitude": -51.87532,
    "longitude": -59.64774,
    "category": "Island",
    "subcategory": "Island Group",
    "featured": false,
    "priority": 50
  },
  {
    "geonameId": 3831725,
    "name": "Weddell Island",
    "latitude": -51.91667,
    "longitude": -61,
    "category": "Island",
    "subcategory": "Island",
    "featured": false,
    "priority": 50
  },
  {
    "geonameId": 3473750,
    "name": "Wedge Island",
    "latitude": -52.01667,
    "longitude": -59.81667,
    "category": "Island",
    "subcategory": "Island",
    "featured": false,
    "priority": 50
  },
  {
    "geonameId": 3426641,
    "name": "Wedge Islet",
    "latitude": -52.01549,
    "longitude": -59.82705,
    "category": "Island",
    "subcategory": "Island",
    "featured": false,
    "priority": 50
  },
  {
    "geonameId": 3426638,
    "name": "West Falkland",
    "latitude": -51.64297,
    "longitude": -59.89473,
    "category": "Island",
    "subcategory": "Island",
    "featured": false,
    "priority": 50
  },
  {
    "geonameId": 3426636,
    "name": "West Island",
    "latitude": -51.97481,
    "longitude": -59.83732,
    "category": "Island",
    "subcategory": "Island",
    "featured": false,
    "priority": 50
  },
  {
    "geonameId": 3426633,
    "name": "West Swan Island",
    "latitude": -51.78546,
    "longitude": -59.64513,
    "category": "Island",
    "subcategory": "Island",
    "featured": false,
    "priority": 50
  },
  {
    "geonameId": 3831716,
    "name": "Westpoint Island",
    "latitude": -51.34787,
    "longitude": -60.69869,
    "category": "Island",
    "subcategory": "Island",
    "featured": false,
    "priority": 50
  },
  {
    "geonameId": 3831714,
    "name": "Whale Islet",
    "latitude": -52.03053,
    "longitude": -60.2755,
    "category": "Island",
    "subcategory": "Island",
    "featured": false,
    "priority": 50
  },
  {
    "geonameId": 3426629,
    "name": "Whig Islands",
    "latitude": -51.89685,
    "longitude": -58.81288,
    "category": "Island",
    "subcategory": "Island Group",
    "featured": false,
    "priority": 50
  },
  {
    "geonameId": 3426626,
    "name": "White Island",
    "latitude": -51.23137,
    "longitude": -59.77576,
    "category": "Island",
    "subcategory": "Island",
    "featured": false,
    "priority": 50
  },
  {
    "geonameId": 3426614,
    "name": "Wolfe Island",
    "latitude": -52.02392,
    "longitude": -59.67684,
    "category": "Island",
    "subcategory": "Island",
    "featured": false,
    "priority": 50
  },
  {
    "geonameId": 3831706,
    "name": "Wreck Island",
    "latitude": -51.15855,
    "longitude": -60.25619,
    "category": "Island",
    "subcategory": "Island",
    "featured": false,
    "priority": 50
  }
]