[
  {
    "geonameId": 3007964,
    "name": "A Muvrella",
    "latitude": 42.41034,
    "longitude": 8.91172,
    "category": "Mountain",
    "subcategory": "Mountain",
    "featured": false,
    "priority": 50
  },
  {
    "geonameId": 3038789,
    "name": "Abbeville",
    "latitude": 50.10521,
    "longitude": 1.83547,
    "category": "City",
    "subcategory": "District Seat",
    "featured": false,
    "priority": 50
  },
  {
    "geonameId": 3038754,
    "name": "Ablon-sur-Seine",
    "latitude": 48.72732,
    "longitude": 2.42686,
    "category": "City",
    "subcategory": "City",
    "featured": false,
    "priority": 50
  },
  {
    "geonameId": 3038712,
    "name": "Achères",
    "latitude": 48.96115,
    "longitude": 2.06882,
    "category": "City",
    "subcategory": "City",
    "featured": false,
    "priority": 50
  },
  {
    "geonameId": 3038703,
    "name": "Achicourt",
    "latitude": 50.27429,
    "longitude": 2.75779,
    "category": "City",
    "subcategory": "City",
    "featured": false,
    "priority": 50
  },
  {
    "geonameId": 3038698,
    "name": "Acigné",
    "latitude": 48.13538,
    "longitude": -1.5337,
    "category": "City",
    "subcategory": "City",
    "featured": false,
    "priority": 50
  },
  {
    "geonameId": 3014099,
    "name": "Adarre",
    "latitude": 43.29637,
    "longitude": -1.31731,
    "category": "Mountain",
    "subcategory": "Peak",
    "featured": false,
    "priority": 50
  },
  {
    "geonameId": 3038667,
    "name": "Adartza",
    "latitude": 43.11336,
    "longitude": -1.33637,
    "category": "Mountain",
    "subcategory": "Peak",
    "featured": false,
    "priority": 50
  },
  {
    "geonameId": 9252950,
    "name": "Adret de Pinchinier",
    "latitude": 43.4009,
    "longitude": 5.65228,
    "category": "Mountain",
    "subcategory": "Mountain",
    "featured": false,
    "priority": 50
  },
  {
    "geonameId": 3038638,
    "name": "Agde",
    "latitude": 43.31083,
    "longitude": 3.47583,
    "category": "City",
    "subcategory": "City",
    "featured": false,
    "priority": 50
  },
  {
    "geonameId": 3038634,
    "name": "Agen",
    "latitude": 44.20199,
    "longitude": 0.62055,
    "category": "City",
    "subcategory": "County Seat",
    "featured": false,
    "priority": 50
  },
  {
    "geonameId": 3038611,
    "name": "Agneaux",
    "latitude": 49.11905,
    "longitude": -1.1061,
    "category": "City",
    "subcategory": "City",
    "featured": false,
    "priority": 50
  },
  {
    "geonameId": 13665117,
    "name": "Ahargo",
    "latitude": 43.20269,
    "longitude": -0.78343,
    "category": "Mountain",
    "subcategory": "Peak",
    "featured": false,
    "priority": 50
  },
  {
    "geonameId": 3038493,
    "name": "Aigues-Mortes",
    "latitude": 43.56683,
    "longitude": 4.19068,
    "category": "City",
    "subcategory": "City",
    "featured": false,
    "priority": 50
  },
  {
    "geonameId": 13156459,
    "name": "Aiguille à Bochard",
    "latitude": 45.94668,
    "longitude": 6.93245,
    "category": "Mountain",
    "subcategory": "Mountain",
    "featured": false,
    "priority": 50
  },
  {
    "geonameId": 6931646,
    "name": "Aiguille Crochues",
    "latitude": 45.98113,
    "longitude": 6.87276,
    "category": "Mountain",
    "subcategory": "Peak",
    "featured": false,
    "priority": 50
  },
  {
    "geonameId": 3037040,
    "name": "Aiguille d'Argentière",
    "latitude": 45.95979,
    "longitude": 7.02026,
    "category": "Mountain",
    "subcategory": "Peak",
    "featured": false,
    "priority": 50
  },
  {
    "geonameId": 6931703,
    "name": "Aiguille de Bérard",
    "latitude": 45.99444,
    "longitude": 6.85333,
    "category": "Mountain",
    "subcategory": "Peak",
    "featured": false,
    "priority": 50
  },
  {
    "geonameId": 3033177,
    "name": "Aiguille de Bertin",
    "latitude": 45.24518,
    "longitude": 6.54333,
    "category": "Mountain",
    "subcategory": "Peak",
    "featured": false,
    "priority": 50
  },
  {
    "geonameId": 3032586,
    "name": "Aiguille de Bionnassay",
    "latitude": 45.83652,
    "longitude": 6.81897,
    "category": "Mountain",
    "subcategory": "Peak",
    "featured": false,
    "priority": 50
  },
  {
    "geonameId": 11281813,
    "name": "Aiguille de Borderan",
    "latitude": 45.88621,
    "longitude": 6.47723,
    "category": "Mountain",
    "subcategory": "Peak",
    "featured": false,
    "priority": 50
  },
  {
    "geonameId": 3027415,
    "name": "Aiguille de Chambeyron",
    "latitude": 44.5478,
    "longitude": 6.858,
    "category": "Mountain",
    "subcategory": "Peak",
    "featured": false,
    "priority": 50
  },
  {
    "geonameId": 3026905,
    "name": "Aiguille de Chanrossa",
    "latitude": 45.33333,
    "longitude": 6.66667,
    "category": "Mountain",
    "subcategory": "Peak",
    "featured": false,
    "priority": 50
  },
  {
    "geonameId": 6931572,
    "name": "Aiguille de Charlano",
    "latitude": 45.95431,
    "longitude": 6.84972,
    "category": "Mountain",
    "subcategory": "Peak",
    "featured": false,
    "priority": 50
  },
  {
    "geonameId": 6931713,
    "name": "Aiguille de l'Encrena",
    "latitude": 45.99666,
    "longitude": 6.89364,
    "category": "Mountain",
    "subcategory": "Peak",
    "featured": false,
    "priority": 50
  },
  {
    "geonameId": 3020093,
    "name": "Aiguille de l'Épaisseur",
    "latitude": 45.13244,
    "longitude": 6.35598,
    "category": "Mountain",
    "subcategory": "Peak",
    "featured": false,
    "priority": 50
  },
  {
    "geonameId": 3033439,
    "name": "Aiguille de la Berangère",
    "latitude": 45.8034,
    "longitude": 6.7786,
    "category": "Mountain",
    "subcategory": "Peak",
    "featured": false,
    "priority": 50
  },
  {
    "geonameId": 3018223,
    "name": "Aiguille de la Floria",
    "latitude": 45.97539,
    "longitude": 6.86807,
    "category": "Mountain",
    "subcategory": "Mountain",
    "featured": false,
    "priority": 50
  },
  {
    "geonameId": 6931625,
    "name": "Aiguille de la Glière",
    "latitude": 45.97078,
    "longitude": 6.86491,
    "category": "Mountain",
    "subcategory": "Peak",
    "featured": false,
    "priority": 50
  },
  {
    "geonameId": 2988132,
    "name": "Aiguille de la Pénaz",
    "latitude": 45.74486,
    "longitude": 6.69956,
    "category": "Mountain",
    "subcategory": "Peak",
    "featured": false,
    "priority": 50
  },
  {
    "geonameId": 2975736,
    "name": "Aiguille de la Saussaz",
    "latitude": 45.113,
    "longitude": 6.31916,
    "category": "Mountain",
    "subcategory": "Mountain",
    "featured": false,
    "priority": 50
  },
  {
    "geonameId": 6931692,
    "name": "Aiguille de la Tête Plate",
    "latitude": 45.99056,
    "longitude": 6.8825,
    "category": "Mountain",
    "subcategory": "Peak",
    "featured": false,
    "priority": 50
  },
  {
    "geonameId": 3001482,
    "name": "Aiguille de Leschaux",
    "latitude": 45.88837,
    "longitude": 7.00584,
    "category": "Mountain",
    "subcategory": "Peak",
    "featured": false,
    "priority": 50
  },
  {
    "geonameId": 2997580,
    "name": "Aiguille de Loria",
    "latitude": 46.03459,
    "longitude": 6.88964,
    "category": "Mountain",
    "subcategory": "Peak",
    "featured": false,
    "priority": 50
  },
  {
    "geonameId": 2995987,
    "name": "Aiguille de Marcieu",
    "latitude": 45.25,
    "longitude": 6.13333,
    "category": "Mountain",
    "subcategory": "Peak",
    "featured": false,
    "priority": 50
  },
  {
    "geonameId": 6931747,
    "name": "Aiguille de Mesure",
    "latitude": 46.00306,
    "longitude": 6.89556,
    "category": "Mountain",
    "subcategory": "Peak",
    "featured": false,
    "priority": 50
  },
  {
    "geonameId": 2991819,
    "name": "Aiguille de Morges",
    "latitude": 44.79943,
    "longitude": 6.25372,
    "category": "Mountain",
    "subcategory": "Peak",
    "featured": false,
    "priority": 50
  },
  {
    "geonameId": 2988241,
    "name": "Aiguille de Péclet",
    "latitude": 45.28177,
    "longitude": 6.6239,
    "category": "Mountain",
    "subcategory": "Peak",
    "featured": false,
    "priority": 50
  },
  {
    "geonameId": 2986622,
    "name": "Aiguille de Plovezan",
    "latitude": 45.63886,
    "longitude": 6.68853,
    "category": "Mountain",
    "subcategory": "Peak",
    "featured": false,
    "priority": 50
  },
  {
    "geonameId": 2986451,
    "name": "Aiguille de Polset",
    "latitude": 45.27622,
    "longitude": 6.639,
    "category": "Mountain",
    "subcategory": "Peak",
    "featured": false,
    "priority": 50
  },
  {
    "geonameId": 2985615,
    "name": "Aiguille de Prainan",
    "latitude": 45.6552,
    "longitude": 6.7559,
    "category": "Mountain",
    "subcategory": "Peak",
    "featured": false,
    "priority": 50
  },
  {
    "geonameId": 6931772,
    "name": "Aiguille de Praz Torent",
    "latitude": 46.00844,
    "longitude": 6.90205,
    "category": "Mountain",
    "subcategory": "Peak",
    "featured": false,
    "priority": 50
  },
  {
    "geonameId": 3000836,
    "name": "Aiguille de Rochefort",
    "latitude": 45.86372,
    "longitude": 6.9595,
    "category": "Mountain",
    "subcategory": "Mountain",
    "featured": false,
    "priority": 50
  },
  {
    "geonameId": 2982802,
    "name": "Aiguille de Roselette",
    "latitude": 45.77082,
    "longitude": 6.69059,
    "category": "Mountain",
    "subcategory": "Peak",
    "featured": false,
    "priority": 50
  },
  {
    "geonameId": 6931787,
    "name": "Aiguille de Salenton",
    "latitude": 46.01163,
    "longitude": 6.84968,
    "category": "Mountain",
    "subcategory": "Peak",
    "featured": false,
    "priority": 50
  },
  {
    "geonameId": 2973497,
    "name": "Aiguille de Talèfre",
    "latitude": 45.901,
    "longitude": 7.0031,
    "category": "Mountain",
    "subcategory": "Peak",
    "featured": false,
    "priority": 50
  },
  {
    "geonameId": 2973109,
    "name": "Aiguille de Terrassin",
    "latitude": 45.66624,
    "longitude": 6.7272,
    "category": "Mountain",
    "subcategory": "Peak",
    "featured": false,
    "priority": 50
  },
  {
    "geonameId": 2971664,
    "name": "Aiguille de Triolet",
    "latitude": 45.91799,
    "longitude": 7.0237,
    "category": "Mountain",
    "subcategory": "Peak",
    "featured": false,
    "priority": 50
  },
  {
    "geonameId": 2970737,
    "name": "Aiguille de Varan",
    "latitude": 45.95959,
    "longitude": 6.68252,
    "category": "Mountain",
    "subcategory": "Peak",
    "featured": false,
    "priority": 50
  },
  {
    "geonameId": 3036967,
    "name": "Aiguille des Arias",
    "latitude": 44.9,
    "longitude": 6.18333,
    "category": "Mountain",
    "subcategory": "Peak",
    "featured": false,
    "priority": 50
  },
  {
    "geonameId": 6931704,
    "name": "Aiguille des Chamois",
    "latitude": 45.99444,
    "longitude": 6.89076,
    "category": "Mountain",
    "subcategory": "Peak",
    "featured": false,
    "priority": 50
  },
  {
    "geonameId": 3014968,
    "name": "Aiguille des Grands Charmoz",
    "latitude": 45.9056,
    "longitude": 6.9183,
    "category": "Mountain",
    "subcategory": "Peak",
    "featured": false,
    "priority": 50
  },
  {
    "geonameId": 3014961,
    "name": "Aiguille des Grands Montets",
    "latitude": 45.94805,
    "longitude": 6.96053,
    "category": "Mountain",
    "subcategory": "Peak",
    "featured": false,
    "priority": 50
  },
  {
    "geonameId": 3007924,
    "name": "Aiguille des Lanchettes",
    "latitude": 45.77069,
    "longitude": 6.76996,
    "category": "Mountain",
    "subcategory": "Peak",
    "featured": false,
    "priority": 50
  },
  {
    "geonameId": 2995633,
    "name": "Aiguille des Marmes",
    "latitude": 44.89485,
    "longitude": 6.10031,
    "category": "Mountain",
    "subcategory": "Peak",
    "featured": false,
    "priority": 50
  },
  {
    "geonameId": 2988097,
    "name": "Aiguille des Pénitents",
    "latitude": 44.8,
    "longitude": 6.63333,
    "category": "Mountain",
    "subcategory": "Peak",
    "featured": false,
    "priority": 50
  },
  {
    "geonameId": 3021052,
    "name": "Aiguille Doran",
    "latitude": 45.25176,
    "longitude": 6.67887,
    "category": "Mountain",
    "subcategory": "Peak",
    "featured": false,
    "priority": 50
  },
  {
    "geonameId": 6931674,
    "name": "Aiguille du Belvedére",
    "latitude": 45.98778,
    "longitude": 6.87361,
    "category": "Mountain",
    "subcategory": "Peak",
    "featured": false,
    "priority": 50
  },
  {
    "geonameId": 3031541,
    "name": "Aiguille du Borgne",
    "latitude": 45.31397,
    "longitude": 6.61277,
    "category": "Mountain",
    "subcategory": "Peak",
    "featured": false,
    "priority": 50
  },
  {
    "geonameId": 3026670,
    "name": "Aiguille du Chardonnet",
    "latitude": 45.96898,
    "longitude": 7.00152,
    "category": "Mountain",
    "subcategory": "Peak",
    "featured": false,
    "priority": 50
  },
  {
    "geonameId": 6931961,
    "name": "Aiguille du Charmo",
    "latitude": 46.04818,
    "longitude": 6.89517,
    "category": "Mountain",
    "subcategory": "Peak",
    "featured": false,
    "priority": 50
  },
  {
    "geonameId": 3020753,
    "name": "Aiguille du Dru",
    "latitude": 45.93293,
    "longitude": 6.95588,
    "category": "Mountain",
    "subcategory": "Peak",
    "featured": false,
    "priority": 50
  },
  {
    "geonameId": 3016928,
    "name": "Aiguille du Fruit",
    "latitude": 45.3571,
    "longitude": 6.63152,
    "category": "Mountain",
    "subcategory": "Peak",
    "featured": false,
    "priority": 50
  },
  {
    "geonameId": 6931735,
    "name": "Aiguille du Genépi",
    "latitude": 45.99957,
    "longitude": 7.00245,
    "category": "Mountain",
    "subcategory": "Peak",
    "featured": false,
    "priority": 50
  },
  {
    "geonameId": 3015873,
    "name": "Aiguille du Glacier",
    "latitude": 45.7788,
    "longitude": 6.8017,
    "category": "Mountain",
    "subcategory": "Peak",
    "featured": false,
    "priority": 50
  },
  {
    "geonameId": 2975735,
    "name": "Aiguille du Goléon",
    "latitude": 45.10332,
    "longitude": 6.32643,
    "category": "Mountain",
    "subcategory": "Peak",
    "featured": false,
    "priority": 50
  },
  {
    "geonameId": 12640316,
    "name": "Aiguille du Goûter",
    "latitude": 45.85081,
    "longitude": 6.83131,
    "category": "Mountain",
    "subcategory": "Peak",
    "featured": false,
    "priority": 50
  },
  {
    "geonameId": 3015134,
    "name": "Aiguille du Grand Fond",
    "latitude": 45.6645,
    "longitude": 6.66691,
    "category": "Mountain",
    "subcategory": "Peak",
    "featured": false,
    "priority": 50
  },
  {
    "geonameId": 6931693,
    "name": "Aiguille du Lac Blanc",
    "latitude": 45.9911,
    "longitude": 6.87586,
    "category": "Mountain",
    "subcategory": "Peak",
    "featured": false,
    "priority": 50
  },
  {
    "geonameId": 2993964,
    "name": "Aiguille du Midi",
    "latitude": 45.8789,
    "longitude": 6.8878,
    "category": "Mountain",
    "subcategory": "Peak",
    "featured": false,
    "priority": 50
  },
  {
    "geonameId": 2993618,
    "name": "Aiguille du Moine",
    "latitude": 45.9166,
    "longitude": 6.9617,
    "category": "Mountain",
    "subcategory": "Peak",
    "featured": false,
    "priority": 50
  },
  {
    "geonameId": 6931634,
    "name": "Aiguille du Passon",
    "latitude": 45.97578,
    "longitude": 6.9909,
    "category": "Mountain",
    "subcategory": "Peak",
    "featured": false,
    "priority": 50
  },
  {
    "geonameId": 2986923,
    "name": "Aiguille du Plan",
    "latitude": 45.8907,
    "longitude": 6.9077,
    "category": "Mountain",
    "subcategory": "Peak",
    "featured": false,
    "priority": 50
  },
  {
    "geonameId": 6931631,
    "name": "Aiguille du Pouce",
    "latitude": 45.97321,
    "longitude": 6.85698,
    "category": "Mountain",
    "subcategory": "Peak",
    "featured": false,
    "priority": 50
  },
  {
    "geonameId": 2984376,
    "name": "Aiguille du Ratier",
    "latitude": 44.73333,
    "longitude": 6.71667,
    "category": "Mountain",
    "subcategory": "Peak",
    "featured": false,
    "priority": 50
  },
  {
    "geonameId": 2973580,
    "name": "Aiguille du Tacul",
    "latitude": 45.88152,
    "longitude": 6.9613,
    "category": "Mountain",
    "subcategory": "Peak",
    "featured": false,
    "priority": 50
  },
  {
    "geonameId": 6931681,
    "name": "Aiguille Favre",
    "latitude": 45.98867,
    "longitude": 6.86318,
    "category": "Mountain",
    "subcategory": "Peak",
    "featured": false,
    "priority": 50
  },
  {
    "geonameId": 6931630,
    "name": "Aiguille Forbes",
    "latitude": 45.97321,
    "longitude": 7.01016,
    "category": "Mountain",
    "subcategory": "Peak",
    "featured": false,
    "priority": 50
  },
  {
    "geonameId": 3014598,
    "name": "Aiguille Grive",
    "latitude": 45.54912,
    "longitude": 6.80432,
    "category": "Mountain",
    "subcategory": "Peak",
    "featured": false,
    "priority": 50
  },
  {
    "geonameId": 3006960,
    "name": "Aiguille Large de Marinet",
    "latitude": 44.56667,
    "longitude": 6.85,
    "category": "Mountain",
    "subcategory": "Peak",
    "featured": false,
    "priority": 50
  },
  {
    "geonameId": 6931740,
    "name": "Aiguille Morris",
    "latitude": 46.00172,
    "longitude": 6.89332,
    "category": "Mountain",
    "subcategory": "Peak",
    "featured": false,
    "priority": 50
  },
  {
    "geonameId": 2990231,
    "name": "Aiguille Noire",
    "latitude": 45.09497,
    "longitude": 6.48017,
    "category": "Mountain",
    "subcategory": "Peak",
    "featured": false,
    "priority": 50
  },
  {
    "geonameId": 2987851,
    "name": "Aiguille Pers",
    "latitude": 45.42619,
    "longitude": 7.07116,
    "category": "Mountain",
    "subcategory": "Peak",
    "featured": false,
    "priority": 50
  },
  {
    "geonameId": 2986843,
    "name": "Aiguille Plat de la Selle",
    "latitude": 44.9646,
    "longitude": 6.222,
    "category": "Mountain",
    "subcategory": "Peak",
    "featured": false,
    "priority": 50
  },
  {
    "geonameId": 6931591,
    "name": "Aiguille Pourrie",
    "latitude": 45.95886,
    "longitude": 6.857,
    "category": "Mountain",
    "subcategory": "Peak",
    "featured": false,
    "priority": 50
  },
  {
    "geonameId": 2982613,
    "name": "Aiguille Rouge",
    "latitude": 45.55183,
    "longitude": 6.84829,
    "category": "Mountain",
    "subcategory": "Peak",
    "featured": false,
    "priority": 50
  },
  {
    "geonameId": 2982490,
    "name": "Aiguille Rousse",
    "latitude": 45.2,
    "longitude": 6.18333,
    "category": "Mountain",
    "subcategory": "Peak",
    "featured": false,
    "priority": 50
  },
  {
    "geonameId": 2969639,
    "name": "Aiguille Verte",
    "latitude": 45.98265,
    "longitude": 6.43255,
    "category": "Mountain",
    "subcategory": "Peak",
    "featured": false,
    "priority": 50
  },
  {
    "geonameId": 3034114,
    "name": "Aiguilles de Beaupré",
    "latitude": 45.69374,
    "longitude": 6.8291,
    "category": "Mountain",
    "subcategory": "Peak",
    "featured": false,
    "priority": 50
  },
  {
    "geonameId": 3037039,
    "name": "Aiguilles de l'Argentière",
    "latitude": 45.25,
    "longitude": 6.15,
    "category": "Mountain",
    "subcategory": "Peak",
    "featured": false,
    "priority": 50
  },
  {
    "geonameId": 3015201,
    "name": "Aiguilles de la Grande Moenda",
    "latitude": 45.35,
    "longitude": 6.43333,
    "category": "Mountain",
    "subcategory": "Peak",
    "featured": false,
    "priority": 50
  },
  {
    "geonameId": 12024775,
    "name": "Aiguilles de Popolasca",
    "latitude": 42.43037,
    "longitude": 9.10719,
    "category": "Mountain",
    "subcategory": "Peak",
    "featured": false,
    "priority": 50
  },
  {
    "geonameId": 6932001,
    "name": "Aiguilles du Van",
    "latitude": 46.0594,
    "longitude": 6.91881,
    "category": "Mountain",
    "subcategory": "Peak",
    "featured": false,
    "priority": 50
  },
  {
    "geonameId": 12045922,
    "name": "Aiguilles Rocheuses",
    "latitude": 47.30534,
    "longitude": -3.23939,
    "category": "Island",
    "subcategory": "Island Group",
    "featured": false,
    "priority": 50
  },
  {
    "geonameId": 2982581,
    "name": "Aiguilles Rouges",
    "latitude": 45.98931,
    "longitude": 6.87473,
    "category": "Mountain",
    "subcategory": "Peak",
    "featured": false,
    "priority": 50
  },
  {
    "geonameId": 6931511,
    "name": "Aiguilles Rouges du Dolent",
    "latitude": 45.93834,
    "longitude": 7.03573,
    "category": "Mountain",
    "subcategory": "Peak",
    "featured": false,
    "priority": 50
  },
  {
    "geonameId": 11074333,
    "name": "Aiguillon, Col de l'",
    "latitude": 46.78886,
    "longitude": 6.4584,
    "category": "Mountain",
    "subcategory": "Mountain Pass",
    "featured": false,
    "priority": 50
  },
  {
    "geonameId": 2980319,
    "name": "Aiquille du Saint-Esprit",
    "latitude": 45.53556,
    "longitude": 6.84446,
    "category": "Mountain",
    "subcategory": "Peak",
    "featured": false,
    "priority": 50
  },
  {
    "geonameId": 3038394,
    "name": "Aire-sur-l'Adour",
    "latitude": 43.70251,
    "longitude": -0.26276,
    "category": "City",
    "subcategory": "City",
    "featured": false,
    "priority": 50
  },
  {
    "geonameId": 3038393,
    "name": "Aire-sur-la-Lys",
    "latitude": 50.63871,
    "longitude": 2.39876,
    "category": "City",
    "subcategory": "City",
    "featured": false,
    "priority": 50
  },
  {
    "geonameId": 13512966,
    "name": "Airole",
    "latitude": 43.11728,
    "longitude": 2.49288,
    "category": "Mountain",
    "subcategory": "Peak",
    "featured": false,
    "priority": 50
  },
  {
    "geonameId": 3038354,
    "name": "Aix-en-Provence",
    "latitude": 43.5283,
    "longitude": 5.44973,
    "category": "City",
    "subcategory": "District Seat",
    "featured": false,
    "priority": 50
  },
  {
    "geonameId": 3038350,
    "name": "Aix-les-Bains",
    "latitude": 45.69173,
    "longitude": 5.90863,
    "category": "City",
    "subcategory": "City",
    "featured": false,
    "priority": 50
  },
  {
    "geonameId": 3038352,
    "name": "Aixe-sur-Vienne",
    "latitude": 45.79663,
    "longitude": 1.13581,
    "category": "City",
    "subcategory": "City",
    "featured": false,
    "priority": 50
  },
  {
    "geonameId": 3038341,
    "name": "Aizenay",
    "latitude": 46.74048,
    "longitude": -1.60911,
    "category": "City",
    "subcategory": "City",
    "featured": false,
    "priority": 50
  },
  {
    "geonameId": 3038334,
    "name": "Ajaccio",
    "latitude": 41.91886,
    "longitude": 8.73812,
    "category": "City",
    "subcategory": "Regional Capital",
    "featured": false,
    "priority": 50
  },
  {
    "geonameId": 13607783,
    "name": "Al Pech",
    "latitude": 44.154,
    "longitude": 1.7654,
    "category": "Mountain",
    "subcategory": "Peak",
    "featured": false,
    "priority": 50
  },
  {
    "geonameId": 3038271,
    "name": "Albert",
    "latitude": 50.00091,
    "longitude": 2.65096,
    "category": "City",
    "subcategory": "City",
    "featured": false,
    "priority": 50
  },
  {
    "geonameId": 3038266,
    "name": "Albertville",
    "latitude": 45.67452,
    "longitude": 6.39061,
    "category": "City",
    "subcategory": "District Seat",
    "featured": false,
    "priority": 50
  },
  {
    "geonameId": 3038261,
    "name": "Albi",
    "latitude": 43.9298,
    "longitude": 2.148,
    "category": "City",
    "subcategory": "County Seat",
    "featured": false,
    "priority": 50
  },
  {
    "geonameId": 3038230,
    "name": "Alençon",
    "latitude": 48.43476,
    "longitude": 0.09311,
    "category": "City",
    "subcategory": "County Seat",
    "featured": false,
    "priority": 50
  },
  {
    "geonameId": 3038224,
    "name": "Alès",
    "latitude": 44.12489,
    "longitude": 4.08082,
    "category": "City",
    "subcategory": "District Seat",
    "featured": false,
    "priority": 50
  },
  {
    "geonameId": 3038213,
    "name": "Alfortville",
    "latitude": 48.80575,
    "longitude": 2.4204,
    "category": "City",
    "subcategory": "City",
    "featured": false,
    "priority": 50
  },
  {
    "geonameId": 3038204,
    "name": "Algrange",
    "latitude": 49.36276,
    "longitude": 6.05094,
    "category": "City",
    "subcategory": "City",
    "featured": false,
    "priority": 50
  },
  {
    "geonameId": 3038159,
    "name": "Allauch",
    "latitude": 43.33573,
    "longitude": 5.48201,
    "category": "City",
    "subcategory": "City",
    "featured": false,
    "priority": 50
  },
  {
    "geonameId": 3038106,
    "name": "Allières-et-Risset",
    "latitude": 45.09934,
    "longitude": 5.67924,
    "category": "City",
    "subcategory": "City",
    "featured": false,
    "priority": 50
  },
  {
    "geonameId": 3038086,
    "name": "Allonnes",
    "latitude": 47.96744,
    "longitude": 0.16023,
    "category": "City",
    "subcategory": "City",
    "featured": false,
    "priority": 50
  },
  {
    "geonameId": 6931460,
    "name": "Alpettes",
    "latitude": 45.82108,
    "longitude": 6.61773,
    "category": "Mountain",
    "subcategory": "Peak",
    "featured": false,
    "priority": 50
  },
  {
    "geonameId": 11881106,
    "name": "Altenberg",
    "latitude": 48.31132,
    "longitude": 7.30524,
    "category": "Mountain",
    "subcategory": "Mountain",
    "featured": false,
    "priority": 50
  },
  {
    "geonameId": 7645474,
    "name": "Altenkraehkopf",
    "latitude": 48.10755,
    "longitude": 7.08288,
    "category": "Mountain",
    "subcategory": "Mountain",
    "featured": false,
    "priority": 50
  },
  {
    "geonameId": 3038012,
    "name": "Altkirch",
    "latitude": 47.62417,
    "longitude": 7.23954,
    "category": "City",
    "subcategory": "District Seat",
    "featured": false,
    "priority": 50
  },
  {
    "geonameId": 11548699,
    "name": "Amazon",
    "latitude": 49.30514,
    "longitude": 1.21541,
    "category": "Park",
    "subcategory": "Park",
    "featured": false,
    "priority": 50
  },
  {
    "geonameId": 3037956,
    "name": "Ambarès-et-Lagrave",
    "latitude": 44.92737,
    "longitude": -0.49141,
    "category": "City",
    "subcategory": "City",
    "featured": false,
    "priority": 50
  },
  {
    "geonameId": 3037954,
    "name": "Ambazac",
    "latitude": 45.95733,
    "longitude": 1.39975,
    "category": "City",
    "subcategory": "City",
    "featured": false,
    "priority": 50
  },
  {
    "geonameId": 3037943,
    "name": "Ambérieu-en-Bugey",
    "latitude": 45.95932,
    "longitude": 5.3516,
    "category": "City",
    "subcategory": "City",
    "featured": false,
    "priority": 50
  },
  {
    "geonameId": 3037937,
    "name": "Ambert",
    "latitude": 45.54944,
    "longitude": 3.74164,
    "category": "City",
    "subcategory": "District Seat",
    "featured": false,
    "priority": 50
  },
  {
    "geonameId": 3037902,
    "name": "Amboise",
    "latitude": 47.41249,
    "longitude": 0.98266,
    "category": "City",
    "subcategory": "City",
    "featured": false,
    "priority": 50
  },
  {
    "geonameId": 3037854,
    "name": "Amiens",
    "latitude": 49.9,
    "longitude": 2.3,
    "category": "City",
    "subcategory": "County Seat",
    "featured": false,
    "priority": 50
  },
  {
    "geonameId": 3037846,
    "name": "Amilly",
    "latitude": 47.97281,
    "longitude": 2.77186,
    "category": "City",
    "subcategory": "City",
    "featured": false,
    "priority": 50
  },
  {
    "geonameId": 3037838,
    "name": "Amnéville",
    "latitude": 49.25671,
    "longitude": 6.13414,
    "category": "City",
    "subcategory": "City",
    "featured": false,
    "priority": 50
  },
  {
    "geonameId": 11074163,
    "name": "Amône, Brêche de l'",
    "latitude": 45.92713,
    "longitude": 7.04307,
    "category": "Mountain",
    "subcategory": "Mountain Pass",
    "featured": false,
    "priority": 50
  },
  {
    "geonameId": 3037818,
    "name": "Amplepuis",
    "latitude": 45.9726,
    "longitude": 4.3303,
    "category": "City",
    "subcategory": "City",
    "featured": false,
    "priority": 50
  },
  {
    "geonameId": 7667416,
    "name": "Amselkopf",
    "latitude": 47.8222,
    "longitude": 7.13326,
    "category": "Mountain",
    "subcategory": "Mountain",
    "featured": false,
    "priority": 50
  },
  {
    "geonameId": 3037797,
    "name": "Ancenis",
    "latitude": 47.36667,
    "longitude": -1.16667,
    "category": "City",
    "subcategory": "District Seat",
    "featured": false,
    "priority": 50
  },
  {
    "geonameId": 12954102,
    "name": "Ancienne île Notre-Dame",
    "latitude": 48.85122,
    "longitude": 2.35901,
    "category": "Island",
    "subcategory": "Island",
    "featured": false,
    "priority": 50
  },
  {
    "geonameId": 3037726,
    "name": "Andernos-les-Bains",
    "latitude": 44.74572,
    "longitude": -1.10355,
    "category": "City",
    "subcategory": "City",
    "featured": false,
    "priority": 50
  },
  {
    "geonameId": 3037692,
    "name": "Andrésy",
    "latitude": 48.98235,
    "longitude": 2.05687,
    "category": "City",
    "subcategory": "City",
    "featured": false,
    "priority": 50
  },
  {
    "geonameId": 3037689,
    "name": "Andrézieux-Bouthéon",
    "latitude": 45.52625,
    "longitude": 4.26021,
    "category": "City",
    "subcategory": "City",
    "featured": false,
    "priority": 50
  },
  {
    "geonameId": 8556052,
    "name": "Angelsberg",
    "latitude": 48.99621,
    "longitude": 7.59971,
    "category": "Mountain",
    "subcategory": "Mountain",
    "featured": false,
    "priority": 50
  },
  {
    "geonameId": 3037656,
    "name": "Angers",
    "latitude": 47.47156,
    "longitude": -0.55202,
    "category": "City",
    "subcategory": "County Seat",
    "featured": false,
    "priority": 50
  },
  {
    "geonameId": 3037612,
    "name": "Anglet",
    "latitude": 43.48921,
    "longitude": -1.51921,
    "category": "City",
    "subcategory": "City",
    "featured": false,
    "priority": 50
  },
  {
    "geonameId": 3037598,
    "name": "Angoulême",
    "latitude": 45.64997,
    "longitude": 0.15345,
    "category": "City",
    "subcategory": "County Seat",
    "featured": false,
    "priority": 50
  },
  {
    "geonameId": 3037571,
    "name": "Aniche",
    "latitude": 50.32995,
    "longitude": 3.25346,
    "category": "City",
    "subcategory": "City",
    "featured": false,
    "priority": 50
  },
  {
    "geonameId": 3037543,
    "name": "Annecy",
    "latitude": 45.90878,
    "longitude": 6.12565,
    "category": "City",
    "subcategory": "County Seat",
    "featured": false,
    "priority": 50
  },
  {
    "geonameId": 3037540,
    "name": "Annecy-le-Vieux",
    "latitude": 45.91971,
    "longitude": 6.14393,
    "category": "City",
    "subcategory": "City",
    "featured": false,
    "priority": 50
  },
  {
    "geonameId": 3037538,
    "name": "Annemasse",
    "latitude": 46.19439,
    "longitude": 6.23775,
    "category": "City",
    "subcategory": "City",
    "featured": false,
    "priority": 50
  },
  {
    "geonameId": 3037521,
    "name": "Annezin",
    "latitude": 50.53192,
    "longitude": 2.61785,
    "category": "City",
    "subcategory": "City",
    "featured": false,
    "priority": 50
  },
  {
    "geonameId": 3037520,
    "name": "Annoeullin",
    "latitude": 50.52925,
    "longitude": 2.9318,
    "category": "City",
    "subcategory": "City",
    "featured": false,
    "priority": 50
  },
  {
    "geonameId": 3037514,
    "name": "Annonay",
    "latitude": 45.23992,
    "longitude": 4.6707,
    "category": "City",
    "subcategory": "City",
    "featured": false,
    "priority": 50
  },
  {
    "geonameId": 3037489,
    "name": "Anse",
    "latitude": 45.93553,
    "longitude": 4.71933,
    "category": "City",
    "subcategory": "City",
    "featured": false,
    "priority": 50
  },
  {
    "geonameId": 3037456,
    "name": "Antibes",
    "latitude": 43.58127,
    "longitude": 7.12487,
    "category": "City",
    "subcategory": "City",
    "featured": false,
    "priority": 50
  },
  {
    "geonameId": 3037423,
    "name": "Antony",
    "latitude": 48.75329,
    "longitude": 2.29668,
    "category": "City",
    "subcategory": "District Seat",
    "featured": false,
    "priority": 50
  },
  {
    "geonameId": 3037397,
    "name": "Anzin",
    "latitude": 50.37201,
    "longitude": 3.50387,
    "category": "City",
    "subcategory": "City",
    "featured": false,
    "priority": 50
  },
  {
    "geonameId": 6932135,
    "name": "Aouille de Criou",
    "latitude": 46.0957,
    "longitude": 6.7622,
    "category": "Mountain",
    "subcategory": "Peak",
    "featured": false,
    "priority": 50
  },
  {
    "geonameId": 3037352,
    "name": "Apt",
    "latitude": 43.87638,
    "longitude": 5.39635,
    "category": "City",
    "subcategory": "District Seat",
    "featured": false,
    "priority": 50
  },
  {
    "geonameId": 3037253,
    "name": "Arcachon",
    "latitude": 44.66126,
    "longitude": -1.17255,
    "category": "City",
    "subcategory": "District Seat",
    "featured": false,
    "priority": 50
  },
  {
    "geonameId": 3230287,
    "name": "Archipel des Lavezzi",
    "latitude": 41.35148,
    "longitude": 9.25613,
    "category": "Island",
    "subcategory": "Island Group",
    "featured": false,
    "priority": 50
  },
  {
    "geonameId": 3037157,
    "name": "Arcueil",
    "latitude": 48.79993,
    "longitude": 2.33256,
    "category": "City",
    "subcategory": "City",
    "featured": false,
    "priority": 50
  },
  {
    "geonameId": 3037095,
    "name": "Arès",
    "latitude": 44.76576,
    "longitude": -1.13421,
    "category": "City",
    "subcategory": "City",
    "featured": false,
    "priority": 50
  },
  {
    "geonameId": 6933322,
    "name": "Arête des Aiguillettes",
    "latitude": 46.31361,
    "longitude": 6.64417,
    "category": "Mountain",
    "subcategory": "Peak",
    "featured": false,
    "priority": 50
  },
  {
    "geonameId": 6932154,
    "name": "Arête des Trés Cos",
    "latitude": 46.10094,
    "longitude": 6.82618,
    "category": "Mountain",
    "subcategory": "Peak",
    "featured": false,
    "priority": 50
  },
  {
    "geonameId": 6931944,
    "name": "Arête du Grenairon",
    "latitude": 46.0439,
    "longitude": 6.8522,
    "category": "Mountain",
    "subcategory": "Peak",
    "featured": false,
    "priority": 50
  },
  {
    "geonameId": 3037073,
    "name": "Argarai",
    "latitude": 43.08672,
    "longitude": -1.34456,
    "category": "Mountain",
    "subcategory": "Peak",
    "featured": false,
    "priority": 50
  },
  {
    "geonameId": 3037068,
    "name": "Argeles",
    "latitude": 42.54714,
    "longitude": 3.02253,
    "category": "City",
    "subcategory": "City",
    "featured": false,
    "priority": 50
  },
  {
    "geonameId": 3037070,
    "name": "Argelès-Gazost",
    "latitude": 43.00271,
    "longitude": -0.09914,
    "category": "City",
    "subcategory": "District Seat",
    "featured": false,
    "priority": 50
  },
  {
    "geonameId": 3037051,
    "name": "Argentan",
    "latitude": 48.74441,
    "longitude": -0.02023,
    "category": "City",
    "subcategory": "District Seat",
    "featured": false,
    "priority": 50
  },
  {
    "geonameId": 3037044,
    "name": "Argenteuil",
    "latitude": 48.94788,
    "longitude": 2.24744,
    "category": "City",
    "subcategory": "District Seat",
    "featured": false,
    "priority": 50
  },
  {
    "geonameId": 11074162,
    "name": "Argentière, Brêche d'",
    "latitude": 45.94198,
    "longitude": 7.037,
    "category": "Mountain",
    "subcategory": "Mountain Pass",
    "featured": false,
    "priority": 50
  },
  {
    "geonameId": 3037018,
    "name": "Argenton-sur-Creuse",
    "latitude": 46.58997,
    "longitude": 1.51981,
    "category": "City",
    "subcategory": "City",
    "featured": false,
    "priority": 50
  },
  {
    "geonameId": 3036938,
    "name": "Arles",
    "latitude": 43.67681,
    "longitude": 4.63031,
    "category": "City",
    "subcategory": "District Seat",
    "featured": false,
    "priority": 50
  },
  {
    "geonameId": 3036903,
    "name": "Armentières",
    "latitude": 50.68568,
    "longitude": 2.88214,
    "category": "City",
    "subcategory": "City",
    "featured": false,
    "priority": 50
  },
  {
    "geonameId": 8533739,
    "name": "Armont",
    "latitude": 45.8055,
    "longitude": 4.45686,
    "category": "Mountain",
    "subcategory": "Mountain",
    "featured": false,
    "priority": 50
  },
  {
    "geonameId": 8556067,
    "name": "Armsberg",
    "latitude": 49.01561,
    "longitude": 7.50873,
    "category": "Mountain",
    "subcategory": "Mountain",
    "featured": false,
    "priority": 50
  },
  {
    "geonameId": 3036876,
    "name": "Arnage",
    "latitude": 47.92619,
    "longitude": 0.18726,
    "category": "City",
    "subcategory": "City",
    "featured": false,
    "priority": 50
  },
  {
    "geonameId": 3036843,
    "name": "Arnouville",
    "latitude": 48.98333,
    "longitude": 2.41667,
    "category": "City",
    "subcategory": "City",
    "featured": false,
    "priority": 50
  },
  {
    "geonameId": 8256358,
    "name": "Arnsberg",
    "latitude": 49.04797,
    "longitude": 7.69167,
    "category": "Mountain",
    "subcategory": "Mountain",
    "featured": false,
    "priority": 50
  },
  {
    "geonameId": 3036823,
    "name": "Arpajon",
    "latitude": 48.58875,
    "longitude": 2.24672,
    "category": "City",
    "subcategory": "City",
    "featured": false,
    "priority": 50
  },
  {
    "geonameId": 3036822,
    "name": "Arpajon-sur-Cère",
    "latitude": 44.90391,
    "longitude": 2.45664,
    "category": "City",
    "subcategory": "City",
    "featured": false,
    "priority": 50
  },
  {
    "geonameId": 3036800,
    "name": "Arques",
    "latitude": 50.73375,
    "longitude": 2.30237,
    "category": "City",
    "subcategory": "City",
    "featured": false,
    "priority": 50
  },
  {
    "geonameId": 3036791,
    "name": "Arradon",
    "latitude": 47.62616,
    "longitude": -2.82288,
    "category": "City",
    "subcategory": "City",
    "featured": false,
    "priority": 50
  },
  {
    "geonameId": 3036784,
    "name": "Arras",
    "latitude": 50.29301,
    "longitude": 2.78186,
    "category": "City",
    "subcategory": "County Seat",
    "featured": false,
    "priority": 50
  },
  {
    "geonameId": 12534746,
    "name": "Arre Sourins",
    "latitude": 42.92563,
    "longitude": -0.33496,
    "category": "Mountain",
    "subcategory": "Peak",
    "featured": false,
    "priority": 50
  },
  {
    "geonameId": 3036711,
    "name": "Ars-sur-Moselle",
    "latitude": 49.07791,
    "longitude": 6.0742,
    "category": "City",
    "subcategory": "City",
    "featured": false,
    "priority": 50
  },
  {
    "geonameId": 12718439,
    "name": "Arthanolatze",
    "latitude": 43.05223,
    "longitude": -1.04028,
    "category": "Mountain",
    "subcategory": "Peak",
    "featured": false,
    "priority": 50
  },
  {
    "geonameId": 3036655,
    "name": "Artigues-près-Bordeaux",
    "latitude": 44.85887,
    "longitude": -0.49718,
    "category": "City",
    "subcategory": "City",
    "featured": false,
    "priority": 50
  },
  {
    "geonameId": 12541205,
    "name": "Artzainharria",
    "latitude": 43.14619,
    "longitude": -1.31052,
    "category": "Mountain",
    "subcategory": "Peak",
    "featured": false,
    "priority": 50
  },
  {
    "geonameId": 3036635,
    "name": "Artzamendi",
    "latitude": 43.28288,
    "longitude": -1.40847,
    "category": "Mountain",
    "subcategory": "Peak",
    "featured": false,
    "priority": 50
  },
  {
    "geonameId": 3036572,
    "name": "Asnières-sur-Seine",
    "latitude": 48.91667,
    "longitude": 2.28333,
    "category": "City",
    "subcategory": "City",
    "featured": false,
    "priority": 50
  },
  {
    "geonameId": 3129245,
    "name": "Astate",
    "latitude": 43.19953,
    "longitude": -1.38294,
    "category": "Mountain",
    "subcategory": "Peak",
    "featured": false,
    "priority": 50
  },
  {
    "geonameId": 3036493,
    "name": "Astateko Lepoa",
    "latitude": 43.19716,
    "longitude": -1.38573,
    "category": "Mountain",
    "subcategory": "Mountain Pass",
    "featured": false,
    "priority": 50
  },
  {
    "geonameId": 3036460,
    "name": "Athis-Mons",
    "latitude": 48.70522,
    "longitude": 2.39147,
    "category": "City",
    "subcategory": "City",
    "featured": false,
    "priority": 50
  },
  {
    "geonameId": 3036433,
    "name": "Aubagne",
    "latitude": 43.29276,
    "longitude": 5.57067,
    "category": "City",
    "subcategory": "City",
    "featured": false,
    "priority": 50
  },
  {
    "geonameId": 3036418,
    "name": "Aubenas",
    "latitude": 44.61975,
    "longitude": 4.39033,
    "category": "City",
    "subcategory": "City",
    "featured": false,
    "priority": 50
  },
  {
    "geonameId": 3036402,
    "name": "Aubergenville",
    "latitude": 48.95996,
    "longitude": 1.85467,
    "category": "City",
    "subcategory": "City",
    "featured": false,
    "priority": 50
  },
  {
    "geonameId": 3036386,
    "name": "Aubervilliers",
    "latitude": 48.91667,
    "longitude": 2.38333,
    "category": "City",
    "subcategory": "City",
    "featured": false,
    "priority": 50
  },
  {
    "geonameId": 3036364,
    "name": "Aubière",
    "latitude": 45.75082,
    "longitude": 3.11078,
    "category": "City",
    "subcategory": "City",
    "featured": false,
    "priority": 50
  },
  {
    "geonameId": 3036326,
    "name": "Aubigny-sur-Nère",
    "latitude": 47.48819,
    "longitude": 2.43895,
    "category": "City",
    "subcategory": "City",
    "featured": false,
    "priority": 50
  },
  {
    "geonameId": 3036295,
    "name": "Aubusson",
    "latitude": 45.95486,
    "longitude": 2.16724,
    "category": "City",
    "subcategory": "District Seat",
    "featured": false,
    "priority": 50
  },
  {
    "geonameId": 3036289,
    "name": "Auby",
    "latitude": 50.41457,
    "longitude": 3.05396,
    "category": "City",
    "subcategory": "City",
    "featured": false,
    "priority": 50
  },
  {
    "geonameId": 3036287,
    "name": "Aucamville",
    "latitude": 43.67053,
    "longitude": 1.42766,
    "category": "City",
    "subcategory": "City",
    "featured": false,
    "priority": 50
  },
  {
    "geonameId": 3036281,
    "name": "Auch",
    "latitude": 43.64561,
    "longitude": 0.58856,
    "category": "City",
    "subcategory": "County Seat",
    "featured": false,
    "priority": 50
  },
  {
    "geonameId": 3036278,
    "name": "Auchel",
    "latitude": 50.50345,
    "longitude": 2.47346,
    "category": "City",
    "subcategory": "City",
    "featured": false,
    "priority": 50
  },
  {
    "geonameId": 12534749,
    "name": "Aucupat",
    "latitude": 42.93489,
    "longitude": -0.37041,
    "category": "Mountain",
    "subcategory": "Peak",
    "featured": false,
    "priority": 50
  },
  {
    "geonameId": 3036256,
    "name": "Audenge",
    "latitude": 44.68368,
    "longitude": -1.01344,
    "category": "City",
    "subcategory": "City",
    "featured": false,
    "priority": 50
  },
  {
    "geonameId": 3036240,
    "name": "Audincourt",
    "latitude": 47.48327,
    "longitude": 6.85341,
    "category": "City",
    "subcategory": "City",
    "featured": false,
    "priority": 50
  },
  {
    "geonameId": 3036226,
    "name": "Audun-le-Tiche",
    "latitude": 49.47217,
    "longitude": 5.9555,
    "category": "City",
    "subcategory": "City",
    "featured": false,
    "priority": 50
  },
  {
    "geonameId": 11002264,
    "name": "Aukopf",
    "latitude": 48.46319,
    "longitude": 7.38384,
    "category": "Mountain",
    "subcategory": "Mountain",
    "featured": false,
    "priority": 50
  },
  {
    "geonameId": 3036145,
    "name": "Aulnay-sous-Bois",
    "latitude": 48.93814,
    "longitude": 2.49402,
    "category": "City",
    "subcategory": "City",
    "featured": false,
    "priority": 50
  },
  {
    "geonameId": 3036133,
    "name": "Aulnoy-lez-Valenciennes",
    "latitude": 50.33333,
    "longitude": 3.53333,
    "category": "City",
    "subcategory": "City",
    "featured": false,
    "priority": 50
  },
  {
    "geonameId": 3036132,
    "name": "Aulnoye-Aymeries",
    "latitude": 50.20141,
    "longitude": 3.83844,
    "category": "City",
    "subcategory": "City",
    "featured": false,
    "priority": 50
  },
  {
    "geonameId": 6931654,
    "name": "Aup de Véran",
    "latitude": 45.98333,
    "longitude": 6.6925,
    "category": "Mountain",
    "subcategory": "Peak",
    "featured": false,
    "priority": 50
  },
  {
    "geonameId": 3036059,
    "name": "Auray",
    "latitude": 47.66692,
    "longitude": -2.98421,
    "category": "City",
    "subcategory": "City",
    "featured": false,
    "priority": 50
  },
  {
    "geonameId": 3036054,
    "name": "Aurec-sur-Loire",
    "latitude": 45.36908,
    "longitude": 4.20161,
    "category": "City",
    "subcategory": "City",
    "featured": false,
    "priority": 50
  },
  {
    "geonameId": 3036052,
    "name": "Aureilhan",
    "latitude": 43.24372,
    "longitude": 0.09593,
    "category": "City",
    "subcategory": "City",
    "featured": false,
    "priority": 50
  },
  {
    "geonameId": 3036016,
    "name": "Aurillac",
    "latitude": 44.92539,
    "longitude": 2.43983,
    "category": "City",
    "subcategory": "County Seat",
    "featured": false,
    "priority": 50
  },
  {
    "geonameId": 3036012,
    "name": "Auriol",
    "latitude": 43.37161,
    "longitude": 5.6341,
    "category": "City",
    "subcategory": "City",
    "featured": false,
    "priority": 50
  },
  {
    "geonameId": 3035991,
    "name": "Aussillon",
    "latitude": 43.49897,
    "longitude": 2.36313,
    "category": "City",
    "subcategory": "City",
    "featured": false,
    "priority": 50
  },
  {
    "geonameId": 3035970,
    "name": "Auterive",
    "latitude": 43.35079,
    "longitude": 1.47464,
    "category": "City",
    "subcategory": "City",
    "featured": false,
    "priority": 50
  },
  {
    "geonameId": 3035883,
    "name": "Autun",
    "latitude": 46.95104,
    "longitude": 4.29869,
    "category": "City",
    "subcategory": "District Seat",
    "featured": false,
    "priority": 50
  },
  {
    "geonameId": 3035864,
    "name": "Auvers-sur-Oise",
    "latitude": 49.07158,
    "longitude": 2.16978,
    "category": "City",
    "subcategory": "City",
    "featured": false,
    "priority": 50
  },
  {
    "geonameId": 3035843,
    "name": "Auxerre",
    "latitude": 47.7996,
    "longitude": 3.57033,
    "category": "City",
    "subcategory": "County Seat",
    "featured": false,
    "priority": 50
  },
  {
    "geonameId": 3035828,
    "name": "Auxonne",
    "latitude": 47.19255,
    "longitude": 5.38726,
    "category": "City",
    "subcategory": "City",
    "featured": false,
    "priority": 50
  },
  {
    "geonameId": 3035768,
    "name": "Avallon",
    "latitude": 47.49002,
    "longitude": 3.90832,
    "category": "City",
    "subcategory": "District Seat",
    "featured": false,
    "priority": 50
  },
  {
    "geonameId": 11749068,
    "name": "Aven Armand",
    "latitude": 44.22105,
    "longitude": 3.35699,
    "category": "Park",
    "subcategory": "Park",
    "featured": false,
    "priority": 50
  },
  {
    "geonameId": 3035698,
    "name": "Avesnes-sur-Helpe",
    "latitude": 50.12372,
    "longitude": 3.9257,
    "category": "City",
    "subcategory": "District Seat",
    "featured": false,
    "priority": 50
  },
  {
    "geonameId": 3035681,
    "name": "Avignon",
    "latitude": 43.94834,
    "longitude": 4.80892,
    "category": "City",
    "subcategory": "County Seat",
    "featured": false,
    "priority": 50
  },
  {
    "geonameId": 3035667,
    "name": "Avion",
    "latitude": 50.41038,
    "longitude": 2.83053,
    "category": "City",
    "subcategory": "City",
    "featured": false,
    "priority": 50
  },
  {
    "geonameId": 3035654,
    "name": "Avon",
    "latitude": 48.40219,
    "longitude": 2.72022,
    "category": "City",
    "subcategory": "City",
    "featured": false,
    "priority": 50
  },
  {
    "geonameId": 3035639,
    "name": "Avranches",
    "latitude": 48.68436,
    "longitude": -1.35686,
    "category": "City",
    "subcategory": "District Seat",
    "featured": false,
    "priority": 50
  },
  {
    "geonameId": 3035633,
    "name": "Avrecourt",
    "latitude": 47.96329,
    "longitude": 5.53699,
    "category": "City",
    "subcategory": "Local Seat",
    "featured": false,
    "priority": 50
  },
  {
    "geonameId": 3035612,
    "name": "Avrillé",
    "latitude": 47.50663,
    "longitude": -0.58955,
    "category": "City",
    "subcategory": "City",
    "featured": false,
    "priority": 50
  },
  {
    "geonameId": 9072704,
    "name": "Ax 3 Domaines",
    "latitude": 42.70029,
    "longitude": 1.81249,
    "category": "Mountain",
    "subcategory": "Mountain",
    "featured": false,
    "priority": 50
  },
  {
    "geonameId": 3035560,
    "name": "Aytré",
    "latitude": 46.13417,
    "longitude": -1.11826,
    "category": "City",
    "subcategory": "City",
    "featured": false,
    "priority": 50
  },
  {
    "geonameId": 13060532,
    "name": "Bac de l'Alvèse",
    "latitude": 42.79978,
    "longitude": 2.59418,
    "category": "Mountain",
    "subcategory": "Peak",
    "featured": false,
    "priority": 50
  },
  {
    "geonameId": 7667466,
    "name": "Baerenberg",
    "latitude": 48.59092,
    "longitude": 7.2757,
    "category": "Mountain",
    "subcategory": "Mountain",
    "featured": false,
    "priority": 50
  },
  {
    "geonameId": 7667396,
    "name": "Baerenkopf",
    "latitude": 47.77276,
    "longitude": 6.92216,
    "category": "Mountain",
    "subcategory": "Mountain",
    "featured": false,
    "priority": 50
  },
  {
    "geonameId": 10235437,
    "name": "Baerenkupfel",
    "latitude": 48.7518,
    "longitude": 7.32668,
    "category": "Mountain",
    "subcategory": "Mountain",
    "featured": false,
    "priority": 50
  },
  {
    "geonameId": 6452746,
    "name": "Bagatelle Park",
    "latitude": 48.86994,
    "longitude": 2.2467,
    "category": "Park",
    "subcategory": "Park",
    "featured": false,
    "priority": 50
  },
  {
    "geonameId": 3035418,
    "name": "Bagnères-de-Bigorre",
    "latitude": 43.06497,
    "longitude": 0.14876,
    "category": "City",
    "subcategory": "District Seat",
    "featured": false,
    "priority": 50
  },
  {
    "geonameId": 3035409,
    "name": "Bagneux",
    "latitude": 48.79565,
    "longitude": 2.30796,
    "category": "City",
    "subcategory": "City",
    "featured": false,
    "priority": 50
  },
  {
    "geonameId": 3035403,
    "name": "Bagnolet",
    "latitude": 48.86667,
    "longitude": 2.41667,
    "category": "City",
    "subcategory": "City",
    "featured": false,
    "priority": 50
  },
  {
    "geonameId": 3035396,
    "name": "Bagnols-sur-Cèze",
    "latitude": 44.16259,
    "longitude": 4.61974,
    "category": "City",
    "subcategory": "City",
    "featured": false,
    "priority": 50
  },
  {
    "geonameId": 3035381,
    "name": "Baigneaux",
    "latitude": 48.13333,
    "longitude": 1.81667,
    "category": "City",
    "subcategory": "Local Seat",
    "featured": false,
    "priority": 50
  },
  {
    "geonameId": 3035370,
    "name": "Baillargues",
    "latitude": 43.66126,
    "longitude": 4.01283,
    "category": "City",
    "subcategory": "City",
    "featured": false,
    "priority": 50
  },
  {
    "geonameId": 3035359,
    "name": "Bailleul",
    "latitude": 50.73592,
    "longitude": 2.73594,
    "category": "City",
    "subcategory": "City",
    "featured": false,
    "priority": 50
  },
  {
    "geonameId": 3035324,
    "name": "Bain-de-Bretagne",
    "latitude": 47.84687,
    "longitude": -1.68579,
    "category": "City",
    "subcategory": "City",
    "featured": false,
    "priority": 50
  },
  {
    "geonameId": 3035268,
    "name": "Balaruc-les-Bains",
    "latitude": 43.4417,
    "longitude": 3.6778,
    "category": "City",
    "subcategory": "City",
    "featured": false,
    "priority": 50
  },
  {
    "geonameId": 3035226,
    "name": "Ballan-Miré",
    "latitude": 47.34057,
    "longitude": 0.61466,
    "category": "City",
    "subcategory": "City",
    "featured": false,
    "priority": 50
  },
  {
    "geonameId": 3035228,
    "name": "Ballancourt-sur-Essonne",
    "latitude": 48.52525,
    "longitude": 2.38604,
    "category": "City",
    "subcategory": "City",
    "featured": false,
    "priority": 50
  },
  {
    "geonameId": 3038031,
    "name": "Ballon d'Alsace",
    "latitude": 47.823,
    "longitude": 6.846,
    "category": "Mountain",
    "subcategory": "Mountain",
    "featured": false,
    "priority": 50
  },
  {
    "geonameId": 7667395,
    "name": "Ballon de Saint-Nicolas",
    "latitude": 47.76968,
    "longitude": 6.93126,
    "category": "Mountain",
    "subcategory": "Mountain",
    "featured": false,
    "priority": 50
  },
  {
    "geonameId": 2974788,
    "name": "Ballon de Servance",
    "latitude": 47.8303,
    "longitude": 6.792,
    "category": "Mountain",
    "subcategory": "Mountain",
    "featured": false,
    "priority": 50
  },
  {
    "geonameId": 7667487,
    "name": "Ballon Saint-Antoine",
    "latitude": 47.7845,
    "longitude": 6.79007,
    "category": "Mountain",
    "subcategory": "Mountain",
    "featured": false,
    "priority": 50
  },
  {
    "geonameId": 3035204,
    "name": "Balma",
    "latitude": 43.61111,
    "longitude": 1.49944,
    "category": "City",
    "subcategory": "City",
    "featured": false,
    "priority": 50
  },
  {
    "geonameId": 13308839,
    "name": "Ban de la Roche",
    "latitude": 48.41472,
    "longitude": 7.20222,
    "category": "Mountain",
    "subcategory": "Mountain",
    "featured": false,
    "priority": 50
  },
  {
    "geonameId": 3035156,
    "name": "Bandol",
    "latitude": 43.14247,
    "longitude": 5.74718,
    "category": "City",
    "subcategory": "City",
    "featured": false,
    "priority": 50
  },
  {
    "geonameId": 3035142,
    "name": "Banize",
    "latitude": 45.87479,
    "longitude": 2.06168,
    "category": "City",
    "subcategory": "Local Seat",
    "featured": false,
    "priority": 50
  },
  {
    "geonameId": 3035139,
    "name": "Bannalec",
    "latitude": 47.93236,
    "longitude": -3.69835,
    "category": "City",
    "subcategory": "City",
    "featured": false,
    "priority": 50
  },
  {
    "geonameId": 7667421,
    "name": "Bannbergkopf",
    "latitude": 47.83206,
    "longitude": 6.99443,
    "category": "Mountain",
    "subcategory": "Mountain",
    "featured": false,
    "priority": 50
  },
  {
    "geonameId": 6931337,
    "name": "Banne",
    "latitude": 44.53528,
    "longitude": 5.62194,
    "category": "Mountain",
    "subcategory": "Peak",
    "featured": false,
    "priority": 50
  },
  {
    "geonameId": 3035092,
    "name": "Banyuls de la Marenda",
    "latitude": 42.48375,
    "longitude": 3.12897,
    "category": "City",
    "subcategory": "City",
    "featured": false,
    "priority": 50
  },
  {
    "geonameId": 9252052,
    "name": "Baou de Saint-Jeannet",
    "latitude": 43.75411,
    "longitude": 7.13798,
    "category": "Mountain",
    "subcategory": "Mountain",
    "featured": false,
    "priority": 50
  },
  {
    "geonameId": 3034911,
    "name": "Bar-le-Duc",
    "latitude": 48.77275,
    "longitude": 5.16108,
    "category": "City",
    "subcategory": "County Seat",
    "featured": false,
    "priority": 50
  },
  {
    "geonameId": 3034802,
    "name": "Bar-sur-Aube",
    "latitude": 48.23315,
    "longitude": 4.7064,
    "category": "City",
    "subcategory": "District Seat",
    "featured": false,
    "priority": 50
  },
  {
    "geonameId": 3035079,
    "name": "Baracuchet",
    "latitude": 45.41696,
    "longitude": 5.63543,
    "category": "Mountain",
    "subcategory": "Mountain",
    "featured": false,
    "priority": 50
  },
  {
    "geonameId": 7671073,
    "name": "Barancon",
    "latitude": 48.29744,
    "longitude": 7.20536,
    "category": "Mountain",
    "subcategory": "Mountain",
    "featured": false,
    "priority": 50
  },
  {
    "geonameId": 3035033,
    "name": "Barberaz",
    "latitude": 45.56179,
    "longitude": 5.94306,
    "category": "City",
    "subcategory": "City",
    "featured": false,
    "priority": 50
  },
  {
    "geonameId": 3035016,
    "name": "Barbezieux-Saint-Hilaire",
    "latitude": 45.47265,
    "longitude": -0.15218,
    "category": "City",
    "subcategory": "City",
    "featured": false,
    "priority": 50
  },
  {
    "geonameId": 3034991,
    "name": "Barcelonnette",
    "latitude": 44.38691,
    "longitude": 6.65179,
    "category": "City",
    "subcategory": "District Seat",
    "featured": false,
    "priority": 50
  },
  {
    "geonameId": 3034951,
    "name": "Barentin",
    "latitude": 49.54533,
    "longitude": 0.95515,
    "category": "City",
    "subcategory": "City",
    "featured": false,
    "priority": 50
  },
  {
    "geonameId": 3034903,
    "name": "Barlin",
    "latitude": 50.45238,
    "longitude": 2.61955,
    "category": "City",
    "subcategory": "City",
    "featured": false,
    "priority": 50
  },
  {
    "geonameId": 6931897,
    "name": "Barme Rousse",
    "latitude": 46.03611,
    "longitude": 6.56639,
    "category": "Mountain",
    "subcategory": "Peak",
    "featured": false,
    "priority": 50
  },
  {
    "geonameId": 3034868,
    "name": "Barr",
    "latitude": 48.40755,
    "longitude": 7.44873,
    "category": "City",
    "subcategory": "City",
    "featured": false,
    "priority": 50
  },
  {
    "geonameId": 11396414,
    "name": "Barrage du Doubs",
    "latitude": 47.21633,
    "longitude": 6.90996,
    "category": "Lake",
    "subcategory": "Lake",
    "featured": false,
    "priority": 50
  },
  {
    "geonameId": 3027954,
    "name": "Barre du Cengle",
    "latitude": 43.5014,
    "longitude": 5.59592,
    "category": "Mountain",
    "subcategory": "Mountain",
    "featured": false,
    "priority": 50
  },
  {
    "geonameId": 10860045,
    "name": "Barrenkopf",
    "latitude": 48.07513,
    "longitude": 7.1318,
    "category": "Mountain",
    "subcategory": "Mountain",
    "featured": false,
    "priority": 50
  },
  {
    "geonameId": 9224932,
    "name": "Barres de Niolong",
    "latitude": 43.38242,
    "longitude": 5.45067,
    "category": "Mountain",
    "subcategory": "Peak",
    "featured": false,
    "priority": 50
  },
  {
    "geonameId": 11073948,
    "name": "Bas des Cavales",
    "latitude": 46.066,
    "longitude": 6.87904,
    "category": "Mountain",
    "subcategory": "Mountain Pass",
    "featured": false,
    "priority": 50
  },
  {
    "geonameId": 6619940,
    "name": "Base de loisirs de Bouconne",
    "latitude": 43.66592,
    "longitude": 1.22674,
    "category": "Park",
    "subcategory": "Park",
    "featured": false,
    "priority": 50
  },
  {
    "geonameId": 11075233,
    "name": "Bassachaux, Pas de",
    "latitude": 46.1682,
    "longitude": 6.79839,
    "category": "Mountain",
    "subcategory": "Mountain Pass",
    "featured": false,
    "priority": 50
  },
  {
    "geonameId": 6931227,
    "name": "Basse de Pidanoux",
    "latitude": 43.92694,
    "longitude": 6.55361,
    "category": "Mountain",
    "subcategory": "Peak",
    "featured": false,
    "priority": 50
  },
  {
    "geonameId": 3034699,
    "name": "Basse-Goulaine",
    "latitude": 47.2151,
    "longitude": -1.46598,
    "category": "City",
    "subcategory": "City",
    "featured": false,
    "priority": 50
  },
  {
    "geonameId": 3034691,
    "name": "Bassens",
    "latitude": 44.90353,
    "longitude": -0.517,
    "category": "City",
    "subcategory": "City",
    "featured": false,
    "priority": 50
  },
  {
    "geonameId": 3007967,
    "name": "Bassin de Lampy",
    "latitude": 43.40139,
    "longitude": 2.17347,
    "category": "Lake",
    "subcategory": "Reservoir",
    "featured": false,
    "priority": 50
  },
  {
    "geonameId": 2984298,
    "name": "Bassin de Réal Tort",
    "latitude": 43.46354,
    "longitude": 5.3313,
    "category": "Lake",
    "subcategory": "Reservoir",
    "featured": false,
    "priority": 50
  },
  {
    "geonameId": 2980138,
    "name": "Bassin de Saint-Ferréol",
    "latitude": 43.43682,
    "longitude": 2.02876,
    "category": "Lake",
    "subcategory": "Reservoir",
    "featured": false,
    "priority": 50
  },
  {
    "geonameId": 12909364,
    "name": "Bassin Jacques-Cœur",
    "latitude": 43.59972,
    "longitude": 3.90035,
    "category": "Park",
    "subcategory": "Park",
    "featured": false,
    "priority": 50
  },
  {
    "geonameId": 3034640,
    "name": "Bastia",
    "latitude": 42.70219,
    "longitude": 9.45123,
    "category": "City",
    "subcategory": "County Seat",
    "featured": false,
    "priority": 50
  },
  {
    "geonameId": 13405774,
    "name": "Batterie de Santa Engràcia",
    "latitude": 42.45319,
    "longitude": 2.65956,
    "category": "Mountain",
    "subcategory": "Peak",
    "featured": false,
    "priority": 50
  },
  {
    "geonameId": 7645279,
    "name": "Batteriekopf",
    "latitude": 47.994,
    "longitude": 6.9804,
    "category": "Mountain",
    "subcategory": "Mountain",
    "featured": false,
    "priority": 50
  },
  {
    "geonameId": 9252039,
    "name": "Bau des Vespres",
    "latitude": 43.53278,
    "longitude": 5.61728,
    "category": "Mountain",
    "subcategory": "Peak",
    "featured": false,
    "priority": 50
  },
  {
    "geonameId": 3034582,
    "name": "Baud",
    "latitude": 47.8759,
    "longitude": -3.01926,
    "category": "City",
    "subcategory": "City",
    "featured": false,
    "priority": 50
  },
  {
    "geonameId": 3034566,
    "name": "Baudreix",
    "latitude": 43.20402,
    "longitude": -0.25807,
    "category": "City",
    "subcategory": "Local Seat",
    "featured": false,
    "priority": 50
  },
  {
    "geonameId": 3034535,
    "name": "Baume-les-Dames",
    "latitude": 47.35295,
    "longitude": 6.36117,
    "category": "City",
    "subcategory": "City",
    "featured": false,
    "priority": 50
  },
  {
    "geonameId": 3034521,
    "name": "Bauvin",
    "latitude": 50.51714,
    "longitude": 2.89404,
    "category": "City",
    "subcategory": "City",
    "featured": false,
    "priority": 50
  },
  {
    "geonameId": 3034498,
    "name": "Bayard",
    "latitude": 44.53333,
    "longitude": 5.71667,
    "category": "Mountain",
    "subcategory": "Peak",
    "featured": false,
    "priority": 50
  },
  {
    "geonameId": 3034483,
    "name": "Bayeux",
    "latitude": 49.27732,
    "longitude": -0.7039,
    "category": "City",
    "subcategory": "District Seat",
    "featured": false,
    "priority": 50
  },
  {
    "geonameId": 3034475,
    "name": "Bayonne",
    "latitude": 43.49316,
    "longitude": -1.473,
    "category": "City",
    "subcategory": "District Seat",
    "featured": false,
    "priority": 50
  },
  {
    "geonameId": 3034458,
    "name": "Bazas",
    "latitude": 44.43161,
    "longitude": -0.21337,
    "category": "City",
    "subcategory": "City",
    "featured": false,
    "priority": 50
  },
  {
    "geonameId": 12046178,
    "name": "Bazeü Trèz",
    "latitude": 47.34365,
    "longitude": -2.90482,
    "category": "Island",
    "subcategory": "Island Group",
    "featured": false,
    "priority": 50
  },
  {
    "geonameId": 3034382,
    "name": "Beaucaire",
    "latitude": 43.80806,
    "longitude": 4.64417,
    "category": "City",
    "subcategory": "City",
    "featured": false,
    "priority": 50
  },
  {
    "geonameId": 3034369,
    "name": "Beauchamp",
    "latitude": 49.01667,
    "longitude": 2.2,
    "category": "City",
    "subcategory": "City",
    "featured": false,
    "priority": 50
  },
  {
    "geonameId": 3034343,
    "name": "Beaucourt",
    "latitude": 47.48878,
    "longitude": 6.92214,
    "category": "City",
    "subcategory": "City",
    "featured": false,
    "priority": 50
  },
  {
    "geonameId": 3034309,
    "name": "Beaufort-en-Vallée",
    "latitude": 47.44006,
    "longitude": -0.21655,
    "category": "City",
    "subcategory": "City",
    "featured": false,
    "priority": 50
  },
  {
    "geonameId": 3034297,
    "name": "Beaugency",
    "latitude": 47.78019,
    "longitude": 1.62705,
    "category": "City",
    "subcategory": "City",
    "featured": false,
    "priority": 50
  },
  {
    "geonameId": 3034198,
    "name": "Beaumont",
    "latitude": 45.75165,
    "longitude": 3.08294,
    "category": "City",
    "subcategory": "City",
    "featured": false,
    "priority": 50
  },
  {
    "geonameId": 3034141,
    "name": "Beaumont-sur-Oise",
    "latitude": 49.14232,
    "longitude": 2.28705,
    "category": "City",
    "subcategory": "City",
    "featured": false,
    "priority": 50
  },
  {
    "geonameId": 3034126,
    "name": "Beaune",
    "latitude": 47.02413,
    "longitude": 4.83887,
    "category": "City",
    "subcategory": "District Seat",
    "featured": false,
    "priority": 50
  },
  {
    "geonameId": 3034111,
    "name": "Beaupréau",
    "latitude": 47.20214,
    "longitude": -0.99471,
    "category": "City",
    "subcategory": "City",
    "featured": false,
    "priority": 50
  },
  {
    "geonameId": 3034041,
    "name": "Beausoleil",
    "latitude": 43.74311,
    "longitude": 7.4225,
    "category": "City",
    "subcategory": "City",
    "featured": false,
    "priority": 50
  },
  {
    "geonameId": 3034006,
    "name": "Beauvais",
    "latitude": 49.43333,
    "longitude": 2.08333,
    "category": "City",
    "subcategory": "County Seat",
    "featured": false,
    "priority": 50
  },
  {
    "geonameId": 3033953,
    "name": "Beauzelle",
    "latitude": 43.66713,
    "longitude": 1.37518,
    "category": "City",
    "subcategory": "City",
    "featured": false,
    "priority": 50
  },
  {
    "geonameId": 6931403,
    "name": "Bec Charvet",
    "latitude": 45.29678,
    "longitude": 5.82775,
    "category": "Mountain",
    "subcategory": "Peak",
    "featured": false,
    "priority": 50
  },
  {
    "geonameId": 3036976,
    "name": "Bec d'Arguille",
    "latitude": 45.27201,
    "longitude": 6.1512,
    "category": "Mountain",
    "subcategory": "Peak",
    "featured": false,
    "priority": 50
  },
  {
    "geonameId": 3012035,
    "name": "Bec de Jus",
    "latitude": 44.49414,
    "longitude": 5.16921,
    "category": "Mountain",
    "subcategory": "Mountain",
    "featured": false,
    "priority": 50
  },
  {
    "geonameId": 3038619,
    "name": "Bec de l'Àgle",
    "latitude": 44.41667,
    "longitude": 6.81667,
    "category": "Mountain",
    "subcategory": "Peak",
    "featured": false,
    "priority": 50
  },
  {
    "geonameId": 8299501,
    "name": "Bec de l'Aigle",
    "latitude": 45.25874,
    "longitude": 6.4427,
    "category": "Mountain",
    "subcategory": "Peak",
    "featured": false,
    "priority": 50
  },
  {
    "geonameId": 7576701,
    "name": "Bec de l'Homme",
    "latitude": 45.01667,
    "longitude": 6.3299,
    "category": "Mountain",
    "subcategory": "Peak",
    "featured": false,
    "priority": 50
  },
  {
    "geonameId": 2989354,
    "name": "Bec de l'Orient",
    "latitude": 45.23453,
    "longitude": 5.54635,
    "category": "Mountain",
    "subcategory": "Peak",
    "featured": false,
    "priority": 50
  },
  {
    "geonameId": 6931689,
    "name": "Bec de la Cluy",
    "latitude": 45.99012,
    "longitude": 6.96289,
    "category": "Mountain",
    "subcategory": "Peak",
    "featured": false,
    "priority": 50
  },
  {
    "geonameId": 6931407,
    "name": "Bec de la Scia",
    "latitude": 45.34611,
    "longitude": 5.85139,
    "category": "Mountain",
    "subcategory": "Peak",
    "featured": false,
    "priority": 50
  },
  {
    "geonameId": 6931665,
    "name": "Bec de Lachat",
    "latitude": 45.98559,
    "longitude": 6.96109,
    "category": "Mountain",
    "subcategory": "Peak",
    "featured": false,
    "priority": 50
  },
  {
    "geonameId": 6931396,
    "name": "Bec de Neurre",
    "latitude": 45.16417,
    "longitude": 5.47556,
    "category": "Mountain",
    "subcategory": "Peak",
    "featured": false,
    "priority": 50
  },
  {
    "geonameId": 2998430,
    "name": "Bec du Lièvre",
    "latitude": 44.43333,
    "longitude": 6.9,
    "category": "Mountain",
    "subcategory": "Peak",
    "featured": false,
    "priority": 50
  },
  {
    "geonameId": 6931757,
    "name": "Bec du Picheu",
    "latitude": 46.00497,
    "longitude": 6.9735,
    "category": "Mountain",
    "subcategory": "Peak",
    "featured": false,
    "priority": 50
  },
  {
    "geonameId": 2982612,
    "name": "Bec Rouge",
    "latitude": 45.6178,
    "longitude": 6.90006,
    "category": "Mountain",
    "subcategory": "Mountain",
    "featured": false,
    "priority": 50
  },
  {
    "geonameId": 6931637,
    "name": "Bec Rouge Supérieur",
    "latitude": 45.97744,
    "longitude": 6.98074,
    "category": "Mountain",
    "subcategory": "Peak",
    "featured": false,
    "priority": 50
  },
  {
    "geonameId": 3015876,
    "name": "Becca di Suessa",
    "latitude": 45.54778,
    "longitude": 6.99387,
    "category": "Mountain",
    "subcategory": "Peak",
    "featured": false,
    "priority": 50
  },
  {
    "geonameId": 2991601,
    "name": "Becca Motta",
    "latitude": 45.43472,
    "longitude": 6.74835,
    "category": "Mountain",
    "subcategory": "Peak",
    "featured": false,
    "priority": 50
  },
  {
    "geonameId": 7534456,
    "name": "Beccaltu",
    "latitude": 41.55958,
    "longitude": 9.11458,
    "category": "Mountain",
    "subcategory": "Peak",
    "featured": false,
    "priority": 50
  },
  {
    "geonameId": 11002392,
    "name": "Becherkopf",
    "latitude": 47.83897,
    "longitude": 7.11395,
    "category": "Mountain",
    "subcategory": "Mountain",
    "featured": false,
    "priority": 50
  },
  {
    "geonameId": 3033917,
    "name": "Becqui Rouge",
    "latitude": 45.47721,
    "longitude": 6.77633,
    "category": "Mountain",
    "subcategory": "Peak",
    "featured": false,
    "priority": 50
  },
  {
    "geonameId": 3033913,
    "name": "Bédarieux",
    "latitude": 43.61602,
    "longitude": 3.15892,
    "category": "City",
    "subcategory": "City",
    "featured": false,
    "priority": 50
  },
  {
    "geonameId": 3033912,
    "name": "Bédarrides",
    "latitude": 44.04022,
    "longitude": 4.89819,
    "category": "City",
    "subcategory": "City",
    "featured": false,
    "priority": 50
  },
  {
    "geonameId": 3033881,
    "name": "Bègles",
    "latitude": 44.80759,
    "longitude": -0.55144,
    "category": "City",
    "subcategory": "City",
    "featured": false,
    "priority": 50
  },
  {
    "geonameId": 3033864,
    "name": "Beharria",
    "latitude": 43.14095,
    "longitude": -1.2985,
    "category": "Mountain",
    "subcategory": "Peak",
    "featured": false,
    "priority": 50
  },
  {
    "geonameId": 3033853,
    "name": "Behren-lès-Forbach",
    "latitude": 49.16949,
    "longitude": 6.93933,
    "category": "City",
    "subcategory": "City",
    "featured": false,
    "priority": 50
  },
  {
    "geonameId": 9257686,
    "name": "Beisse",
    "latitude": 43.74664,
    "longitude": 6.56188,
    "category": "Mountain",
    "subcategory": "Mountain",
    "featured": false,
    "priority": 50
  },
  {
    "geonameId": 3033834,
    "name": "Bel Air",
    "latitude": 48.31667,
    "longitude": -2.58333,
    "category": "Mountain",
    "subcategory": "Mountain",
    "featured": false,
    "priority": 50
  },
  {
    "geonameId": 12746640,
    "name": "Bel Vespré",
    "latitude": 43.6542,
    "longitude": 2.66762,
    "category": "Mountain",
    "subcategory": "Peak",
    "featured": false,
    "priority": 50
  },
  {
    "geonameId": 7667422,
    "name": "Belackerkopf",
    "latitude": 47.835,
    "longitude": 6.98979,
    "category": "Mountain",
    "subcategory": "Mountain",
    "featured": false,
    "priority": 50
  },
  {
    "geonameId": 3033791,
    "name": "Belfort",
    "latitude": 47.64218,
    "longitude": 6.85385,
    "category": "City",
    "subcategory": "County Seat",
    "featured": false,
    "priority": 50
  },
  {
    "geonameId": 3033766,
    "name": "Bellac",
    "latitude": 46.1221,
    "longitude": 1.04927,
    "category": "City",
    "subcategory": "District Seat",
    "featured": false,
    "priority": 50
  },
  {
    "geonameId": 3011134,
    "name": "Belle-Île",
    "latitude": 47.2606,
    "longitude": -1.87882,
    "category": "Island",
    "subcategory": "Island",
    "featured": false,
    "priority": 50
  },
  {
    "geonameId": 3033698,
    "name": "Bellegarde",
    "latitude": 43.75401,
    "longitude": 4.51372,
    "category": "City",
    "subcategory": "City",
    "featured": false,
    "priority": 50
  },
  {
    "geonameId": 3033685,
    "name": "Bellegarde-sur-Valserine",
    "latitude": 46.10787,
    "longitude": 5.82421,
    "category": "City",
    "subcategory": "City",
    "featured": false,
    "priority": 50
  },
  {
    "geonameId": 3033666,
    "name": "Bellerive-sur-Allier",
    "latitude": 46.11652,
    "longitude": 3.40406,
    "category": "City",
    "subcategory": "City",
    "featured": false,
    "priority": 50
  },
  {
    "geonameId": 3033636,
    "name": "Belleville",
    "latitude": 46.10867,
    "longitude": 4.7492,
    "category": "City",
    "subcategory": "City",
    "featured": false,
    "priority": 50
  },
  {
    "geonameId": 3033625,
    "name": "Belley",
    "latitude": 45.75917,
    "longitude": 5.68813,
    "category": "City",
    "subcategory": "District Seat",
    "featured": false,
    "priority": 50
  },
  {
    "geonameId": 6931133,
    "name": "Belvédère de L'Escalès",
    "latitude": 43.75361,
    "longitude": 6.36139,
    "category": "Mountain",
    "subcategory": "Peak",
    "featured": false,
    "priority": 50
  },
  {
    "geonameId": 3033488,
    "name": "Benfeld",
    "latitude": 48.37062,
    "longitude": 7.5937,
    "category": "City",
    "subcategory": "City",
    "featured": false,
    "priority": 50
  },
  {
    "geonameId": 3033415,
    "name": "Berck",
    "latitude": 50.4,
    "longitude": 1.6,
    "category": "City",
    "subcategory": "City",
    "featured": false,
    "priority": 50
  },
  {
    "geonameId": 3033416,
    "name": "Berck-Plage",
    "latitude": 50.40704,
    "longitude": 1.56446,
    "category": "City",
    "subcategory": "City",
    "featured": false,
    "priority": 50
  },
  {
    "geonameId": 11696421,
    "name": "Bergenbach",
    "latitude": 47.9082,
    "longitude": 6.95096,
    "category": "Mountain",
    "subcategory": "Mountain",
    "featured": false,
    "priority": 50
  },
  {
    "geonameId": 3033391,
    "name": "Bergerac",
    "latitude": 44.85157,
    "longitude": 0.48171,
    "category": "City",
    "subcategory": "District Seat",
    "featured": false,
    "priority": 50
  },
  {
    "geonameId": 3033318,
    "name": "Bernardez",
    "latitude": 44.36667,
    "longitude": 6.41667,
    "category": "Mountain",
    "subcategory": "Mountain",
    "featured": false,
    "priority": 50
  },
  {
    "geonameId": 3033308,
    "name": "Bernay",
    "latitude": 49.08888,
    "longitude": 0.59858,
    "category": "City",
    "subcategory": "District Seat",
    "featured": false,
    "priority": 50
  },
  {
    "geonameId": 3033241,
    "name": "Berre-l'Étang",
    "latitude": 43.47809,
    "longitude": 5.17044,
    "category": "City",
    "subcategory": "City",
    "featured": false,
    "priority": 50
  },
  {
    "geonameId": 12534798,
    "name": "Bersaout",
    "latitude": 43.07803,
    "longitude": -0.47271,
    "category": "Mountain",
    "subcategory": "Peak",
    "featured": false,
    "priority": 50
  },
  {
    "geonameId": 3033213,
    "name": "Bertagne",
    "latitude": 43.31194,
    "longitude": 5.68892,
    "category": "Mountain",
    "subcategory": "Peak",
    "featured": false,
    "priority": 50
  },
  {
    "geonameId": 3033202,
    "name": "Bertheauville",
    "latitude": 49.75489,
    "longitude": 0.60194,
    "category": "City",
    "subcategory": "Local Seat",
    "featured": false,
    "priority": 50
  },
  {
    "geonameId": 3033123,
    "name": "Besançon",
    "latitude": 47.24878,
    "longitude": 6.01815,
    "category": "City",
    "subcategory": "County Seat",
    "featured": false,
    "priority": 50
  },
  {
    "geonameId": 3033098,
    "name": "Bessancourt",
    "latitude": 49.03765,
    "longitude": 2.20936,
    "category": "City",
    "subcategory": "City",
    "featured": false,
    "priority": 50
  },
  {
    "geonameId": 3165058,
    "name": "Bessanèse",
    "latitude": 45.3,
    "longitude": 7.11667,
    "category": "Mountain",
    "subcategory": "Peak",
    "featured": false,
    "priority": 50
  },
  {
    "geonameId": 3033014,
    "name": "Bétheny",
    "latitude": 49.28498,
    "longitude": 4.05495,
    "category": "City",
    "subcategory": "City",
    "featured": false,
    "priority": 50
  },
  {
    "geonameId": 3033006,
    "name": "Bethoncourt",
    "latitude": 47.53512,
    "longitude": 6.80504,
    "category": "City",
    "subcategory": "City",
    "featured": false,
    "priority": 50
  },
  {
    "geonameId": 3033002,
    "name": "Béthune",
    "latitude": 50.52965,
    "longitude": 2.64003,
    "category": "City",
    "subcategory": "District Seat",
    "featured": false,
    "priority": 50
  },
  {
    "geonameId": 3032965,
    "name": "Betton",
    "latitude": 48.1827,
    "longitude": -1.6448,
    "category": "City",
    "subcategory": "City",
    "featured": false,
    "priority": 50
  },
  {
    "geonameId": 3032915,
    "name": "Beuvrages",
    "latitude": 50.38414,
    "longitude": 3.4942,
    "category": "City",
    "subcategory": "City",
    "featured": false,
    "priority": 50
  },
  {
    "geonameId": 3032903,
    "name": "Beuvry",
    "latitude": 50.51674,
    "longitude": 2.68541,
    "category": "City",
    "subcategory": "City",
    "featured": false,
    "priority": 50
  },
  {
    "geonameId": 3032872,
    "name": "Beynes",
    "latitude": 48.85626,
    "longitude": 1.87261,
    "category": "City",
    "subcategory": "City",
    "featured": false,
    "priority": 50
  },
  {
    "geonameId": 3032869,
    "name": "Beynost",
    "latitude": 45.83569,
    "longitude": 4.9991,
    "category": "City",
    "subcategory": "City",
    "featured": false,
    "priority": 50
  },
  {
    "geonameId": 3032833,
    "name": "Béziers",
    "latitude": 43.34122,
    "longitude": 3.21402,
    "category": "City",
    "subcategory": "District Seat",
    "featured": false,
    "priority": 50
  },
  {
    "geonameId": 3032824,
    "name": "Bezons",
    "latitude": 48.92426,
    "longitude": 2.2128,
    "category": "City",
    "subcategory": "City",
    "featured": false,
    "priority": 50
  },
  {
    "geonameId": 3032797,
    "name": "Biarritz",
    "latitude": 43.48055,
    "longitude": -1.55684,
    "category": "City",
    "subcategory": "City",
    "featured": false,
    "priority": 50
  },
  {
    "geonameId": 3032767,
    "name": "Bidart",
    "latitude": 43.43698,
    "longitude": -1.59294,
    "category": "City",
    "subcategory": "City",
    "featured": false,
    "priority": 50
  },
  {
    "geonameId": 3032688,
    "name": "Biganos",
    "latitude": 44.64425,
    "longitude": -0.97841,
    "category": "City",
    "subcategory": "City",
    "featured": false,
    "priority": 50
  },
  {
    "geonameId": 3032668,
    "name": "Biguglia",
    "latitude": 42.62692,
    "longitude": 9.42018,
    "category": "City",
    "subcategory": "City",
    "featured": false,
    "priority": 50
  },
  {
    "geonameId": 3032662,
    "name": "Bihorel",
    "latitude": 49.45468,
    "longitude": 1.1223,
    "category": "City",
    "subcategory": "City",
    "featured": false,
    "priority": 50
  },
  {
    "geonameId": 3032639,
    "name": "Billère",
    "latitude": 43.30264,
    "longitude": -0.39733,
    "category": "City",
    "subcategory": "City",
    "featured": false,
    "priority": 50
  },
  {
    "geonameId": 3032618,
    "name": "Billy-Montigny",
    "latitude": 50.41711,
    "longitude": 2.90286,
    "category": "City",
    "subcategory": "City",
    "featured": false,
    "priority": 50
  },
  {
    "geonameId": 3032579,
    "name": "Biot",
    "latitude": 43.62852,
    "longitude": 7.0953,
    "category": "City",
    "subcategory": "City",
    "featured": false,
    "priority": 50
  },
  {
    "geonameId": 11548646,
    "name": "Biotropica",
    "latitude": 49.30494,
    "longitude": 1.21706,
    "category": "Park",
    "subcategory": "Park",
    "featured": false,
    "priority": 50
  },
  {
    "geonameId": 7667465,
    "name": "Birkenbuckel",
    "latitude": 48.5797,
    "longitude": 7.32784,
    "category": "Mountain",
    "subcategory": "Mountain",
    "featured": false,
    "priority": 50
  },
  {
    "geonameId": 13645331,
    "name": "Biscacou",
    "latitude": 43.06647,
    "longitude": -0.64451,
    "category": "Mountain",
    "subcategory": "Peak",
    "featured": false,
    "priority": 50
  },
  {
    "geonameId": 3032557,
    "name": "Biscarre",
    "latitude": 43.16667,
    "longitude": 6.45,
    "category": "Mountain",
    "subcategory": "Mountain",
    "featured": false,
    "priority": 50
  },
  {
    "geonameId": 3032556,
    "name": "Biscarrosse",
    "latitude": 44.39454,
    "longitude": -1.16721,
    "category": "City",
    "subcategory": "City",
    "featured": false,
    "priority": 50
  },
  {
    "geonameId": 3032551,
    "name": "Bischheim",
    "latitude": 48.61612,
    "longitude": 7.75343,
    "category": "City",
    "subcategory": "City",
    "featured": false,
    "priority": 50
  },
  {
    "geonameId": 3032544,
    "name": "Bischwiller",
    "latitude": 48.76826,
    "longitude": 7.85406,
    "category": "City",
    "subcategory": "City",
    "featured": false,
    "priority": 50
  },
  {
    "geonameId": 3032518,
    "name": "Bitche",
    "latitude": 49.05232,
    "longitude": 7.42992,
    "category": "City",
    "subcategory": "City",
    "featured": false,
    "priority": 50
  },
  {
    "geonameId": 3032496,
    "name": "Bizanos",
    "latitude": 43.28753,
    "longitude": -0.35164,
    "category": "City",
    "subcategory": "City",
    "featured": false,
    "priority": 50
  },
  {
    "geonameId": 3032469,
    "name": "Blagnac",
    "latitude": 43.63675,
    "longitude": 1.38971,
    "category": "City",
    "subcategory": "City",
    "featured": false,
    "priority": 50
  },
  {
    "geonameId": 3032462,
    "name": "Blain",
    "latitude": 47.47563,
    "longitude": -1.76449,
    "category": "City",
    "subcategory": "City",
    "featured": false,
    "priority": 50
  },
  {
    "geonameId": 3032340,
    "name": "Blanquefort",
    "latitude": 44.91065,
    "longitude": -0.63758,
    "category": "City",
    "subcategory": "City",
    "featured": false,
    "priority": 50
  },
  {
    "geonameId": 3032326,
    "name": "Blanzy",
    "latitude": 46.70012,
    "longitude": 4.38833,
    "category": "City",
    "subcategory": "City",
    "featured": false,
    "priority": 50
  },
  {
    "geonameId": 3032323,
    "name": "Blaque Meyanne",
    "latitude": 43.63333,
    "longitude": 6.55,
    "category": "Mountain",
    "subcategory": "Mountain",
    "featured": false,
    "priority": 50
  },
  {
    "geonameId": 11075258,
    "name": "Blattin, Pas du",
    "latitude": 46.2171,
    "longitude": 6.81446,
    "category": "Mountain",
    "subcategory": "Mountain Pass",
    "featured": false,
    "priority": 50
  },
  {
    "geonameId": 2967108,
    "name": "Blaye",
    "latitude": 45.12764,
    "longitude": -0.66225,
    "category": "City",
    "subcategory": "District Seat",
    "featured": false,
    "priority": 50
  },
  {
    "geonameId": 3032279,
    "name": "Blendecques",
    "latitude": 50.71843,
    "longitude": 2.28601,
    "category": "City",
    "subcategory": "City",
    "featured": false,
    "priority": 50
  },
  {
    "geonameId": 3032275,
    "name": "Blénod-lès-Pont-à-Mousson",
    "latitude": 48.88487,
    "longitude": 6.04844,
    "category": "City",
    "subcategory": "City",
    "featured": false,
    "priority": 50
  },
  {
    "geonameId": 6931611,
    "name": "Bloc de Charmieux",
    "latitude": 45.96472,
    "longitude": 6.415,
    "category": "Mountain",
    "subcategory": "Peak",
    "featured": false,
    "priority": 50
  },
  {
    "geonameId": 3032213,
    "name": "Blois",
    "latitude": 47.59432,
    "longitude": 1.32912,
    "category": "City",
    "subcategory": "County Seat",
    "featured": false,
    "priority": 50
  },
  {
    "geonameId": 3032179,
    "name": "Bobigny",
    "latitude": 48.90982,
    "longitude": 2.45012,
    "category": "City",
    "subcategory": "County Seat",
    "featured": false,
    "priority": 50
  },
  {
    "geonameId": 8379283,
    "name": "Boca di Conia",
    "latitude": 42.32365,
    "longitude": 9.07454,
    "category": "Mountain",
    "subcategory": "Mountain Pass",
    "featured": false,
    "priority": 50
  },
  {
    "geonameId": 12025862,
    "name": "Bocca a Croce",
    "latitude": 42.32683,
    "longitude": 8.6324,
    "category": "Mountain",
    "subcategory": "Mountain Pass",
    "featured": false,
    "priority": 50
  },
  {
    "geonameId": 2983504,
    "name": "Bocca a l'Arinella",
    "latitude": 42.30527,
    "longitude": 9.03807,
    "category": "Mountain",
    "subcategory": "Mountain Pass",
    "featured": false,
    "priority": 50
  },
  {
    "geonameId": 2986000,
    "name": "Bocca a u Purtellu",
    "latitude": 42.30166,
    "longitude": 9.428,
    "category": "Mountain",
    "subcategory": "Mountain Pass",
    "featured": false,
    "priority": 50
  },
  {
    "geonameId": 3038243,
    "name": "Bocca Albitrina",
    "latitude": 41.61534,
    "longitude": 8.94975,
    "category": "Mountain",
    "subcategory": "Mountain Pass",
    "featured": false,
    "priority": 50
  },
  {
    "geonameId": 12025866,
    "name": "Bocca Bassa",
    "latitude": 42.4424,
    "longitude": 8.66186,
    "category": "Mountain",
    "subcategory": "Mountain Pass",
    "featured": false,
    "priority": 50
  },
  {
    "geonameId": 3038692,
    "name": "Bocca d'Acqua Ciarnente",
    "latitude": 42.22651,
    "longitude": 8.97826,
    "category": "Mountain",
    "subcategory": "Mountain Pass",
    "featured": false,
    "priority": 50
  },
  {
    "geonameId": 3037990,
    "name": "Bocca d'Alzia",
    "latitude": 42.63432,
    "longitude": 9.11491,
    "category": "Mountain",
    "subcategory": "Mountain Pass",
    "featured": false,
    "priority": 50
  },
  {
    "geonameId": 3037093,
    "name": "Bocca d'Aresia",
    "latitude": 41.49332,
    "longitude": 9.24612,
    "category": "Mountain",
    "subcategory": "Mountain Pass",
    "featured": false,
    "priority": 50
  },
  {
    "geonameId": 3036581,
    "name": "Bocca d'Asinau",
    "latitude": 41.84969,
    "longitude": 9.23262,
    "category": "Mountain",
    "subcategory": "Mountain Pass",
    "featured": false,
    "priority": 50
  },
  {
    "geonameId": 3012881,
    "name": "Bocca d'Illarata",
    "latitude": 41.70495,
    "longitude": 9.21128,
    "category": "Mountain",
    "subcategory": "Mountain Pass",
    "featured": false,
    "priority": 50
  },
  {
    "geonameId": 2989546,
    "name": "Bocca d'Ominanda",
    "latitude": 42.34315,
    "longitude": 9.14413,
    "category": "Mountain",
    "subcategory": "Mountain Pass",
    "featured": false,
    "priority": 50
  },
  {
    "geonameId": 2989402,
    "name": "Bocca d'Oreccia",
    "latitude": 42.1557,
    "longitude": 9.07,
    "category": "Mountain",
    "subcategory": "Mountain Pass",
    "featured": false,
    "priority": 50
  },
  {
    "geonameId": 2989143,
    "name": "Bocca d'Osini",
    "latitude": 42.24016,
    "longitude": 8.60643,
    "category": "Mountain",
    "subcategory": "Mountain Pass",
    "featured": false,
    "priority": 50
  },
  {
    "geonameId": 3034597,
    "name": "Bocca di a Battaglia",
    "latitude": 42.54975,
    "longitude": 9.00542,
    "category": "Mountain",
    "subcategory": "Mountain Pass",
    "featured": false,
    "priority": 50
  },
  {
    "geonameId": 2988599,
    "name": "Bocca di a Parata",
    "latitude": 41.71289,
    "longitude": 9.4013,
    "category": "Mountain",
    "subcategory": "Mountain Pass",
    "featured": false,
    "priority": 50
  },
  {
    "geonameId": 3033753,
    "name": "Bocca di Belle Valle",
    "latitude": 41.85424,
    "longitude": 8.85478,
    "category": "Mountain",
    "subcategory": "Mountain Pass",
    "featured": false,
    "priority": 50
  },
  {
    "geonameId": 3032812,
    "name": "Bocca di Bianca",
    "latitude": 41.9325,
    "longitude": 9.22951,
    "category": "Mountain",
    "subcategory": "Mountain Pass",
    "featured": false,
    "priority": 50
  },
  {
    "geonameId": 3031839,
    "name": "Bocca di Bonassa",
    "latitude": 42.42852,
    "longitude": 8.81475,
    "category": "Mountain",
    "subcategory": "Mountain Pass",
    "featured": false,
    "priority": 50
  },
  {
    "geonameId": 3028919,
    "name": "Bocca di Campu Orbu",
    "latitude": 42.44522,
    "longitude": 8.69231,
    "category": "Mountain",
    "subcategory": "Mountain Pass",
    "featured": false,
    "priority": 50
  },
  {
    "geonameId": 3028708,
    "name": "Bocca di Caporossu",
    "latitude": 41.54829,
    "longitude": 8.88771,
    "category": "Mountain",
    "subcategory": "Mountain Pass",
    "featured": false,
    "priority": 50
  },
  {
    "geonameId": 3028687,
    "name": "Bocca di Capronale",
    "latitude": 42.32001,
    "longitude": 8.83138,
    "category": "Mountain",
    "subcategory": "Mountain Pass",
    "featured": false,
    "priority": 50
  },
  {
    "geonameId": 3028655,
    "name": "Bocca di Carbinica",
    "latitude": 41.99331,
    "longitude": 8.72689,
    "category": "Mountain",
    "subcategory": "Mountain Pass",
    "featured": false,
    "priority": 50
  },
  {
    "geonameId": 3028235,
    "name": "Bocca di Cateri",
    "latitude": 41.89365,
    "longitude": 9.2702,
    "category": "Mountain",
    "subcategory": "Mountain Pass",
    "featured": false,
    "priority": 50
  },
  {
    "geonameId": 3025116,
    "name": "Bocca di Chiralba",
    "latitude": 41.83987,
    "longitude": 9.18387,
    "category": "Mountain",
    "subcategory": "Mountain Pass",
    "featured": false,
    "priority": 50
  },
  {
    "geonameId": 3023780,
    "name": "Bocca di Curali",
    "latitude": 41.51465,
    "longitude": 8.9503,
    "category": "Mountain",
    "subcategory": "Mountain Pass",
    "featured": false,
    "priority": 50
  },
  {
    "geonameId": 7303035,
    "name": "Bocca di Foggiale",
    "latitude": 42.33247,
    "longitude": 8.8767,
    "category": "Mountain",
    "subcategory": "Mountain Pass",
    "featured": false,
    "priority": 50
  },
  {
    "geonameId": 3012012,
    "name": "Bocca di Ghjuva",
    "latitude": 41.94793,
    "longitude": 9.27721,
    "category": "Mountain",
    "subcategory": "Mountain Pass",
    "featured": false,
    "priority": 50
  },
  {
    "geonameId": 3024918,
    "name": "Bocca di Gradello",
    "latitude": 41.79263,
    "longitude": 8.82323,
    "category": "Mountain",
    "subcategory": "Mountain Pass",
    "featured": false,
    "priority": 50
  },
  {
    "geonameId": 3015372,
    "name": "Bocca di Granaccia",
    "latitude": 41.88606,
    "longitude": 9.0335,
    "category": "Mountain",
    "subcategory": "Mountain Pass",
    "featured": false,
    "priority": 50
  },
  {
    "geonameId": 3038595,
    "name": "Bocca di l'Agnone",
    "latitude": 41.90616,
    "longitude": 9.17899,
    "category": "Mountain",
    "subcategory": "Mountain Pass",
    "featured": false,
    "priority": 50
  },
  {
    "geonameId": 2971312,
    "name": "Bocca di l'Usciolu",
    "latitude": 41.92827,
    "longitude": 9.02261,
    "category": "Mountain",
    "subcategory": "Mountain Pass",
    "featured": false,
    "priority": 50
  },
  {
    "geonameId": 3006719,
    "name": "Bocca di Larone",
    "latitude": 41.83185,
    "longitude": 9.27536,
    "category": "Mountain",
    "subcategory": "Mountain Pass",
    "featured": false,
    "priority": 50
  },
  {
    "geonameId": 2997249,
    "name": "Bocca di Lucca",
    "latitude": 42.4076,
    "longitude": 8.77715,
    "category": "Mountain",
    "subcategory": "Mountain Pass",
    "featured": false,
    "priority": 50
  },
  {
    "geonameId": 3016901,
    "name": "Bocca di Luminataia",
    "latitude": 41.85481,
    "longitude": 8.92061,
    "category": "Mountain",
    "subcategory": "Mountain Pass",
    "featured": false,
    "priority": 50
  },
  {
    "geonameId": 2994644,
    "name": "Bocca di Melza",
    "latitude": 42.3424,
    "longitude": 8.72507,
    "category": "Mountain",
    "subcategory": "Mountain Pass",
    "featured": false,
    "priority": 50
  },
  {
    "geonameId": 2994452,
    "name": "Bocca di Mercuju",
    "latitude": 41.96709,
    "longitude": 8.96114,
    "category": "Mountain",
    "subcategory": "Mountain Pass",
    "featured": false,
    "priority": 50
  },
  {
    "geonameId": 2992743,
    "name": "Bocca di Monte Bracciutu",
    "latitude": 41.78631,
    "longitude": 9.27597,
    "category": "Mountain",
    "subcategory": "Mountain Pass",
    "featured": false,
    "priority": 50
  },
  {
    "geonameId": 2988695,
    "name": "Bocca di Palmarella",
    "latitude": 42.3639,
    "longitude": 8.6483,
    "category": "Mountain",
    "subcategory": "Mountain Pass",
    "featured": false,
    "priority": 50
  },
  {
    "geonameId": 2987181,
    "name": "Bocca di Pigna",
    "latitude": 41.57724,
    "longitude": 9.04892,
    "category": "Mountain",
    "subcategory": "Mountain Pass",
    "featured": false,
    "priority": 50
  },
  {
    "geonameId": 2985198,
    "name": "Bocca di Prunettu",
    "latitude": 41.64511,
    "longitude": 9.07202,
    "category": "Mountain",
    "subcategory": "Mountain Pass",
    "featured": false,
    "priority": 50
  },
  {
    "geonameId": 2984406,
    "name": "Bocca di Rapari",
    "latitude": 41.97795,
    "longitude": 9.22086,
    "category": "Mountain",
    "subcategory": "Mountain Pass",
    "featured": false,
    "priority": 50
  },
  {
    "geonameId": 12025771,
    "name": "Bocca di Salvi",
    "latitude": 42.56502,
    "longitude": 8.87469,
    "category": "Mountain",
    "subcategory": "Mountain Pass",
    "featured": false,
    "priority": 50
  },
  {
    "geonameId": 2976187,
    "name": "Bocca di San Martino",
    "latitude": 42.21793,
    "longitude": 8.64274,
    "category": "Mountain",
    "subcategory": "Mountain Pass",
    "featured": false,
    "priority": 50
  },
  {
    "geonameId": 2976175,
    "name": "Bocca di San Pancrazio",
    "latitude": 42.61312,
    "longitude": 9.18605,
    "category": "Mountain",
    "subcategory": "Mountain Pass",
    "featured": false,
    "priority": 50
  },
  {
    "geonameId": 2976170,
    "name": "Bocca di San Pietro",
    "latitude": 42.38414,
    "longitude": 9.32093,
    "category": "Mountain",
    "subcategory": "Mountain Pass",
    "featured": false,
    "priority": 50
  },
  {
    "geonameId": 3226718,
    "name": "Bocca di Sant'Alparte",
    "latitude": 42.12575,
    "longitude": 8.73521,
    "category": "Mountain",
    "subcategory": "Mountain Pass",
    "featured": false,
    "priority": 50
  },
  {
    "geonameId": 2976123,
    "name": "Bocca di Sant'Antonio",
    "latitude": 42.07929,
    "longitude": 8.79153,
    "category": "Mountain",
    "subcategory": "Mountain Pass",
    "featured": false,
    "priority": 50
  },
  {
    "geonameId": 2973336,
    "name": "Bocca di Tartavellu",
    "latitude": 42.07422,
    "longitude": 8.90982,
    "category": "Mountain",
    "subcategory": "Mountain Pass",
    "featured": false,
    "priority": 50
  },
  {
    "geonameId": 12024778,
    "name": "Bocca di Tenda",
    "latitude": 42.5604,
    "longitude": 9.21911,
    "category": "Mountain",
    "subcategory": "Peak",
    "featured": false,
    "priority": 50
  },
  {
    "geonameId": 2973796,
    "name": "Bocca di u Listinconu",
    "latitude": 41.45668,
    "longitude": 9.14006,
    "category": "Mountain",
    "subcategory": "Mountain Pass",
    "featured": false,
    "priority": 50
  },
  {
    "geonameId": 2991244,
    "name": "Bocca di u Mucchiu",
    "latitude": 41.47074,
    "longitude": 9.16804,
    "category": "Mountain",
    "subcategory": "Mountain Pass",
    "featured": false,
    "priority": 50
  },
  {
    "geonameId": 2985172,
    "name": "Bocca di u Pruno",
    "latitude": 42.57527,
    "longitude": 9.04636,
    "category": "Mountain",
    "subcategory": "Mountain Pass",
    "featured": false,
    "priority": 50
  },
  {
    "geonameId": 2976326,
    "name": "Bocca di u Saltu",
    "latitude": 41.87089,
    "longitude": 9.29486,
    "category": "Mountain",
    "subcategory": "Mountain Pass",
    "featured": false,
    "priority": 50
  },
  {
    "geonameId": 3005612,
    "name": "Bocca di Vezzu",
    "latitude": 42.66626,
    "longitude": 9.14189,
    "category": "Mountain",
    "subcategory": "Mountain Pass",
    "featured": false,
    "priority": 50
  },
  {
    "geonameId": 2988277,
    "name": "Bocca Pazzara",
    "latitude": 42.03438,
    "longitude": 9.00909,
    "category": "Mountain",
    "subcategory": "Mountain Pass",
    "featured": false,
    "priority": 50
  },
  {
    "geonameId": 2976257,
    "name": "Bocca San Bastiano",
    "latitude": 42.02203,
    "longitude": 8.73444,
    "category": "Mountain",
    "subcategory": "Mountain Pass",
    "featured": false,
    "priority": 50
  },
  {
    "geonameId": 2976176,
    "name": "Bocca Tiagna",
    "latitude": 42.44497,
    "longitude": 9.13395,
    "category": "Mountain",
    "subcategory": "Mountain Pass",
    "featured": false,
    "priority": 50
  },
  {
    "geonameId": 2971656,
    "name": "Bocca Tribali",
    "latitude": 42.19114,
    "longitude": 9.08357,
    "category": "Mountain",
    "subcategory": "Mountain Pass",
    "featured": false,
    "priority": 50
  },
  {
    "geonameId": 2971442,
    "name": "Bocca Tuschini",
    "latitude": 42.06374,
    "longitude": 9.00583,
    "category": "Mountain",
    "subcategory": "Mountain Pass",
    "featured": false,
    "priority": 50
  },
  {
    "geonameId": 3032127,
    "name": "Bohain-en-Vermandois",
    "latitude": 49.9873,
    "longitude": 3.453,
    "category": "City",
    "subcategory": "City",
    "featured": false,
    "priority": 50
  },
  {
    "geonameId": 13665115,
    "name": "Bohorkortea",
    "latitude": 43.09885,
    "longitude": -1.02159,
    "category": "Mountain",
    "subcategory": "Peak",
    "featured": false,
    "priority": 50
  },
  {
    "geonameId": 8533794,
    "name": "Bois Ballichard",
    "latitude": 45.9782,
    "longitude": 3.84714,
    "category": "Mountain",
    "subcategory": "Mountain",
    "featured": false,
    "priority": 50
  },
  {
    "geonameId": 3032063,
    "name": "Bois de Boulogne",
    "latitude": 48.86267,
    "longitude": 2.24882,
    "category": "Park",
    "subcategory": "Park",
    "featured": false,
    "priority": 50
  },
  {
    "geonameId": 11591981,
    "name": "Bois de Charlannes",
    "latitude": 45.56749,
    "longitude": 2.73805,
    "category": "Mountain",
    "subcategory": "Mountain",
    "featured": false,
    "priority": 50
  },