[
  {
    "geonameId": 3382642,
    "name": "Abagon Tabiki",
    "latitude": 4.1,
    "longitude": -54.45,
    "category": "Island",
    "subcategory": "Island",
    "featured": false,
    "priority": 50
  },
  {
    "geonameId": 3382274,
    "name": "Abigin Tabbetje",
    "latitude": 4.72892,
    "longitude": -54.44868,
    "category": "Island",
    "subcategory": "Island",
    "featured": false,
    "priority": 50
  },
  {
    "geonameId": 3382620,
    "name": "Agoussou Tabiki",
    "latitude": 3.61178,
    "longitude": -53.98354,
    "category": "Island",
    "subcategory": "Island",
    "featured": false,
    "priority": 50
  },
  {
    "geonameId": 3382603,
    "name": "Akala Soula",
    "latitude": 3.04679,
    "longitude": -54.18271,
    "category": "Waterfall",
    "subcategory": "Waterfall",
    "featured": false,
    "priority": 50
  },
  {
    "geonameId": 3382594,
    "name": "Alamanyapa Itou",
    "latitude": 2.91667,
    "longitude": -52.4,
    "category": "Waterfall",
    "subcategory": "Waterfall",
    "featured": false,
    "priority": 50
  },
  {
    "geonameId": 3382527,
    "name": "Apatou",
    "latitude": 5.15526,
    "longitude": -54.34311,
    "category": "City",
    "subcategory": "City",
    "featured": false,
    "priority": 50
  },
  {
    "geonameId": 7839308,
    "name": "Barrage de Petit Saut",
    "latitude": 5.062,
    "longitude": -53.05,
    "category": "Lake",
    "subcategory": "Reservoir",
    "featured": false,
    "priority": 50
  },
  {
    "geonameId": 13100301,
    "name": "Bellevue de l’Inini",
    "latitude": 3.54,
    "longitude": -53.57,
    "category": "Mountain",
    "subcategory": "Mountain",
    "featured": false,
    "priority": 50
  },
  {
    "geonameId": 3382002,
    "name": "Bonidoro Tabbetje",
    "latitude": 4.90055,
    "longitude": -54.47765,
    "category": "Island",
    "subcategory": "Island",
    "featured": false,
    "priority": 50
  },
  {
    "geonameId": 3380864,
    "name": "Cachoeira Camoura",
    "latitude": 3.16667,
    "longitude": -52.33333,
    "category": "Waterfall",
    "subcategory": "Waterfall",
    "featured": false,
    "priority": 50
  },
  {
    "geonameId": 3381290,
    "name": "Cachoeira Justin",
    "latitude": 3.25073,
    "longitude": -52.26255,
    "category": "Waterfall",
    "subcategory": "Waterfall",
    "featured": false,
    "priority": 50
  },
  {
    "geonameId": 3382214,
    "name": "Canabouli Tabiki",
    "latitude": 4.9202,
    "longitude": -54.45531,
    "category": "Island",
    "subcategory": "Island",
    "featured": false,
    "priority": 50
  },
  {
    "geonameId": 10372232,
    "name": "Cascades Voltaire",
    "latitude": 5.02928,
    "longitude": -54.08957,
    "category": "Waterfall",
    "subcategory": "Waterfall",
    "featured": false,
    "priority": 50
  },
  {
    "geonameId": 3382160,
    "name": "Cayenne",
    "latitude": 4.9381,
    "longitude": -52.33455,
    "category": "City",
    "subcategory": "Capital",
    "featured": false,
    "priority": 50
  },
  {
    "geonameId": 3381836,
    "name": "Devils Island",
    "latitude": 5.2932,
    "longitude": -52.58317,
    "category": "Island",
    "subcategory": "Island",
    "featured": false,
    "priority": 50
  },
  {
    "geonameId": 3381653,
    "name": "Gaan Tabiki",
    "latitude": 3.86316,
    "longitude": -54.23386,
    "category": "Island",
    "subcategory": "Island",
    "featured": false,
    "priority": 50
  },
  {
    "geonameId": 3384192,
    "name": "Godolo Tabiki",
    "latitude": 3.35355,
    "longitude": -54.0598,
    "category": "Island",
    "subcategory": "Island",
    "featured": false,
    "priority": 50
  },
  {
    "geonameId": 3381582,
    "name": "Grand Croissant",
    "latitude": 3.5104,
    "longitude": -52.35548,
    "category": "Mountain",
    "subcategory": "Mountain",
    "featured": false,
    "priority": 50
  },
  {
    "geonameId": 3381538,
    "name": "Grand-Santi",
    "latitude": 4.27295,
    "longitude": -54.38146,
    "category": "City",
    "subcategory": "City",
    "featured": false,
    "priority": 50
  },
  {
    "geonameId": 3381520,
    "name": "Gros Montagne",
    "latitude": 3.36136,
    "longitude": -53.05911,
    "category": "Mountain",
    "subcategory": "Mountain",
    "featured": false,
    "priority": 50
  },
  {
    "geonameId": 3381230,
    "name": "Gros Saut Latidine",
    "latitude": 4.87882,
    "longitude": -53.31483,
    "category": "Waterfall",
    "subcategory": "Waterfall",
    "featured": false,
    "priority": 50
  },
  {
    "geonameId": 10372201,
    "name": "Île Agalébao",
    "latitude": 5.12978,
    "longitude": -54.36838,
    "category": "Island",
    "subcategory": "Island",
    "featured": false,
    "priority": 50
  },
  {
    "geonameId": 3382604,
    "name": "Île Aïpoto",
    "latitude": 4.46192,
    "longitude": -51.93884,
    "category": "Island",
    "subcategory": "Island",
    "featured": false,
    "priority": 50
  },
  {
    "geonameId": 3381184,
    "name": "Île aux Lépreux",
    "latitude": 5.47901,
    "longitude": -54.0484,
    "category": "Island",
    "subcategory": "Island",
    "featured": false,
    "priority": 50
  },
  {
    "geonameId": 3380314,
    "name": "Île aux Sept Chapelets",
    "latitude": 4.35884,
    "longitude": -51.99345,
    "category": "Island",
    "subcategory": "Island",
    "featured": false,
    "priority": 50
  },
  {
    "geonameId": 3382476,
    "name": "Île Bagatelle",
    "latitude": 5.02217,
    "longitude": -53.04011,
    "category": "Island",
    "subcategory": "Island",
    "featured": false,
    "priority": 50
  },
  {
    "geonameId": 3382426,
    "name": "Île Bastien",
    "latitude": 5.29188,
    "longitude": -54.22398,
    "category": "Island",
    "subcategory": "Island",
    "featured": false,
    "priority": 50
  },
  {
    "geonameId": 10317050,
    "name": "Île Caïmans",
    "latitude": 4.35951,
    "longitude": -51.98505,
    "category": "Island",
    "subcategory": "Island",
    "featured": false,
    "priority": 50
  },
  {
    "geonameId": 3382164,
    "name": "Île Catalin",
    "latitude": 4.32799,
    "longitude": -52.08564,
    "category": "Island",
    "subcategory": "Island",
    "featured": false,
    "priority": 50
  },
  {
    "geonameId": 3382016,
    "name": "Île Corossony",
    "latitude": 4.27864,
    "longitude": -52.17429,
    "category": "Island",
    "subcategory": "Island",
    "featured": false,
    "priority": 50
  },
  {
    "geonameId": 3382157,
    "name": "Île de Cayenne",
    "latitude": 4.85086,
    "longitude": -52.34429,
    "category": "Island",
    "subcategory": "Island",
    "featured": false,
    "priority": 50
  },
  {
    "geonameId": 3380533,
    "name": "Île de la Quarantaine",
    "latitude": 5.47584,
    "longitude": -54.05872,
    "category": "Island",
    "subcategory": "Island",
    "featured": false,
    "priority": 50
  },
  {
    "geonameId": 3380675,
    "name": "Île Jamaïque",
    "latitude": 4.3719,
    "longitude": -51.96571,
    "category": "Island",
    "subcategory": "Island",
    "featured": false,
    "priority": 50
  },
  {
    "geonameId": 3381359,
    "name": "Île Kassiaba",
    "latitude": 5.14048,
    "longitude": -54.35074,
    "category": "Island",
    "subcategory": "Island",
    "featured": false,
    "priority": 50
  },
  {
    "geonameId": 3380917,
    "name": "Île la Moitié",
    "latitude": 5.07846,
    "longitude": -54.41242,
    "category": "Island",
    "subcategory": "Island",
    "featured": false,
    "priority": 50
  },
  {
    "geonameId": 3381025,
    "name": "Île Mantouni",
    "latitude": 4.49476,
    "longitude": -51.94645,
    "category": "Island",
    "subcategory": "Island",
    "featured": false,
    "priority": 50
  },
  {
    "geonameId": 3384595,
    "name": "Île Pimpin",
    "latitude": 5.31458,
    "longitude": -54.19276,
    "category": "Island",
    "subcategory": "Island",
    "featured": false,
    "priority": 50
  },
  {
    "geonameId": 3380545,
    "name": "Île Portal",
    "latitude": 5.43062,
    "longitude": -54.07635,
    "category": "Island",
    "subcategory": "Island",
    "featured": false,
    "priority": 50
  },
  {
    "geonameId": 3380448,
    "name": "Île Royale",
    "latitude": 5.28715,
    "longitude": -52.58864,
    "category": "Island",
    "subcategory": "Island",
    "featured": false,
    "priority": 50
  },
  {
    "geonameId": 3380391,
    "name": "Île Saint-Joseph",
    "latitude": 5.28132,
    "longitude": -52.58231,
    "category": "Island",
    "subcategory": "Island",
    "featured": false,
    "priority": 50
  },
  {
    "geonameId": 3380360,
    "name": "Île Sakoura",
    "latitude": 5.16212,
    "longitude": -54.34109,
    "category": "Island",
    "subcategory": "Island",
    "featured": false,
    "priority": 50
  },
  {
    "geonameId": 3380083,
    "name": "Île Verte",
    "latitude": 5.37978,
    "longitude": -52.87221,
    "category": "Island",
    "subcategory": "Island",
    "featured": false,
    "priority": 50
  },
  {
    "geonameId": 3380359,
    "name": "Îles du Salut",
    "latitude": 5.28752,
    "longitude": -52.58348,
    "category": "Island",
    "subcategory": "Island Group",
    "featured": false,
    "priority": 50
  },
  {
    "geonameId": 3381226,
    "name": "Îles Laussat",
    "latitude": 5.63333,
    "longitude": -53.98333,
    "category": "Island",
    "subcategory": "Island Group",
    "featured": false,
    "priority": 50
  },
  {
    "geonameId": 3380518,
    "name": "Îles Rémire",
    "latitude": 4.92594,
    "longitude": -52.20158,
    "category": "Island",
    "subcategory": "Island Group",
    "featured": false,
    "priority": 50
  },
  {
    "geonameId": 3382639,
    "name": "Îlet Abodo Boto",
    "latitude": 4.10249,
    "longitude": -52.42461,
    "category": "Island",
    "subcategory": "Island",
    "featured": false,
    "priority": 50
  },
  {
    "geonameId": 3382585,
    "name": "Îlet Alice",
    "latitude": 3.66667,
    "longitude": -51.98333,
    "category": "Island",
    "subcategory": "Island",
    "featured": false,
    "priority": 50
  },
  {
    "geonameId": 3382439,
    "name": "Îlet Barbade",
    "latitude": 3.83374,
    "longitude": -51.85845,
    "category": "Island",
    "subcategory": "Island",
    "featured": false,
    "priority": 50
  },
  {
    "geonameId": 3382407,
    "name": "Îlet Beïman",
    "latitude": 4.61008,
    "longitude": -54.41198,
    "category": "Island",
    "subcategory": "Island",
    "featured": false,
    "priority": 50
  },
  {
    "geonameId": 3382368,
    "name": "Îlet Biche",
    "latitude": 4.12799,
    "longitude": -51.64713,
    "category": "Island",
    "subcategory": "Island",
    "featured": false,
    "priority": 50
  },
  {
    "geonameId": 3382223,
    "name": "Îlet Camopi",
    "latitude": 3.1845,
    "longitude": -52.46699,
    "category": "Island",
    "subcategory": "Island",
    "featured": false,
    "priority": 50
  },
  {
    "geonameId": 3381977,
    "name": "Îlet Couy",
    "latitude": 4.40158,
    "longitude": -51.94377,
    "category": "Island",
    "subcategory": "Island",
    "featured": false,
    "priority": 50
  },
  {
    "geonameId": 3381966,
    "name": "Îlet Cupidon",
    "latitude": 4.89455,
    "longitude": -52.47318,
    "category": "Island",
    "subcategory": "Island",
    "featured": false,
    "priority": 50
  },
  {
    "geonameId": 10317502,
    "name": "Îlet Flèche",
    "latitude": 4.1818,
    "longitude": -52.35261,
    "category": "Island",
    "subcategory": "Island",
    "featured": false,
    "priority": 50
  },
  {
    "geonameId": 10317164,
    "name": "Îlet Gros Philippe",
    "latitude": 4.19102,
    "longitude": -52.06701,
    "category": "Island",
    "subcategory": "Island",
    "featured": false,
    "priority": 50
  },
  {
    "geonameId": 3381483,
    "name": "Îlet Guinguincoin",
    "latitude": 3.84623,
    "longitude": -51.84634,
    "category": "Island",
    "subcategory": "Island",
    "featured": false,
    "priority": 50
  },
  {
    "geonameId": 3381393,
    "name": "Îlet Jean-Pierre",
    "latitude": 3.29359,
    "longitude": -52.20108,
    "category": "Island",
    "subcategory": "Island",
    "featured": false,
    "priority": 50
  },
  {
    "geonameId": 10317694,
    "name": "Îlet Kapiri",
    "latitude": 4.14893,
    "longitude": -52.07547,
    "category": "Island",
    "subcategory": "Island",
    "featured": false,
    "priority": 50
  },
  {
    "geonameId": 3381307,
    "name": "Îlet Koumouri",
    "latitude": 3.80219,
    "longitude": -51.89993,
    "category": "Island",
    "subcategory": "Island",
    "featured": false,
    "priority": 50
  },
  {
    "geonameId": 3381273,
    "name": "Îlet Lacour",
    "latitude": 5.33034,
    "longitude": -52.96112,
    "category": "Island",
    "subcategory": "Island",
    "featured": false,
    "priority": 50
  },
  {
    "geonameId": 3381161,
    "name": "Îlet Lézard",
    "latitude": 5.0508,
    "longitude": -53.79836,
    "category": "Island",
    "subcategory": "Island",
    "featured": false,
    "priority": 50
  },
  {
    "geonameId": 3380783,
    "name": "Ilet Marécage",
    "latitude": 3.05,
    "longitude": -52.35,
    "category": "Island",
    "subcategory": "Island",
    "featured": false,
    "priority": 50
  },
  {
    "geonameId": 3381014,
    "name": "Îlet Marécage",
    "latitude": 3.82914,
    "longitude": -51.85974,
    "category": "Island",
    "subcategory": "Island",
    "featured": false,
    "priority": 50
  },
  {
    "geonameId": 3380978,
    "name": "Îlet Massiriki",
    "latitude": 2.99833,
    "longitude": -52.36428,
    "category": "Island",
    "subcategory": "Island",
    "featured": false,
    "priority": 50
  },
  {
    "geonameId": 3380977,
    "name": "Îlet Matamata",
    "latitude": 3.18333,
    "longitude": -52.21667,
    "category": "Island",
    "subcategory": "Island",
    "featured": false,
    "priority": 50
  },
  {
    "geonameId": 3380973,
    "name": "Îlet Mathieu",
    "latitude": 4.0016,
    "longitude": -51.75082,
    "category": "Island",
    "subcategory": "Island",
    "featured": false,
    "priority": 50
  },
  {
    "geonameId": 10317163,
    "name": "Îlet Mosko",
    "latitude": 4.1289,
    "longitude": -52.2289,
    "category": "Island",
    "subcategory": "Island",
    "featured": false,
    "priority": 50
  },
  {
    "geonameId": 3380875,
    "name": "Îlet Motoura",
    "latitude": 2.59518,
    "longitude": -52.55037,
    "category": "Island",
    "subcategory": "Island",
    "featured": false,
    "priority": 50
  },
  {
    "geonameId": 3380821,
    "name": "Îlet Noussiri",
    "latitude": 3.58956,
    "longitude": -52.02294,
    "category": "Island",
    "subcategory": "Island",
    "featured": false,
    "priority": 50
  },
  {
    "geonameId": 3380674,
    "name": "Îlet Perroquet",
    "latitude": 4.15727,
    "longitude": -51.64409,
    "category": "Island",
    "subcategory": "Island",
    "featured": false,
    "priority": 50
  },
  {
    "geonameId": 12626291,
    "name": "Îlet Petit Crécou",
    "latitude": 3.73445,
    "longitude": -51.92094,
    "category": "Island",
    "subcategory": "Island",
    "featured": false,
    "priority": 50
  },
  {
    "geonameId": 10317045,
    "name": "Îlet Pinot",
    "latitude": 4.36882,
    "longitude": -51.91453,
    "category": "Island",
    "subcategory": "Island",
    "featured": false,
    "priority": 50
  },
  {
    "geonameId": 10418470,
    "name": "Îlet Quarantaine",
    "latitude": 3.57092,
    "longitude": -53.82374,
    "category": "Island",
    "subcategory": "Island",
    "featured": false,
    "priority": 50
  },
  {
    "geonameId": 3380489,
    "name": "Îlet Roche Ananas",
    "latitude": 3.28164,
    "longitude": -52.20721,
    "category": "Island",
    "subcategory": "Island",
    "featured": false,
    "priority": 50
  },
  {
    "geonameId": 12626292,
    "name": "Îlet Sawawé",
    "latitude": 3.78009,
    "longitude": -51.92349,
    "category": "Island",
    "subcategory": "Island",
    "featured": false,
    "priority": 50
  },
  {
    "geonameId": 12626294,
    "name": "Îlet Sophia",
    "latitude": 3.80874,
    "longitude": -51.8718,
    "category": "Island",
    "subcategory": "Island",
    "featured": false,
    "priority": 50
  },
  {
    "geonameId": 3380092,
    "name": "Îlet Vendôme",
    "latitude": 4.33175,
    "longitude": -52.05809,
    "category": "Island",
    "subcategory": "Island",
    "featured": false,
    "priority": 50
  },
  {
    "geonameId": 10317505,
    "name": "Îlet Victor",
    "latitude": 4.18348,
    "longitude": -52.37924,
    "category": "Island",
    "subcategory": "Island",
    "featured": false,
    "priority": 50
  },
  {
    "geonameId": 3380052,
    "name": "Îlet Vovony",
    "latitude": 4.2076,
    "longitude": -52.28981,
    "category": "Island",
    "subcategory": "Island",
    "featured": false,
    "priority": 50
  },
  {
    "geonameId": 3380049,
    "name": "Îlet Waïwarou",
    "latitude": 3.3294,
    "longitude": -52.17672,
    "category": "Island",
    "subcategory": "Island",
    "featured": false,
    "priority": 50
  },
  {
    "geonameId": 12626293,
    "name": "Îlet Waniaou",
    "latitude": 3.78649,
    "longitude": -51.89825,
    "category": "Island",
    "subcategory": "Island",
    "featured": false,
    "priority": 50
  },
  {
    "geonameId": 3382220,
    "name": "Ilets Camopi Ata",
    "latitude": 3.2,
    "longitude": -52.3,
    "category": "Island",
    "subcategory": "Island Group",
    "featured": false,
    "priority": 50
  },
  {
    "geonameId": 3382145,
    "name": "Îlets Cerisier",
    "latitude": 3.7145,
    "longitude": -51.97031,
    "category": "Island",
    "subcategory": "Island Group",
    "featured": false,
    "priority": 50
  },
  {
    "geonameId": 3381865,
    "name": "Îlets Dent Grage",
    "latitude": 3.18333,
    "longitude": -52.3,
    "category": "Island",
    "subcategory": "Island Group",
    "featured": false,
    "priority": 50
  },
  {
    "geonameId": 3381805,
    "name": "Îlets Dupont",
    "latitude": 4.95528,
    "longitude": -52.29827,
    "category": "Island",
    "subcategory": "Island Group",
    "featured": false,
    "priority": 50
  },
  {
    "geonameId": 3381349,
    "name": "Îlets Keïmou",
    "latitude": 3.23797,
    "longitude": -52.2346,
    "category": "Island",
    "subcategory": "Island Group",
    "featured": false,
    "priority": 50
  },
  {
    "geonameId": 10367144,
    "name": "Îlets Koroni",
    "latitude": 5.2029,
    "longitude": -52.66426,
    "category": "Island",
    "subcategory": "Island Group",
    "featured": false,
    "priority": 50
  },
  {
    "geonameId": 3380831,
    "name": "Îlets Niasse",
    "latitude": 3.78333,
    "longitude": -51.93333,
    "category": "Island",
    "subcategory": "Island Group",
    "featured": false,
    "priority": 50
  },
  {
    "geonameId": 3380799,
    "name": "Îlets Ouacarayou",
    "latitude": 3.24179,
    "longitude": -52.27173,
    "category": "Island",
    "subcategory": "Island Group",
    "featured": false,
    "priority": 50
  },
  {
    "geonameId": 3380528,
    "name": "Îlets Ramier",
    "latitude": 4.03371,
    "longitude": -51.69831,
    "category": "Island",
    "subcategory": "Island Group",
    "featured": false,
    "priority": 50
  },
  {
    "geonameId": 3380365,
    "name": "Îlets Saint-Régis",
    "latitude": 4.66026,
    "longitude": -52.35777,
    "category": "Island",
    "subcategory": "Island Group",
    "featured": false,
    "priority": 50
  },
  {
    "geonameId": 10317155,
    "name": "Îlets Tourépé",
    "latitude": 4.23635,
    "longitude": -52.23764,
    "category": "Island",
    "subcategory": "Island Group",
    "featured": false,
    "priority": 50
  },
  {
    "geonameId": 3380025,
    "name": "Îlets Yacarescin",
    "latitude": 3.61667,
    "longitude": -52,
    "category": "Island",
    "subcategory": "Island Group",
    "featured": false,
    "priority": 50
  },
  {
    "geonameId": 3381970,
    "name": "Îlot Crique Serpent",
    "latitude": 5.34925,
    "longitude": -54.15434,
    "category": "Island",
    "subcategory": "Island",
    "featured": false,
    "priority": 50
  },
  {
    "geonameId": 10311605,
    "name": "Îlots Courbery",
    "latitude": 4.83118,
    "longitude": -52.29617,
    "category": "Island",
    "subcategory": "Island Group",
    "featured": false,
    "priority": 50
  },
  {
    "geonameId": 3381428,
    "name": "Iracoubo",
    "latitude": 5.47952,
    "longitude": -53.20524,
    "category": "City",
    "subcategory": "District Seat",
    "featured": false,
    "priority": 50
  },
  {
    "geonameId": 10426199,
    "name": "Karapa Tabiki",
    "latitude": 3.64027,
    "longitude": -54.00032,
    "category": "Island",
    "subcategory": "Island",
    "featured": false,
    "priority": 50
  },
  {
    "geonameId": 3381322,
    "name": "Koulimapopann",
    "latitude": 2.33333,
    "longitude": -54.6,
    "category": "Mountain",
    "subcategory": "Peak",
    "featured": false,
    "priority": 50
  },
  {
    "geonameId": 3381320,
    "name": "Kouloumouli Itou",
    "latitude": 2.61667,
    "longitude": -52.55,
    "category": "Waterfall",
    "subcategory": "Waterfall",
    "featured": false,
    "priority": 50
  },
  {
    "geonameId": 3381303,
    "name": "Kourou",
    "latitude": 5.16281,
    "longitude": -52.64265,
    "category": "City",
    "subcategory": "District Seat",
    "featured": false,
    "priority": 50
  },
  {
    "geonameId": 3381250,
    "name": "La Mère",
    "latitude": 4.89166,
    "longitude": -52.18484,
    "category": "Island",
    "subcategory": "Island",
    "featured": false,
    "priority": 50
  },
  {
    "geonameId": 8221267,
    "name": "Lac de Montjoly",
    "latitude": 4.92412,
    "longitude": -52.27585,
    "category": "Lake",
    "subcategory": "Reservoir",
    "featured": false,
    "priority": 50
  },
  {
    "geonameId": 3380517,
    "name": "Lac de Rémire",
    "latitude": 4.87621,
    "longitude": -52.2625,
    "category": "Lake",
    "subcategory": "Reservoir",
    "featured": false,
    "priority": 50
  },
  {
    "geonameId": 3380455,
    "name": "Lac du Rorota",
    "latitude": 4.88113,
    "longitude": -52.25145,
    "category": "Lake",
    "subcategory": "Reservoir",
    "featured": false,
    "priority": 50
  },
  {
    "geonameId": 3381771,
    "name": "Lac Eloge",
    "latitude": 5.31507,
    "longitude": -52.81001,
    "category": "Lake",
    "subcategory": "Lake",
    "featured": false,
    "priority": 50
  },
  {
    "geonameId": 3381238,
    "name": "Langa Soula Tabiki",
    "latitude": 2.85902,
    "longitude": -53.97758,
    "category": "Island",
    "subcategory": "Island",
    "featured": false,
    "priority": 50
  },
  {
    "geonameId": 3383722,
    "name": "Lawa Mofou Tabiki",
    "latitude": 3.44518,
    "longitude": -54.0093,
    "category": "Island",
    "subcategory": "Island",
    "featured": false,
    "priority": 50
  },
  {
    "geonameId": 3381204,
    "name": "Le Grand Connétable",
    "latitude": 4.82527,
    "longitude": -51.93663,
    "category": "Island",
    "subcategory": "Island",
    "featured": false,
    "priority": 50
  },
  {
    "geonameId": 3381199,
    "name": "Le Malingre",
    "latitude": 4.96038,
    "longitude": -52.25252,
    "category": "Island",
    "subcategory": "Island",
    "featured": false,
    "priority": 50
  },
  {
    "geonameId": 3381187,
    "name": "Le Père",
    "latitude": 4.92928,
    "longitude": -52.20348,
    "category": "Island",
    "subcategory": "Island",
    "featured": false,
    "priority": 50
  },
  {
    "geonameId": 3381186,
    "name": "Le Petit Connétable",
    "latitude": 4.81741,
    "longitude": -51.96787,
    "category": "Island",
    "subcategory": "Island",
    "featured": false,
    "priority": 50
  },
  {
    "geonameId": 3381164,
    "name": "Le Téton",
    "latitude": 2.3,
    "longitude": -54.5,
    "category": "Mountain",
    "subcategory": "Mountain",
    "featured": false,
    "priority": 50
  },
  {
    "geonameId": 3381329,
    "name": "Lebi Dotsi",
    "latitude": 3.93822,
    "longitude": -54.17542,
    "category": "Mountain",
    "subcategory": "Mountain",
    "featured": false,
    "priority": 50
  },
  {
    "geonameId": 3381174,
    "name": "Les Mamelles",
    "latitude": 4.88776,
    "longitude": -52.16825,
    "category": "Island",
    "subcategory": "Island Group",
    "featured": false,
    "priority": 50
  },
  {
    "geonameId": 3381173,
    "name": "Les Quatre Îlets",
    "latitude": 4.77382,
    "longitude": -52.46273,
    "category": "Island",
    "subcategory": "Island Group",
    "featured": false,
    "priority": 50
  },
  {
    "geonameId": 3381166,
    "name": "Les Sept Îles",
    "latitude": 5.36215,
    "longitude": -54.14149,
    "category": "Island",
    "subcategory": "Island Group",
    "featured": false,
    "priority": 50
  },
  {
    "geonameId": 3381117,
    "name": "Macouria",
    "latitude": 4.91216,
    "longitude": -52.37432,
    "category": "City",
    "subcategory": "City",
    "featured": false,
    "priority": 50
  },
  {
    "geonameId": 3381041,
    "name": "Mana",
    "latitude": 5.66906,
    "longitude": -53.77897,
    "category": "City",
    "subcategory": "District Seat",
    "featured": false,
    "priority": 50
  },
  {
    "geonameId": 3383565,
    "name": "Maripa Soula",
    "latitude": 3.6302,
    "longitude": -54.03114,
    "category": "Waterfall",
    "subcategory": "Waterfall",
    "featured": false,
    "priority": 50
  },
  {
    "geonameId": 3380994,
    "name": "Maripasoula",
    "latitude": 3.64155,
    "longitude": -54.03167,
    "category": "City",
    "subcategory": "District Seat",
    "featured": false,
    "priority": 50
  },
  {
    "geonameId": 3381128,
    "name": "Massif Lucifer",
    "latitude": 4.78355,
    "longitude": -53.92834,
    "category": "Mountain",
    "subcategory": "Mountain",
    "featured": false,
    "priority": 50
  },
  {
    "geonameId": 3380965,
    "name": "Matoury",
    "latitude": 4.84921,
    "longitude": -52.32355,
    "category": "City",
    "subcategory": "District Seat",
    "featured": false,
    "priority": 50
  },
  {
    "geonameId": 3380908,
    "name": "Mompé Soula Tabiki",
    "latitude": 4.55899,
    "longitude": -54.41608,
    "category": "Island",
    "subcategory": "Island",
    "featured": false,
    "priority": 50
  },
  {
    "geonameId": 3382393,
    "name": "Mont Belvédère",
    "latitude": 2.41124,
    "longitude": -53.09744,
    "category": "Mountain",
    "subcategory": "Mountain",
    "featured": false,
    "priority": 50
  },
  {
    "geonameId": 3382112,
    "name": "Mont Chauve",
    "latitude": 3.81738,
    "longitude": -52.74443,
    "category": "Mountain",
    "subcategory": "Mountain",
    "featured": false,
    "priority": 50
  },
  {
    "geonameId": 3381642,
    "name": "Mont Galbao",
    "latitude": 3.58582,
    "longitude": -53.26129,
    "category": "Mountain",
    "subcategory": "Mountain",
    "featured": false,
    "priority": 50
  },
  {
    "geonameId": 3381440,
    "name": "Mont Inéri",
    "latitude": 4.36965,
    "longitude": -52.1709,
    "category": "Mountain",
    "subcategory": "Mountain",
    "featured": false,
    "priority": 50
  },
  {
    "geonameId": 10337024,
    "name": "Mont Marou",
    "latitude": 3.4331,
    "longitude": -53.09965,
    "category": "Mountain",
    "subcategory": "Mountain",
    "featured": false,
    "priority": 50
  },
  {
    "geonameId": 3380381,
    "name": "Mont Saint-Marcel",
    "latitude": 2.39074,
    "longitude": -53.01767,
    "category": "Mountain",
    "subcategory": "Mountain",
    "featured": false,
    "priority": 50
  },
  {
    "geonameId": 3380300,
    "name": "Mont Siminirit",
    "latitude": 3.08515,
    "longitude": -53.03285,
    "category": "Mountain",
    "subcategory": "Mountain",
    "featured": false,
    "priority": 50
  },
  {
    "geonameId": 3380021,
    "name": "Mont Yanioué",
    "latitude": 3.10327,
    "longitude": -52.72462,
    "category": "Mountain",
    "subcategory": "Mountain",
    "featured": false,
    "priority": 50
  },
  {
    "geonameId": 3382557,
    "name": "Montagne Américain",
    "latitude": 3.64141,
    "longitude": -53.57804,
    "category": "Mountain",
    "subcategory": "Mountain",
    "featured": false,
    "priority": 50
  },
  {
    "geonameId": 3382395,
    "name": "Montagne Bellevue de Maripasoula",
    "latitude": 3.77238,
    "longitude": -54.04656,
    "category": "Mountain",
    "subcategory": "Mountain",
    "featured": false,
    "priority": 50
  },
  {
    "geonameId": 3382246,
    "name": "Montagne Calcul",
    "latitude": 2.3458,
    "longitude": -53.15911,
    "category": "Mountain",
    "subcategory": "Mountain",
    "featured": false,
    "priority": 50
  },
  {
    "geonameId": 3382102,
    "name": "Montagne Chien Mort",
    "latitude": 3.66069,
    "longitude": -53.56514,
    "category": "Mountain",
    "subcategory": "Mountain",
    "featured": false,
    "priority": 50
  },
  {
    "geonameId": 3382027,
    "name": "Montagne Continent",
    "latitude": 3.85038,
    "longitude": -53.27544,
    "category": "Mountain",
    "subcategory": "Mountain",
    "featured": false,
    "priority": 50
  },
  {
    "geonameId": 10418549,
    "name": "Montagne de Carbet Mitan",
    "latitude": 3.61774,
    "longitude": -53.72899,
    "category": "Mountain",
    "subcategory": "Mountain",
    "featured": false,
    "priority": 50
  },
  {
    "geonameId": 3380125,
    "name": "Montagne des Trois Pitons",
    "latitude": 4.21413,
    "longitude": -51.84194,
    "category": "Mountain",
    "subcategory": "Mountain",
    "featured": false,
    "priority": 50
  },
  {
    "geonameId": 10418466,
    "name": "Montagne Florida",
    "latitude": 3.6638,
    "longitude": -53.5439,
    "category": "Mountain",
    "subcategory": "Mountain",
    "featured": false,
    "priority": 50
  },
  {
    "geonameId": 3381122,
    "name": "Montagne Machoulou",
    "latitude": 3.01667,
    "longitude": -53.9,
    "category": "Mountain",
    "subcategory": "Mountain",
    "featured": false,
    "priority": 50
  },
  {
    "geonameId": 10317666,
    "name": "Montagne Maripa",
    "latitude": 4.41745,
    "longitude": -52.34397,
    "category": "Mountain",
    "subcategory": "Mountain",
    "featured": false,
    "priority": 50
  },
  {
    "geonameId": 3380979,
    "name": "Montagne Massialine",
    "latitude": 3.6076,
    "longitude": -53.60824,
    "category": "Mountain",
    "subcategory": "Mountain",
    "featured": false,
    "priority": 50
  },
  {
    "geonameId": 10418437,
    "name": "Montagne Mongorin",
    "latitude": 3.63118,
    "longitude": -53.54279,
    "category": "Mountain",
    "subcategory": "Mountain",
    "featured": false,
    "priority": 50
  },
  {
    "geonameId": 10418463,
    "name": "Montagne Petit Chien Mort",
    "latitude": 3.68891,
    "longitude": -53.58459,
    "category": "Mountain",
    "subcategory": "Mountain",
    "featured": false,
    "priority": 50
  },
  {
    "geonameId": 3380136,
    "name": "Montagne Trésor",
    "latitude": 4.59489,
    "longitude": -52.26045,
    "category": "Mountain",
    "subcategory": "Mountain",
    "featured": false,
    "priority": 50
  },
  {
    "geonameId": 3382564,
    "name": "Monts Amana",
    "latitude": 2.26177,
    "longitude": -54.1873,
    "category": "Mountain",
    "subcategory": "Mountain",
    "featured": false,
    "priority": 50
  },
  {
    "geonameId": 3382392,
    "name": "Monts Belvédère",
    "latitude": 3.72383,
    "longitude": -53.40962,
    "category": "Mountain",
    "subcategory": "Mountain",
    "featured": false,
    "priority": 50
  },
  {
    "geonameId": 3380862,
    "name": "Moussoué Santi Tabiki",
    "latitude": 4.5863,
    "longitude": -54.40855,
    "category": "Island",
    "subcategory": "Island",
    "featured": false,
    "priority": 50
  },
  {
    "geonameId": 3383402,
    "name": "Odoun",
    "latitude": 4.21675,
    "longitude": -54.39066,
    "category": "Island",
    "subcategory": "Island",
    "featured": false,
    "priority": 50
  },
  {
    "geonameId": 11953264,
    "name": "Ouest Lac",
    "latitude": 5.47946,
    "longitude": -53.94328,
    "category": "Lake",
    "subcategory": "Reservoir",
    "featured": false,
    "priority": 50
  },
  {
    "geonameId": 3380770,
    "name": "Pahan Tapélé",
    "latitude": 2.83843,
    "longitude": -52.45039,
    "category": "Island",
    "subcategory": "Island",
    "featured": false,
    "priority": 50
  },
  {
    "geonameId": 3380776,
    "name": "Paloeloe Val",
    "latitude": 2.69395,
    "longitude": -54.27136,
    "category": "Waterfall",
    "subcategory": "Waterfall",
    "featured": false,
    "priority": 50
  },
  {
    "geonameId": 10317223,
    "name": "Parc Naturel Régional de Guyane",
    "latitude": 4.54355,
    "longitude": -52.01989,
    "category": "Park",
    "subcategory": "Nature Reserve",
    "featured": false,
    "priority": 50
  },
  {
    "geonameId": 3380688,
    "name": "Payla Ito",
    "latitude": 3.08333,
    "longitude": -52.33333,
    "category": "Waterfall",
    "subcategory": "Waterfall",
    "featured": false,
    "priority": 50
  },
  {
    "geonameId": 3380687,
    "name": "Pays Indien",
    "latitude": 4.16667,
    "longitude": -51.78333,
    "category": "Island",
    "subcategory": "Island Group",
    "featured": false,
    "priority": 50
  },
  {
    "geonameId": 3383310,
    "name": "Peter Songou Soula",
    "latitude": 4.6644,
    "longitude": -54.43197,
    "category": "Waterfall",
    "subcategory": "Waterfall",
    "featured": false,
    "priority": 50
  },
  {
    "geonameId": 3382517,
    "name": "Pic Ardent",
    "latitude": 3.30132,
    "longitude": -52.9777,
    "category": "Mountain",
    "subcategory": "Peak",
    "featured": false,
    "priority": 50
  },
  {
    "geonameId": 3382000,
    "name": "Pic Coudreau",
    "latitude": 3.29366,
    "longitude": -52.92103,
    "category": "Mountain",
    "subcategory": "Peak",
    "featured": false,
    "priority": 50
  },
  {
    "geonameId": 3381969,
    "name": "Pic du Croissant",
    "latitude": 3.91011,
    "longitude": -52.72205,
    "category": "Mountain",
    "subcategory": "Peak",
    "featured": false,
    "priority": 50
  },
  {
    "geonameId": 10337079,
    "name": "Pic Matécho",
    "latitude": 3.7449,
    "longitude": -53.04024,
    "category": "Mountain",
    "subcategory": "Peak",
    "featured": false,
    "priority": 50
  },
  {
    "geonameId": 3380591,
    "name": "Pikinn Tabiki",
    "latitude": 3.24392,
    "longitude": -54.07051,
    "category": "Island",
    "subcategory": "Island",
    "featured": false,
    "priority": 50
  },
  {
    "geonameId": 3380587,
    "name": "Pina Tabiki",
    "latitude": 4.64645,
    "longitude": -54.42818,
    "category": "Island",
    "subcategory": "Island",
    "featured": false,
    "priority": 50
  },
  {
    "geonameId": 3382433,
    "name": "Piton Baron",
    "latitude": 3.23412,
    "longitude": -53.07796,
    "category": "Mountain",
    "subcategory": "Peak",
    "featured": false,
    "priority": 50
  },
  {
    "geonameId": 10319282,
    "name": "Piton Rocheux",
    "latitude": 3.72203,
    "longitude": -52.31699,
    "category": "Mountain",
    "subcategory": "Peak",
    "featured": false,
    "priority": 50
  },
  {
    "geonameId": 3380523,
    "name": "Régina",
    "latitude": 4.313,
    "longitude": -52.13083,
    "category": "City",
    "subcategory": "District Seat",
    "featured": false,
    "priority": 50
  },
  {
    "geonameId": 3380520,
    "name": "Rémire",
    "latitude": 4.88585,
    "longitude": -52.27857,
    "category": "City",
    "subcategory": "District Seat",
    "featured": false,
    "priority": 50
  },
  {
    "geonameId": 3380892,
    "name": "Rémire-Montjoly",
    "latitude": 4.91667,
    "longitude": -52.26667,
    "category": "City",
    "subcategory": "City",
    "featured": false,
    "priority": 50
  },
  {
    "geonameId": 10372536,
    "name": "Réserve Naturelle de l'Amana",
    "latitude": 5.68468,
    "longitude": -53.75782,
    "category": "Park",
    "subcategory": "Nature Reserve",
    "featured": false,
    "priority": 50
  },
  {
    "geonameId": 10317029,
    "name": "Réserve Naturelle de l'Île du Grand Connétable",
    "latitude": 4.82504,
    "longitude": -51.93623,
    "category": "Park",
    "subcategory": "Nature Reserve",
    "featured": false,
    "priority": 50
  },
  {
    "geonameId": 10370763,
    "name": "Réserve Naturelle de La Trinité",
    "latitude": 4.67795,
    "longitude": -53.2611,
    "category": "Park",
    "subcategory": "Nature Reserve",
    "featured": false,
    "priority": 50
  },
  {
    "geonameId": 10313830,
    "name": "Réserve Naturelle des Marais de Kaw-Roura",
    "latitude": 4.66043,
    "longitude": -52.11374,
    "category": "Park",
    "subcategory": "Nature Reserve",
    "featured": false,
    "priority": 50
  },
  {
    "geonameId": 10311842,
    "name": "Réserve Naturelle du Grand Matoury",
    "latitude": 4.86962,
    "longitude": -52.3518,
    "category": "Park",
    "subcategory": "Nature Reserve",
    "featured": false,
    "priority": 50
  },
  {
    "geonameId": 11953294,
    "name": "Réserve Naturelle Régionale Trésor",
    "latitude": 4.59619,
    "longitude": -52.29874,
    "category": "Park",
    "subcategory": "Nature Reserve",
    "featured": false,
    "priority": 50
  },
  {
    "geonameId": 10370691,
    "name": "Retenue du Barrage de Petit Saut",
    "latitude": 4.91575,
    "longitude": -53.01394,
    "category": "Lake",
    "subcategory": "Reservoir",
    "featured": false,
    "priority": 50
  },
  {
    "geonameId": 3381628,
    "name": "Roche Gauthier",
    "latitude": 2.49609,
    "longitude": -53.02912,
    "category": "Mountain",
    "subcategory": "Mountain",
    "featured": false,
    "priority": 50
  },
  {
    "geonameId": 3381294,
    "name": "Roche Koutou",
    "latitude": 2.91667,
    "longitude": -54.05968,
    "category": "Mountain",
    "subcategory": "Mountain",
    "featured": false,
    "priority": 50
  },
  {
    "geonameId": 3380684,
    "name": "Roche Péon",
    "latitude": 2.44589,
    "longitude": -53.23341,
    "category": "Mountain",
    "subcategory": "Mountain",
    "featured": false,
    "priority": 50
  },
  {
    "geonameId": 3380452,
    "name": "Rouga Tabiki",
    "latitude": 4.83333,
    "longitude": -54.46667,
    "category": "Island",
    "subcategory": "Island",
    "featured": false,
    "priority": 50
  },
  {
    "geonameId": 3380450,
    "name": "Roura",
    "latitude": 4.72874,
    "longitude": -52.32495,
    "category": "City",
    "subcategory": "District Seat",
    "featured": false,
    "priority": 50
  },
  {
    "geonameId": 3380402,
    "name": "Saint-Georges",
    "latitude": 3.88857,
    "longitude": -51.80243,
    "category": "City",
    "subcategory": "District Seat",
    "featured": false,
    "priority": 50
  },
  {
    "geonameId": 3380387,
    "name": "Saint-Laurent-du-Maroni",
    "latitude": 5.50153,
    "longitude": -54.02916,
    "category": "City",
    "subcategory": "County Seat",
    "featured": false,
    "priority": 50
  },
  {
    "geonameId": 3381338,
    "name": "Saut Caïmpong",
    "latitude": 2.9,
    "longitude": -52.4,
    "category": "Waterfall",
    "subcategory": "Waterfall",
    "featured": false,
    "priority": 50
  },
  {
    "geonameId": 3381683,
    "name": "Saut Fourmi",
    "latitude": 3.71667,
    "longitude": -51.93333,
    "category": "Waterfall",
    "subcategory": "Waterfall",
    "featured": false,
    "priority": 50
  },
  {
    "geonameId": 3381562,
    "name": "Saut Grand Kanori",
    "latitude": 3.61844,
    "longitude": -52.67012,
    "category": "Waterfall",
    "subcategory": "Waterfall",
    "featured": false,
    "priority": 50
  },
  {
    "geonameId": 3380997,
    "name": "Saut Maripa",
    "latitude": 3.8,
    "longitude": -51.88333,
    "category": "Waterfall",
    "subcategory": "Waterfall",
    "featured": false,
    "priority": 50
  },
  {
    "geonameId": 3380897,
    "name": "Saut Montabo",
    "latitude": 3.7,
    "longitude": -51.96667,
    "category": "Waterfall",
    "subcategory": "Waterfall",
    "featured": false,
    "priority": 50
  },
  {
    "geonameId": 3380761,
    "name": "Saut Pacouacara",
    "latitude": 3.73333,
    "longitude": -51.95,
    "category": "Waterfall",
    "subcategory": "Waterfall",
    "featured": false,
    "priority": 50
  },
  {
    "geonameId": 3380669,
    "name": "Saut Petit Ako",
    "latitude": 2.76667,
    "longitude": -52.48333,
    "category": "Waterfall",
    "subcategory": "Waterfall",
    "featured": false,
    "priority": 50
  },
  {
    "geonameId": 3380544,
    "name": "Saut Portal",
    "latitude": 5.27786,
    "longitude": -53.86354,
    "category": "Waterfall",
    "subcategory": "Waterfall",
    "featured": false,
    "priority": 50
  },
  {
    "geonameId": 3380429,
    "name": "Saut Saillat",
    "latitude": 5.31738,
    "longitude": -54.14798,
    "category": "Waterfall",
    "subcategory": "Waterfall",
    "featured": false,
    "priority": 50
  },
  {
    "geonameId": 3380009,
    "name": "Saut Yaoua Sikoua",
    "latitude": 2.31667,
    "longitude": -52.76667,
    "category": "Waterfall",
    "subcategory": "Waterfall",
    "featured": false,
    "priority": 50
  },
  {
    "geonameId": 3380010,
    "name": "Saut Yaroupi",
    "latitude": 2.78333,
    "longitude": -52.48333,
    "category": "Waterfall",
    "subcategory": "Waterfall",
    "featured": false,
    "priority": 50
  },
  {
    "geonameId": 3381148,
    "name": "Sauts de l'Alitani",
    "latitude": 3.3101,
    "longitude": -54.06562,
    "category": "Waterfall",
    "subcategory": "Waterfall",
    "featured": false,
    "priority": 50
  },
  {
    "geonameId": 3380290,
    "name": "Sinnamary",
    "latitude": 5.37676,
    "longitude": -52.95679,
    "category": "City",
    "subcategory": "District Seat",
    "featured": false,
    "priority": 50
  },
  {
    "geonameId": 3381654,
    "name": "Skien Tabbetje",
    "latitude": 4.74915,
    "longitude": -54.46865,
    "category": "Island",
    "subcategory": "Island",
    "featured": false,
    "priority": 50
  },
  {
    "geonameId": 10337115,
    "name": "Sommet Tabulaire",
    "latitude": 3.06514,
    "longitude": -53.08472,
    "category": "Mountain",
    "subcategory": "Mountain",
    "featured": false,
    "priority": 50
  },
  {
    "geonameId": 3380207,
    "name": "Tchoukouchipann",
    "latitude": 2.24948,
    "longitude": -54.4923,
    "category": "Mountain",
    "subcategory": "Mountain",
    "featured": false,
    "priority": 50
  },
  {
    "geonameId": 3380169,
    "name": "Tonate",
    "latitude": 5.01171,
    "longitude": -52.47241,
    "category": "City",
    "subcategory": "Local Seat",
    "featured": false,
    "priority": 50
  },
  {
    "geonameId": 3380127,
    "name": "Troisième Saut",
    "latitude": 5.27903,
    "longitude": -54.16869,
    "category": "Waterfall",
    "subcategory": "Waterfall",
    "featured": false,
    "priority": 50
  },
  {
    "geonameId": 3380056,
    "name": "Viri Itou",
    "latitude": 2.66667,
    "longitude": -52.51667,
    "category": "Waterfall",
    "subcategory": "Waterfall",
    "featured": false,
    "priority": 50
  },
  {
    "geonameId": 3379999,
    "name": "Zaou Tabiki",
    "latitude": 3.3802,
    "longitude": -54.05585,
    "category": "Island",
    "subcategory": "Island",
    "featured": false,
    "priority": 50
  }
]