[
  {
    "geonameId": 11995118,
    "name": "Abello Island",
    "latitude": 37.39204,
    "longitude": 24.95614,
    "category": "Island",
    "subcategory": "Island",
    "featured": false,
    "priority": 50
  },
  {
    "geonameId": 265488,
    "name": "Acharnés",
    "latitude": 38.08333,
    "longitude": 23.73333,
    "category": "City",
    "subcategory": "District Seat",
    "featured": false,
    "priority": 50
  },
  {
    "geonameId": 265465,
    "name": "Achláda",
    "latitude": 37.38876,
    "longitude": 22.58859,
    "category": "Mountain",
    "subcategory": "Peak",
    "featured": false,
    "priority": 50
  },
  {
    "geonameId": 265453,
    "name": "Achládi",
    "latitude": 35.04081,
    "longitude": 26.15771,
    "category": "Mountain",
    "subcategory": "Peak",
    "featured": false,
    "priority": 50
  },
  {
    "geonameId": 265449,
    "name": "Achladiás",
    "latitude": 39.37722,
    "longitude": 21.51444,
    "category": "Mountain",
    "subcategory": "Mountain",
    "featured": false,
    "priority": 50
  },
  {
    "geonameId": 263347,
    "name": "Achladiés",
    "latitude": 38.49531,
    "longitude": 23.29144,
    "category": "Mountain",
    "subcategory": "Peak",
    "featured": false,
    "priority": 50
  },
  {
    "geonameId": 263346,
    "name": "Achladió",
    "latitude": 38.10877,
    "longitude": 23.70264,
    "category": "Mountain",
    "subcategory": "Peak",
    "featured": false,
    "priority": 50
  },
  {
    "geonameId": 444904,
    "name": "Achladótsompos",
    "latitude": 38.53584,
    "longitude": 25.96646,
    "category": "Mountain",
    "subcategory": "Peak",
    "featured": false,
    "priority": 50
  },
  {
    "geonameId": 265703,
    "name": "Adéres Óros",
    "latitude": 37.46296,
    "longitude": 23.35861,
    "category": "Mountain",
    "subcategory": "Mountain",
    "featured": false,
    "priority": 50
  },
  {
    "geonameId": 265696,
    "name": "Aegean Islands",
    "latitude": 38,
    "longitude": 25,
    "category": "Island",
    "subcategory": "Island Group",
    "featured": false,
    "priority": 50
  },
  {
    "geonameId": 265501,
    "name": "Aegina",
    "latitude": 37.72363,
    "longitude": 23.49267,
    "category": "Island",
    "subcategory": "Island",
    "featured": false,
    "priority": 50
  },
  {
    "geonameId": 11026946,
    "name": "Aéras",
    "latitude": 38.14463,
    "longitude": 23.71771,
    "category": "Mountain",
    "subcategory": "Peak",
    "featured": false,
    "priority": 50
  },
  {
    "geonameId": 265687,
    "name": "Aetofoliá",
    "latitude": 39.31689,
    "longitude": 22.76468,
    "category": "Mountain",
    "subcategory": "Mountain",
    "featured": false,
    "priority": 50
  },
  {
    "geonameId": 265685,
    "name": "Aëtoí",
    "latitude": 39.23806,
    "longitude": 21.28222,
    "category": "Mountain",
    "subcategory": "Mountain",
    "featured": false,
    "priority": 50
  },
  {
    "geonameId": 252471,
    "name": "Aetós",
    "latitude": 38.62681,
    "longitude": 23.53614,
    "category": "Mountain",
    "subcategory": "Peak",
    "featured": false,
    "priority": 50
  },
  {
    "geonameId": 265666,
    "name": "Aetóvigla",
    "latitude": 37.16779,
    "longitude": 22.76381,
    "category": "Mountain",
    "subcategory": "Peak",
    "featured": false,
    "priority": 50
  },
  {
    "geonameId": 265665,
    "name": "Aetóvouno",
    "latitude": 38.09023,
    "longitude": 22.4638,
    "category": "Mountain",
    "subcategory": "Mountain",
    "featured": false,
    "priority": 50
  },
  {
    "geonameId": 408685,
    "name": "Afántou",
    "latitude": 36.29354,
    "longitude": 28.16225,
    "category": "City",
    "subcategory": "City",
    "featured": false,
    "priority": 50
  },
  {
    "geonameId": 265661,
    "name": "Aféndis",
    "latitude": 35.17044,
    "longitude": 25.39979,
    "category": "Mountain",
    "subcategory": "Peak",
    "featured": false,
    "priority": 50
  },
  {
    "geonameId": 265660,
    "name": "Aféndis Khristós",
    "latitude": 35.09326,
    "longitude": 25.47112,
    "category": "Mountain",
    "subcategory": "Mountain",
    "featured": false,
    "priority": 50
  },
  {
    "geonameId": 264326,
    "name": "Afkólakkos",
    "latitude": 37.18542,
    "longitude": 22.88733,
    "category": "Mountain",
    "subcategory": "Peak",
    "featured": false,
    "priority": 50
  },
  {
    "geonameId": 265654,
    "name": "Afláouras",
    "latitude": 37.09997,
    "longitude": 22.93963,
    "category": "Mountain",
    "subcategory": "Peak",
    "featured": false,
    "priority": 50
  },
  {
    "geonameId": 265646,
    "name": "Afrósi",
    "latitude": 38.66102,
    "longitude": 23.89865,
    "category": "Mountain",
    "subcategory": "Peak",
    "featured": false,
    "priority": 50
  },
  {
    "geonameId": 264298,
    "name": "Aftiá",
    "latitude": 39.87889,
    "longitude": 21.09222,
    "category": "Mountain",
    "subcategory": "Peak",
    "featured": false,
    "priority": 50
  },
  {
    "geonameId": 264297,
    "name": "Aftiá Flénga",
    "latitude": 39.87028,
    "longitude": 21.11889,
    "category": "Mountain",
    "subcategory": "Peak",
    "featured": false,
    "priority": 50
  },
  {
    "geonameId": 265633,
    "name": "Agathonísi",
    "latitude": 37.46423,
    "longitude": 26.96664,
    "category": "Island",
    "subcategory": "Island",
    "featured": false,
    "priority": 50
  },
  {
    "geonameId": 258275,
    "name": "Ageladítsa",
    "latitude": 38.23015,
    "longitude": 23.75116,
    "category": "Mountain",
    "subcategory": "Peak",
    "featured": false,
    "priority": 50
  },
  {
    "geonameId": 8224767,
    "name": "Aghrimokefala",
    "latitude": 35.25186,
    "longitude": 24.76473,
    "category": "Mountain",
    "subcategory": "Peak",
    "featured": false,
    "priority": 50
  },
  {
    "geonameId": 264283,
    "name": "Agiá",
    "latitude": 39.71901,
    "longitude": 22.75869,
    "category": "City",
    "subcategory": "District Seat",
    "featured": false,
    "priority": 50
  },
  {
    "geonameId": 11552777,
    "name": "Agía",
    "latitude": 37.60878,
    "longitude": 25.12313,
    "category": "Mountain",
    "subcategory": "Peak",
    "featured": false,
    "priority": 50
  },
  {
    "geonameId": 264273,
    "name": "Agía Dynatí",
    "latitude": 38.27006,
    "longitude": 20.55533,
    "category": "Mountain",
    "subcategory": "Mountain",
    "featured": false,
    "priority": 50
  },
  {
    "geonameId": 8262246,
    "name": "Agía Foteiní",
    "latitude": 35.25459,
    "longitude": 24.63495,
    "category": "City",
    "subcategory": "District Seat",
    "featured": false,
    "priority": 50
  },
  {
    "geonameId": 264246,
    "name": "Agía Kyriakí",
    "latitude": 36.95356,
    "longitude": 22.40925,
    "category": "Mountain",
    "subcategory": "Peak",
    "featured": false,
    "priority": 50
  },
  {
    "geonameId": 264233,
    "name": "Agía Kyriakí Nisídes",
    "latitude": 36.54516,
    "longitude": 26.4053,
    "category": "Island",
    "subcategory": "Island Group",
    "featured": false,
    "priority": 50
  },
  {
    "geonameId": 264221,
    "name": "Agía Marína",
    "latitude": 37.1543,
    "longitude": 26.85162,
    "category": "City",
    "subcategory": "District Seat",
    "featured": false,
    "priority": 50
  },
  {
    "geonameId": 264194,
    "name": "Agía Paraskeví",
    "latitude": 38.01667,
    "longitude": 23.83333,
    "category": "City",
    "subcategory": "District Seat",
    "featured": false,
    "priority": 50
  },
  {
    "geonameId": 264111,
    "name": "Agía Varvára",
    "latitude": 37.98938,
    "longitude": 23.66011,
    "category": "City",
    "subcategory": "District Seat",
    "featured": false,
    "priority": 50
  },
  {
    "geonameId": 10630465,
    "name": "Agio Pneuma",
    "latitude": 35.33238,
    "longitude": 24.06028,
    "category": "Mountain",
    "subcategory": "Mountain",
    "featured": false,
    "priority": 50
  },
  {
    "geonameId": 8358563,
    "name": "Ágioi Anárgyroi",
    "latitude": 38.03013,
    "longitude": 23.72379,
    "category": "City",
    "subcategory": "District Seat",
    "featured": false,
    "priority": 50
  },
  {
    "geonameId": 264099,
    "name": "Ágioi Apóstoloi",
    "latitude": 38.18139,
    "longitude": 22.15719,
    "category": "Mountain",
    "subcategory": "Mountain",
    "featured": false,
    "priority": 50
  },
  {
    "geonameId": 264085,
    "name": "Ágioi Asómatoi",
    "latitude": 38.17039,
    "longitude": 22.16028,
    "category": "Mountain",
    "subcategory": "Mountain",
    "featured": false,
    "priority": 50
  },
  {
    "geonameId": 264083,
    "name": "Ágioi Déka",
    "latitude": 35.06667,
    "longitude": 24.96667,
    "category": "City",
    "subcategory": "District Seat",
    "featured": false,
    "priority": 50
  },
  {
    "geonameId": 263947,
    "name": "Ágioi Pántes",
    "latitude": 37.04598,
    "longitude": 25.17972,
    "category": "Mountain",
    "subcategory": "Peak",
    "featured": false,
    "priority": 50
  },
  {
    "geonameId": 264076,
    "name": "Ágioi Saránta",
    "latitude": 37.93329,
    "longitude": 24.77973,
    "category": "Mountain",
    "subcategory": "Peak",
    "featured": false,
    "priority": 50
  },
  {
    "geonameId": 264074,
    "name": "Ágioi Theódoroi",
    "latitude": 38.86683,
    "longitude": 21.9815,
    "category": "Mountain",
    "subcategory": "Peak",
    "featured": false,
    "priority": 50
  },
  {
    "geonameId": 264055,
    "name": "Agiokírykos",
    "latitude": 36.8818,
    "longitude": 22.31468,
    "category": "Mountain",
    "subcategory": "Peak",
    "featured": false,
    "priority": 50
  },
  {
    "geonameId": 264004,
    "name": "Ágios Athanásios",
    "latitude": 38.00814,
    "longitude": 21.90347,
    "category": "Mountain",
    "subcategory": "Peak",
    "featured": false,
    "priority": 50
  },
  {
    "geonameId": 263872,
    "name": "Ágios Christóforos",
    "latitude": 39.83333,
    "longitude": 20.91667,
    "category": "Mountain",
    "subcategory": "Peak",
    "featured": false,
    "priority": 50
  },
  {
    "geonameId": 263995,
    "name": "Ágios Díkaios",
    "latitude": 35.33269,
    "longitude": 23.62291,
    "category": "Mountain",
    "subcategory": "Mountain",
    "featured": false,
    "priority": 50
  },
  {
    "geonameId": 263986,
    "name": "Agios Dimitrios",
    "latitude": 37.93333,
    "longitude": 23.73333,
    "category": "City",
    "subcategory": "District Seat",
    "featured": false,
    "priority": 50
  },
  {
    "geonameId": 10975480,
    "name": "Ágios Dimítrios",
    "latitude": 38.17142,
    "longitude": 23.97632,
    "category": "Mountain",
    "subcategory": "Peak",
    "featured": false,
    "priority": 50
  },
  {
    "geonameId": 263960,
    "name": "Ágios Efstrátios",
    "latitude": 39.53889,
    "longitude": 24.99167,
    "category": "City",
    "subcategory": "District Seat",
    "featured": false,
    "priority": 50
  },
  {
    "geonameId": 263967,
    "name": "Ágios Elefthérios",
    "latitude": 36.62148,
    "longitude": 24.91163,
    "category": "Mountain",
    "subcategory": "Peak",
    "featured": false,
    "priority": 50
  },
  {
    "geonameId": 413728,
    "name": "Ágios Georgios",
    "latitude": 39.10402,
    "longitude": 26.10294,
    "category": "Island",
    "subcategory": "Island",
    "featured": false,
    "priority": 50
  },
  {
    "geonameId": 263680,
    "name": "Ágios Geórgios",
    "latitude": 38.13428,
    "longitude": 21.81686,
    "category": "Mountain",
    "subcategory": "Mountain",
    "featured": false,
    "priority": 50
  },
  {
    "geonameId": 263945,
    "name": "Ágios Ilías",
    "latitude": 39.85,
    "longitude": 20.5,
    "category": "Mountain",
    "subcategory": "Peak",
    "featured": false,
    "priority": 50
  },
  {
    "geonameId": 8478257,
    "name": "Agios Ioannis Rentis",
    "latitude": 37.96491,
    "longitude": 23.66511,
    "category": "City",
    "subcategory": "City",
    "featured": false,
    "priority": 50
  },
  {
    "geonameId": 12070517,
    "name": "Agios Isidoros",
    "latitude": 40.22268,
    "longitude": 23.79167,
    "category": "Island",
    "subcategory": "Island",
    "featured": false,
    "priority": 50
  },
  {
    "geonameId": 263870,
    "name": "Agios Kirykos",
    "latitude": 37.61472,
    "longitude": 26.29444,
    "category": "City",
    "subcategory": "District Seat",
    "featured": false,
    "priority": 50
  },
  {
    "geonameId": 263866,
    "name": "Ágios Konstantínos",
    "latitude": 36.9238,
    "longitude": 22.22189,
    "category": "Mountain",
    "subcategory": "Peak",
    "featured": false,
    "priority": 50
  },
  {
    "geonameId": 11022431,
    "name": "Ágios Loukás",
    "latitude": 38.13853,
    "longitude": 23.91387,
    "category": "Mountain",
    "subcategory": "Peak",
    "featured": false,
    "priority": 50
  },
  {
    "geonameId": 8367245,
    "name": "Ágios Mámos",
    "latitude": 35.54616,
    "longitude": 23.59747,
    "category": "Mountain",
    "subcategory": "Mountain",
    "featured": false,
    "priority": 50
  },
  {
    "geonameId": 263824,
    "name": "Ágios Nikólaos",
    "latitude": 35.19106,
    "longitude": 25.71524,
    "category": "City",
    "subcategory": "County Seat",
    "featured": false,
    "priority": 50
  },
  {
    "geonameId": 263831,
    "name": "Ágios Níkon",
    "latitude": 36.75262,
    "longitude": 22.35434,
    "category": "Mountain",
    "subcategory": "Mountain",
    "featured": false,
    "priority": 50
  },
  {
    "geonameId": 263769,
    "name": "Ágios Panteleímon",
    "latitude": 37.60813,
    "longitude": 24.32995,
    "category": "Mountain",
    "subcategory": "Peak",
    "featured": false,
    "priority": 50
  },
  {
    "geonameId": 7646356,
    "name": "Agios Prodromos",
    "latitude": 40.47145,
    "longitude": 23.39491,
    "category": "Park",
    "subcategory": "Park",
    "featured": false,
    "priority": 50
  },
  {
    "geonameId": 263725,
    "name": "Ágios Stéfanos",
    "latitude": 38.14657,
    "longitude": 23.85608,
    "category": "City",
    "subcategory": "District Seat",
    "featured": false,
    "priority": 50
  },
  {
    "geonameId": 263747,
    "name": "Ágios Symeón",
    "latitude": 37.58069,
    "longitude": 24.34341,
    "category": "Mountain",
    "subcategory": "Peak",
    "featured": false,
    "priority": 50
  },
  {
    "geonameId": 263716,
    "name": "Ágios Theódoros",
    "latitude": 37.55698,
    "longitude": 24.29881,
    "category": "Mountain",
    "subcategory": "Peak",
    "featured": false,
    "priority": 50
  },
  {
    "geonameId": 263708,
    "name": "Ágios Vasíleios",
    "latitude": 37.16649,
    "longitude": 21.93872,
    "category": "Mountain",
    "subcategory": "Peak",
    "featured": false,
    "priority": 50
  },
  {
    "geonameId": 8224711,
    "name": "Agkathias",
    "latitude": 35.2201,
    "longitude": 24.78378,
    "category": "Mountain",
    "subcategory": "Peak",
    "featured": false,
    "priority": 50
  },
  {
    "geonameId": 265626,
    "name": "Agnánti",
    "latitude": 37.69969,
    "longitude": 23.15725,
    "category": "Mountain",
    "subcategory": "Peak",
    "featured": false,
    "priority": 50
  },
  {
    "geonameId": 265616,
    "name": "Agourítsi",
    "latitude": 37.38726,
    "longitude": 22.4807,
    "category": "Mountain",
    "subcategory": "Mountain",
    "featured": false,
    "priority": 50
  },
  {
    "geonameId": 265608,
    "name": "Agrapidáki",
    "latitude": 38.75128,
    "longitude": 20.96225,
    "category": "Mountain",
    "subcategory": "Peak",
    "featured": false,
    "priority": 50
  },
  {
    "geonameId": 444837,
    "name": "Agreliá",
    "latitude": 38.50092,
    "longitude": 26.13766,
    "category": "Mountain",
    "subcategory": "Peak",
    "featured": false,
    "priority": 50
  },
  {
    "geonameId": 265601,
    "name": "Agriá",
    "latitude": 39.34078,
    "longitude": 23.01258,
    "category": "City",
    "subcategory": "City",
    "featured": false,
    "priority": 50
  },
  {
    "geonameId": 265588,
    "name": "Agridomoúri",
    "latitude": 35.03825,
    "longitude": 26.17641,
    "category": "Mountain",
    "subcategory": "Peak",
    "featured": false,
    "priority": 50
  },
  {
    "geonameId": 265576,
    "name": "Agrilíki",
    "latitude": 38.10511,
    "longitude": 23.94803,
    "category": "Mountain",
    "subcategory": "Peak",
    "featured": false,
    "priority": 50
  },
  {
    "geonameId": 265557,
    "name": "Agrimokefála",
    "latitude": 35.21597,
    "longitude": 24.2627,
    "category": "Mountain",
    "subcategory": "Peak",
    "featured": false,
    "priority": 50
  },
  {
    "geonameId": 265560,
    "name": "Agrínio",
    "latitude": 38.62139,
    "longitude": 21.40778,
    "category": "City",
    "subcategory": "District Seat",
    "featured": false,
    "priority": 50
  },
  {
    "geonameId": 265559,
    "name": "Agriókambos",
    "latitude": 36.54943,
    "longitude": 22.44927,
    "category": "Mountain",
    "subcategory": "Peak",
    "featured": false,
    "priority": 50
  },
  {
    "geonameId": 265555,
    "name": "Agriokefála",
    "latitude": 35.31667,
    "longitude": 24.26667,
    "category": "Mountain",
    "subcategory": "Peak",
    "featured": false,
    "priority": 50
  },
  {
    "geonameId": 265554,
    "name": "Agriokerasiá",
    "latitude": 37.38786,
    "longitude": 22.36691,
    "category": "Mountain",
    "subcategory": "Peak",
    "featured": false,
    "priority": 50
  },
  {
    "geonameId": 736973,
    "name": "Ahlát Chal",
    "latitude": 41.18333,
    "longitude": 24.8,
    "category": "Mountain",
    "subcategory": "Mountain",
    "featured": false,
    "priority": 50
  },
  {
    "geonameId": 265541,
    "name": "Aidóni",
    "latitude": 38.03492,
    "longitude": 24.53892,
    "category": "Mountain",
    "subcategory": "Peak",
    "featured": false,
    "priority": 50
  },
  {
    "geonameId": 265533,
    "name": "Aigáleo",
    "latitude": 37.98333,
    "longitude": 23.68333,
    "category": "City",
    "subcategory": "District Seat",
    "featured": false,
    "priority": 50
  },
  {
    "geonameId": 736964,
    "name": "Aigínio",
    "latitude": 40.50139,
    "longitude": 22.54,
    "category": "City",
    "subcategory": "District Seat",
    "featured": false,
    "priority": 50
  },
  {
    "geonameId": 265500,
    "name": "Aígio",
    "latitude": 38.24861,
    "longitude": 22.08194,
    "category": "City",
    "subcategory": "District Seat",
    "featured": false,
    "priority": 50
  },
  {
    "geonameId": 265524,
    "name": "Ailiás",
    "latitude": 36.87805,
    "longitude": 22.47468,
    "category": "Mountain",
    "subcategory": "Peak",
    "featured": false,
    "priority": 50
  },
  {
    "geonameId": 265525,
    "name": "Aïliás",
    "latitude": 36.62714,
    "longitude": 22.50365,
    "category": "Mountain",
    "subcategory": "Mountain",
    "featured": false,
    "priority": 50
  },
  {
    "geonameId": 265517,
    "name": "Aintinís",
    "latitude": 37.58609,
    "longitude": 22.30637,
    "category": "Mountain",
    "subcategory": "Peak",
    "featured": false,
    "priority": 50
  },
  {
    "geonameId": 444803,
    "name": "Aípos",
    "latitude": 38.41435,
    "longitude": 26.10963,
    "category": "Mountain",
    "subcategory": "Peak",
    "featured": false,
    "priority": 50
  },
  {
    "geonameId": 444314,
    "name": "Aipóvrysi",
    "latitude": 36.84412,
    "longitude": 27.24309,
    "category": "Mountain",
    "subcategory": "Peak",
    "featured": false,
    "priority": 50
  },
  {
    "geonameId": 265507,
    "name": "Aitolikó",
    "latitude": 38.43704,
    "longitude": 21.35358,
    "category": "City",
    "subcategory": "City",
    "featured": false,
    "priority": 50
  },
  {
    "geonameId": 265470,
    "name": "Akhinópodhas",
    "latitude": 35.33333,
    "longitude": 23.8,
    "category": "Mountain",
    "subcategory": "Mountain",
    "featured": false,
    "priority": 50
  },
  {
    "geonameId": 265432,
    "name": "Akonés",
    "latitude": 35.25323,
    "longitude": 24.18928,
    "category": "Mountain",
    "subcategory": "Mountain",
    "featured": false,
    "priority": 50
  },
  {
    "geonameId": 265419,
    "name": "Akramýtis",
    "latitude": 36.15898,
    "longitude": 27.76049,
    "category": "Mountain",
    "subcategory": "Mountain",
    "featured": false,
    "priority": 50
  },
  {
    "geonameId": 444957,
    "name": "Ákron",
    "latitude": 39.75222,
    "longitude": 22.50444,
    "category": "Mountain",
    "subcategory": "Mountain",
    "featured": false,
    "priority": 50
  },
  {
    "geonameId": 265407,
    "name": "Akrorákhi",
    "latitude": 39.93333,
    "longitude": 20.38333,
    "category": "Mountain",
    "subcategory": "Mountain",
    "featured": false,
    "priority": 50
  },
  {
    "geonameId": 265406,
    "name": "Ákros",
    "latitude": 37.65428,
    "longitude": 23.12539,
    "category": "Mountain",
    "subcategory": "Mountain",
    "featured": false,
    "priority": 50
  },
  {
    "geonameId": 263218,
    "name": "Alafókastro",
    "latitude": 38.49156,
    "longitude": 22.51475,
    "category": "Mountain",
    "subcategory": "Peak",
    "featured": false,
    "priority": 50
  },
  {
    "geonameId": 11995109,
    "name": "Alatonisi",
    "latitude": 37.39265,
    "longitude": 24.86888,
    "category": "Island",
    "subcategory": "Island",
    "featured": false,
    "priority": 50
  },
  {
    "geonameId": 265372,
    "name": "Alatonísi",
    "latitude": 38.22589,
    "longitude": 22.86522,
    "category": "Island",
    "subcategory": "Island",
    "featured": false,
    "priority": 50
  },
  {
    "geonameId": 265373,
    "name": "Alatsonísi",
    "latitude": 37.53231,
    "longitude": 26.41587,
    "category": "Island",
    "subcategory": "Island",
    "featured": false,
    "priority": 50
  },
  {
    "geonameId": 736932,
    "name": "Alevítsa",
    "latitude": 40.45,
    "longitude": 20.95,
    "category": "Mountain",
    "subcategory": "Peak",
    "featured": false,
    "priority": 50
  },
  {
    "geonameId": 736929,
    "name": "Alexándreia",
    "latitude": 40.62667,
    "longitude": 22.44417,
    "category": "City",
    "subcategory": "District Seat",
    "featured": false,
    "priority": 50
  },
  {
    "geonameId": 862559,
    "name": "Alexandros",
    "latitude": 41.06,
    "longitude": 21.94861,
    "category": "Mountain",
    "subcategory": "Peak",
    "featured": false,
    "priority": 50
  },
  {
    "geonameId": 736928,
    "name": "Alexandroupoli",
    "latitude": 40.84995,
    "longitude": 25.87644,
    "category": "City",
    "subcategory": "County Seat",
    "featured": false,
    "priority": 50
  },
  {
    "geonameId": 736926,
    "name": "Alí Babás",
    "latitude": 41.25,
    "longitude": 23.58333,
    "category": "Mountain",
    "subcategory": "Mountain",
    "featured": false,
    "priority": 50
  },
  {
    "geonameId": 265342,
    "name": "Alíartos",
    "latitude": 38.36667,
    "longitude": 23.1,
    "category": "City",
    "subcategory": "District Seat",
    "featured": false,
    "priority": 50
  },
  {
    "geonameId": 444717,
    "name": "Alifioí",
    "latitude": 38.30933,
    "longitude": 25.97895,
    "category": "Mountain",
    "subcategory": "Peak",
    "featured": false,
    "priority": 50
  },
  {
    "geonameId": 265337,
    "name": "Alikadhám-Khalasokefála",
    "latitude": 35.17339,
    "longitude": 24.87828,
    "category": "Mountain",
    "subcategory": "Mountain",
    "featured": false,
    "priority": 50
  },
  {
    "geonameId": 261614,
    "name": "Álimos",
    "latitude": 37.91033,
    "longitude": 23.72361,
    "category": "City",
    "subcategory": "District Seat",
    "featured": false,
    "priority": 50
  },
  {
    "geonameId": 265309,
    "name": "Alivéri",
    "latitude": 38.41667,
    "longitude": 24.03333,
    "category": "City",
    "subcategory": "District Seat",
    "featured": false,
    "priority": 50
  },
  {
    "geonameId": 265302,
    "name": "Alkyonídes Nísoi",
    "latitude": 38.11311,
    "longitude": 22.98626,
    "category": "Island",
    "subcategory": "Island Group",
    "featured": false,
    "priority": 50
  },
  {
    "geonameId": 8608252,
    "name": "Almyrá Límni",
    "latitude": 35.19065,
    "longitude": 25.71747,
    "category": "Lake",
    "subcategory": "Lake",
    "featured": false,
    "priority": 50
  },
  {
    "geonameId": 10975533,
    "name": "Almyrí Límni",
    "latitude": 38.14872,
    "longitude": 24.05217,
    "category": "Lake",
    "subcategory": "Lake",
    "featured": false,
    "priority": 50
  },
  {
    "geonameId": 264522,
    "name": "Almyronísi",
    "latitude": 36.74663,
    "longitude": 25.25566,
    "category": "Island",
    "subcategory": "Island",
    "featured": false,
    "priority": 50
  },
  {
    "geonameId": 265292,
    "name": "Almyrós",
    "latitude": 39.18222,
    "longitude": 22.75944,
    "category": "City",
    "subcategory": "District Seat",
    "featured": false,
    "priority": 50
  },
  {
    "geonameId": 265283,
    "name": "Alogomándra Kalogírou",
    "latitude": 37.58703,
    "longitude": 23.01805,
    "category": "Mountain",
    "subcategory": "Peak",
    "featured": false,
    "priority": 50
  },
  {
    "geonameId": 265282,
    "name": "Alogomándra Tyrovolá",
    "latitude": 37.58794,
    "longitude": 23.04118,
    "category": "Mountain",
    "subcategory": "Peak",
    "featured": false,
    "priority": 50
  },
  {
    "geonameId": 265281,
    "name": "Alogómandres",
    "latitude": 36.63714,
    "longitude": 22.91033,
    "category": "Mountain",
    "subcategory": "Peak",
    "featured": false,
    "priority": 50
  },
  {
    "geonameId": 265285,
    "name": "Alogonísi",
    "latitude": 39.86612,
    "longitude": 25.21795,
    "category": "Island",
    "subcategory": "Island",
    "featured": false,
    "priority": 50
  },
  {
    "geonameId": 11028909,
    "name": "Alogópetra",
    "latitude": 38.12272,
    "longitude": 23.6668,
    "category": "Mountain",
    "subcategory": "Peak",
    "featured": false,
    "priority": 50
  },
  {
    "geonameId": 265269,
    "name": "Alóna",
    "latitude": 35.03343,
    "longitude": 26.02421,
    "category": "Mountain",
    "subcategory": "Peak",
    "featured": false,
    "priority": 50
  },
  {
    "geonameId": 862578,
    "name": "Alonára",
    "latitude": 41.06361,
    "longitude": 22.51583,
    "category": "Mountain",
    "subcategory": "Peak",
    "featured": false,
    "priority": 50
  },
  {
    "geonameId": 10345875,
    "name": "Alsos Pagkratiou",
    "latitude": 37.96924,
    "longitude": 23.7463,
    "category": "Park",
    "subcategory": "Park",
    "featured": false,
    "priority": 50
  },
  {
    "geonameId": 265256,
    "name": "Amadorós",
    "latitude": 38.92142,
    "longitude": 20.91961,
    "category": "Mountain",
    "subcategory": "Peak",
    "featured": false,
    "priority": 50
  },
  {
    "geonameId": 265252,
    "name": "Amaliáda",
    "latitude": 37.79842,
    "longitude": 21.35068,
    "category": "City",
    "subcategory": "District Seat",
    "featured": false,
    "priority": 50
  },
  {
    "geonameId": 444911,
    "name": "Amaní Óros",
    "latitude": 38.54517,
    "longitude": 25.90158,
    "category": "Mountain",
    "subcategory": "Mountain",
    "featured": false,
    "priority": 50
  },
  {
    "geonameId": 265248,
    "name": "Amárandos",
    "latitude": 35.25,
    "longitude": 24.05,
    "category": "Mountain",
    "subcategory": "Mountain",
    "featured": false,
    "priority": 50
  },
  {
    "geonameId": 265245,
    "name": "Amárynthos",
    "latitude": 38.393,
    "longitude": 23.88492,
    "category": "City",
    "subcategory": "City",
    "featured": false,
    "priority": 50
  },
  {
    "geonameId": 7290287,
    "name": "Ambelákia",
    "latitude": 35.15479,
    "longitude": 24.92626,
    "category": "Mountain",
    "subcategory": "Mountain",
    "featured": false,
    "priority": 50
  },
  {
    "geonameId": 265189,
    "name": "Amfilochía",
    "latitude": 38.85944,
    "longitude": 21.16639,
    "category": "City",
    "subcategory": "District Seat",
    "featured": false,
    "priority": 50
  },
  {
    "geonameId": 265187,
    "name": "Ámfissa",
    "latitude": 38.52813,
    "longitude": 22.37713,
    "category": "City",
    "subcategory": "County Seat",
    "featured": false,
    "priority": 50
  },
  {
    "geonameId": 265165,
    "name": "Amigdhalokorfí",
    "latitude": 35.31667,
    "longitude": 24.2,
    "category": "Mountain",
    "subcategory": "Peak",
    "featured": false,
    "priority": 50
  },
  {
    "geonameId": 736876,
    "name": "Ammoúdes",
    "latitude": 40.43453,
    "longitude": 20.99679,
    "category": "Mountain",
    "subcategory": "Mountain",
    "featured": false,
    "priority": 50
  },
  {
    "geonameId": 265142,
    "name": "Amorgós",
    "latitude": 36.83175,
    "longitude": 25.89821,
    "category": "City",
    "subcategory": "District Seat",
    "featured": false,
    "priority": 50
  },
  {
    "geonameId": 265241,
    "name": "Ampeláki",
    "latitude": 36.8913,
    "longitude": 22.54295,
    "category": "Mountain",
    "subcategory": "Peak",
    "featured": false,
    "priority": 50
  },
  {
    "geonameId": 265240,
    "name": "Ampelákia",
    "latitude": 37.95055,
    "longitude": 23.52803,
    "category": "City",
    "subcategory": "City",
    "featured": false,
    "priority": 50
  },
  {
    "geonameId": 8358616,
    "name": "Ampelókipoi",
    "latitude": 40.65304,
    "longitude": 22.92624,
    "category": "City",
    "subcategory": "District Seat",
    "featured": false,
    "priority": 50
  },
  {
    "geonameId": 265206,
    "name": "Ampelóna",
    "latitude": 39.74481,
    "longitude": 22.36575,
    "category": "City",
    "subcategory": "City",
    "featured": false,
    "priority": 50
  },
  {
    "geonameId": 443747,
    "name": "Ámpelos Óros",
    "latitude": 37.75778,
    "longitude": 26.8,
    "category": "Mountain",
    "subcategory": "Mountain",
    "featured": false,
    "priority": 50
  },
  {
    "geonameId": 444870,
    "name": "Ampelóvounos",
    "latitude": 38.56059,
    "longitude": 26.04668,
    "category": "Mountain",
    "subcategory": "Peak",
    "featured": false,
    "priority": 50
  },
  {
    "geonameId": 265171,
    "name": "Amydaliá",
    "latitude": 38.09072,
    "longitude": 21.89439,
    "category": "Mountain",
    "subcategory": "Mountain",
    "featured": false,
    "priority": 50
  },
  {
    "geonameId": 265169,
    "name": "Amygdalítsa",
    "latitude": 37.08569,
    "longitude": 21.75649,
    "category": "Mountain",
    "subcategory": "Peak",
    "featured": false,
    "priority": 50
  },
  {
    "geonameId": 8521847,
    "name": "Amygdáloi",
    "latitude": 35.42517,
    "longitude": 23.74422,
    "category": "Mountain",
    "subcategory": "Mountain",
    "featured": false,
    "priority": 50
  },
  {
    "geonameId": 736882,
    "name": "Amýntaio",
    "latitude": 40.68967,
    "longitude": 21.67974,
    "category": "City",
    "subcategory": "District Seat",
    "featured": false,
    "priority": 50
  },
  {
    "geonameId": 265133,
    "name": "Anáfi",
    "latitude": 36.35,
    "longitude": 25.76667,
    "category": "City",
    "subcategory": "District Seat",
    "featured": false,
    "priority": 50
  },
  {
    "geonameId": 265384,
    "name": "Anafsovála",
    "latitude": 38.94631,
    "longitude": 23.35291,
    "category": "Mountain",
    "subcategory": "Peak",
    "featured": false,
    "priority": 50
  },
  {
    "geonameId": 265130,
    "name": "Análipsi",
    "latitude": 38.48333,
    "longitude": 21.7,
    "category": "Mountain",
    "subcategory": "Mountain",
    "featured": false,
    "priority": 50
  },
  {
    "geonameId": 265129,
    "name": "Análipsis",
    "latitude": 39.13292,
    "longitude": 21.46567,
    "category": "Mountain",
    "subcategory": "Peak",
    "featured": false,
    "priority": 50
  },
  {
    "geonameId": 265114,
    "name": "Anaskeládes",
    "latitude": 37.13426,
    "longitude": 22.35745,
    "category": "Mountain",
    "subcategory": "Peak",
    "featured": false,
    "priority": 50
  },
  {
    "geonameId": 265111,
    "name": "Anáthema",
    "latitude": 37.47212,
    "longitude": 23.34126,
    "category": "Mountain",
    "subcategory": "Peak",
    "featured": false,
    "priority": 50
  },
  {
    "geonameId": 265107,
    "name": "Anatolí",
    "latitude": 39.63531,
    "longitude": 20.86578,
    "category": "City",
    "subcategory": "City",
    "featured": false,
    "priority": 50
  },
  {
    "geonameId": 265100,
    "name": "Anávyssos",
    "latitude": 37.73414,
    "longitude": 23.94389,
    "category": "City",
    "subcategory": "City",
    "featured": false,
    "priority": 50
  },
  {
    "geonameId": 736850,
    "name": "Andíthonas",
    "latitude": 40.18333,
    "longitude": 24.28333,
    "category": "Mountain",
    "subcategory": "Peak",
    "featured": false,
    "priority": 50
  },
  {
    "geonameId": 8224659,
    "name": "Anemodetis",
    "latitude": 35.2766,
    "longitude": 24.98141,
    "category": "Mountain",
    "subcategory": "Peak",
    "featured": false,
    "priority": 50
  },
  {
    "geonameId": 444708,
    "name": "Anemologás",
    "latitude": 38.28812,
    "longitude": 25.95815,
    "category": "Mountain",
    "subcategory": "Peak",
    "featured": false,
    "priority": 50
  },
  {
    "geonameId": 443615,
    "name": "Anemómyloi",
    "latitude": 37.73183,
    "longitude": 26.76612,
    "category": "Mountain",
    "subcategory": "Peak",
    "featured": false,
    "priority": 50
  },
  {
    "geonameId": 444701,
    "name": "Anevritoúres",
    "latitude": 38.2733,
    "longitude": 25.94034,
    "category": "Mountain",
    "subcategory": "Peak",
    "featured": false,
    "priority": 50
  },
  {
    "geonameId": 265003,
    "name": "Anginarés",
    "latitude": 35.38333,
    "longitude": 24.01667,
    "category": "Mountain",
    "subcategory": "Mountain",
    "featured": false,
    "priority": 50
  },
  {
    "geonameId": 862551,
    "name": "Anna",
    "latitude": 41.03972,
    "longitude": 21.94861,
    "category": "Mountain",
    "subcategory": "Peak",
    "featured": false,
    "priority": 50
  },
  {
    "geonameId": 264977,
    "name": "Annína",
    "latitude": 36.89485,
    "longitude": 22.377,
    "category": "Mountain",
    "subcategory": "Peak",
    "featured": false,
    "priority": 50
  },
  {
    "geonameId": 264975,
    "name": "Ánninos",
    "latitude": 38.67509,
    "longitude": 21.76993,
    "category": "Mountain",
    "subcategory": "Mountain",
    "featured": false,
    "priority": 50
  },
  {
    "geonameId": 264928,
    "name": "Áno Kalentíni",
    "latitude": 39.25,
    "longitude": 21.18528,
    "category": "City",
    "subcategory": "District Seat",
    "featured": false,
    "priority": 50
  },
  {
    "geonameId": 264896,
    "name": "Áno Koromiliá",
    "latitude": 37.20277,
    "longitude": 22.81742,
    "category": "Mountain",
    "subcategory": "Peak",
    "featured": false,
    "priority": 50
  },
  {
    "geonameId": 264888,
    "name": "Áno Liósia",
    "latitude": 38.08333,
    "longitude": 23.7,
    "category": "City",
    "subcategory": "District Seat",
    "featured": false,
    "priority": 50
  },
  {
    "geonameId": 264839,
    "name": "Áno Sýros",
    "latitude": 37.44997,
    "longitude": 24.93562,
    "category": "City",
    "subcategory": "District Seat",
    "featured": false,
    "priority": 50
  },
  {
    "geonameId": 8426975,
    "name": "Anói",
    "latitude": 35.63892,
    "longitude": 23.74472,
    "category": "Mountain",
    "subcategory": "Peak",
    "featured": false,
    "priority": 50
  },
  {
    "geonameId": 264929,
    "name": "Anoixi",
    "latitude": 38.13267,
    "longitude": 23.85874,
    "category": "City",
    "subcategory": "City",
    "featured": false,
    "priority": 50
  },
  {
    "geonameId": 264889,
    "name": "Anolés",
    "latitude": 38.13867,
    "longitude": 21.85653,
    "category": "Mountain",
    "subcategory": "Mountain",
    "featured": false,
    "priority": 50
  },
  {
    "geonameId": 264792,
    "name": "Anthiró",
    "latitude": 39.34722,
    "longitude": 21.45833,
    "category": "City",
    "subcategory": "District Seat",
    "featured": false,
    "priority": 50
  },
  {
    "geonameId": 264777,
    "name": "Anthropólithos",
    "latitude": 35.32983,
    "longitude": 24.02804,
    "category": "Mountain",
    "subcategory": "Mountain",
    "featured": false,
    "priority": 50
  },
  {
    "geonameId": 265075,
    "name": "Antíparos",
    "latitude": 37.0394,
    "longitude": 25.08258,
    "category": "City",
    "subcategory": "District Seat",
    "featured": false,
    "priority": 50
  },
  {
    "geonameId": 413535,
    "name": "Apáno Nisiá",
    "latitude": 37.00505,
    "longitude": 26.88516,
    "category": "Island",
    "subcategory": "Island",
    "featured": false,
    "priority": 50
  },
  {
    "geonameId": 264744,
    "name": "Apopigádi",
    "latitude": 35.33908,
    "longitude": 23.79426,
    "category": "Mountain",
    "subcategory": "Mountain",
    "featured": false,
    "priority": 50
  },
  {
    "geonameId": 264718,
    "name": "Arachnaío Óros",
    "latitude": 37.66353,
    "longitude": 22.97008,
    "category": "Mountain",
    "subcategory": "Mountain",
    "featured": false,
    "priority": 50
  },
  {
    "geonameId": 254390,
    "name": "Araión",
    "latitude": 39.19389,
    "longitude": 20.77139,
    "category": "Mountain",
    "subcategory": "Mountain",
    "featured": false,
    "priority": 50
  },
  {
    "geonameId": 264707,
    "name": "Arákynthos Óros",
    "latitude": 38.43905,
    "longitude": 21.49161,
    "category": "Mountain",
    "subcategory": "Mountain",
    "featured": false,
    "priority": 50
  },
  {
    "geonameId": 264696,
    "name": "Aravíkia",
    "latitude": 36.64534,
    "longitude": 22.46535,
    "category": "Mountain",
    "subcategory": "Mountain",
    "featured": false,
    "priority": 50
  },
  {
    "geonameId": 264637,
    "name": "Archaía Olympía",
    "latitude": 37.64788,
    "longitude": 21.6271,
    "category": "City",
    "subcategory": "City",
    "featured": false,
    "priority": 50
  },
  {
    "geonameId": 408686,
    "name": "Archángelos",
    "latitude": 36.21492,
    "longitude": 28.11487,
    "category": "City",
    "subcategory": "City",
    "featured": false,
    "priority": 50
  },
  {
    "geonameId": 411448,
    "name": "Archontóniso",
    "latitude": 38.50691,
    "longitude": 26.26223,
    "category": "Island",
    "subcategory": "Island",
    "featured": false,
    "priority": 50
  },
  {
    "geonameId": 264686,
    "name": "Ardínis",
    "latitude": 38.62707,
    "longitude": 21.85518,
    "category": "Mountain",
    "subcategory": "Peak",
    "featured": false,
    "priority": 50
  },
  {
    "geonameId": 264677,
    "name": "Argalastí",
    "latitude": 39.22627,
    "longitude": 23.21868,
    "category": "City",
    "subcategory": "District Seat",
    "featured": false,
    "priority": 50
  },
  {
    "geonameId": 264670,
    "name": "Árgos",
    "latitude": 37.63333,
    "longitude": 22.73333,
    "category": "City",
    "subcategory": "District Seat",
    "featured": false,
    "priority": 50
  },
  {
    "geonameId": 736754,
    "name": "Argos Orestiko",
    "latitude": 40.45354,
    "longitude": 21.25889,
    "category": "City",
    "subcategory": "District Seat",
    "featured": false,
    "priority": 50
  },
  {
    "geonameId": 264668,
    "name": "Argostólion",
    "latitude": 38.18109,
    "longitude": 20.48903,
    "category": "City",
    "subcategory": "County Seat",
    "featured": false,
    "priority": 50
  },
  {
    "geonameId": 264516,
    "name": "Argyroúpoli",
    "latitude": 37.90594,
    "longitude": 23.75035,
    "category": "City",
    "subcategory": "District Seat",
    "featured": false,
    "priority": 50
  },
  {
    "geonameId": 736753,
    "name": "Aridaía",
    "latitude": 40.97306,
    "longitude": 22.05639,
    "category": "City",
    "subcategory": "District Seat",
    "featured": false,
    "priority": 50
  },
  {
    "geonameId": 255162,
    "name": "Arkaliés",
    "latitude": 35.23431,
    "longitude": 23.76669,
    "category": "Mountain",
    "subcategory": "Peak",
    "featured": false,
    "priority": 50
  },
  {
    "geonameId": 264642,
    "name": "Arkalochóri",
    "latitude": 35.14634,
    "longitude": 25.26538,
    "category": "City",
    "subcategory": "City",
    "featured": false,
    "priority": 50
  },
  {
    "geonameId": 264611,
    "name": "Arkoudiás",
    "latitude": 36.98677,
    "longitude": 22.38063,
    "category": "Mountain",
    "subcategory": "Mountain",
    "featured": false,
    "priority": 50
  },
  {
    "geonameId": 11029757,
    "name": "Árma",
    "latitude": 38.14139,
    "longitude": 23.66029,
    "category": "Mountain",
    "subcategory": "Peak",
    "featured": false,
    "priority": 50
  },
  {
    "geonameId": 443729,
    "name": "Armakás",
    "latitude": 37.72458,
    "longitude": 26.99303,
    "category": "Mountain",
    "subcategory": "Peak",
    "featured": false,
    "priority": 50
  },
  {
    "geonameId": 8522746,
    "name": "Armós",
    "latitude": 35.2741,
    "longitude": 23.78757,
    "category": "Mountain",
    "subcategory": "Mountain",
    "featured": false,
    "priority": 50
  },
  {
    "geonameId": 736727,
    "name": "Arrianá",
    "latitude": 41.08131,
    "longitude": 25.69494,
    "category": "City",
    "subcategory": "City",
    "featured": false,
    "priority": 50
  },
  {
    "geonameId": 264559,
    "name": "Árta",
    "latitude": 39.16014,
    "longitude": 20.98561,
    "category": "City",
    "subcategory": "County Seat",
    "featured": false,
    "priority": 50
  },
  {
    "geonameId": 264557,
    "name": "Artazinós",
    "latitude": 37.64458,
    "longitude": 22.02463,
    "category": "Mountain",
    "subcategory": "Peak",
    "featured": false,
    "priority": 50
  },
  {
    "geonameId": 258038,
    "name": "Artémida",
    "latitude": 37.96727,
    "longitude": 23.99684,
    "category": "City",
    "subcategory": "City",
    "featured": false,
    "priority": 50
  },
  {
    "geonameId": 264549,
    "name": "Artemísio Óros",
    "latitude": 37.61969,
    "longitude": 22.51438,
    "category": "Mountain",
    "subcategory": "Mountain",
    "featured": false,
    "priority": 50
  },
  {
    "geonameId": 413472,
    "name": "Artikonísi",
    "latitude": 36.52013,
    "longitude": 27.87012,
    "category": "Island",
    "subcategory": "Island",
    "featured": false,
    "priority": 50
  },
  {
    "geonameId": 264542,
    "name": "Artoúfa",
    "latitude": 38.78333,
    "longitude": 20.95,
    "category": "Mountain",
    "subcategory": "Peak",
    "featured": false,
    "priority": 50
  },
  {
    "geonameId": 264504,
    "name": "Asfentiliás",
    "latitude": 34.99505,
    "longitude": 25.21346,
    "category": "Mountain",
    "subcategory": "Mountain",
    "featured": false,
    "priority": 50
  },
  {
    "geonameId": 264503,
    "name": "Ásiata",
    "latitude": 36.85373,
    "longitude": 22.51632,
    "category": "Mountain",
    "subcategory": "Peak",
    "featured": false,
    "priority": 50
  },
  {
    "geonameId": 253853,
    "name": "Asími Óros",
    "latitude": 39.27278,
    "longitude": 21.46028,
    "category": "Mountain",
    "subcategory": "Mountain",
    "featured": false,
    "priority": 50
  },
  {
    "geonameId": 264496,
    "name": "Asíni",
    "latitude": 37.54431,
    "longitude": 22.86435,
    "category": "City",
    "subcategory": "City",
    "featured": false,
    "priority": 50
  },
  {
    "geonameId": 10630469,
    "name": "Askyfiotikos Soros",
    "latitude": 35.31576,
    "longitude": 24.07877,
    "category": "Mountain",
    "subcategory": "Mountain",
    "featured": false,
    "priority": 50
  },
  {
    "geonameId": 8473268,
    "name": "Aslakokéfalo",
    "latitude": 35.42902,
    "longitude": 23.60556,
    "category": "Mountain",
    "subcategory": "Mountain",
    "featured": false,
    "priority": 50
  },
  {
    "geonameId": 8224724,
    "name": "Aspartos",
    "latitude": 35.27032,
    "longitude": 24.80228,
    "category": "Mountain",
    "subcategory": "Peak",
    "featured": false,
    "priority": 50
  },
  {
    "geonameId": 8427333,
    "name": "Aspós",
    "latitude": 35.44848,
    "longitude": 23.87428,
    "category": "Mountain",
    "subcategory": "Mountain",
    "featured": false,
    "priority": 50
  },
  {
    "geonameId": 264472,
    "name": "Asprángeloi",
    "latitude": 39.82328,
    "longitude": 20.72862,
    "category": "City",
    "subcategory": "District Seat",
    "featured": false,
    "priority": 50
  },
  {
    "geonameId": 736710,
    "name": "Áspri Pétra",
    "latitude": 40.38333,
    "longitude": 20.98333,
    "category": "Mountain",
    "subcategory": "Mountain",
    "featured": false,
    "priority": 50
  },
  {
    "geonameId": 264453,
    "name": "Asprochortiás",
    "latitude": 36.94606,
    "longitude": 22.82281,
    "category": "Mountain",
    "subcategory": "Peak",
    "featured": false,
    "priority": 50
  },
  {
    "geonameId": 264450,
    "name": "Aspronísi",
    "latitude": 36.38336,
    "longitude": 25.34771,
    "category": "Island",
    "subcategory": "Island",
    "featured": false,
    "priority": 50
  },
  {
    "geonameId": 10987965,
    "name": "Aspronísia",
    "latitude": 37.91847,
    "longitude": 24.03903,
    "category": "Island",
    "subcategory": "Island Group",
    "featured": false,
    "priority": 50
  },
  {
    "geonameId": 412040,
    "name": "Aspronísos",
    "latitude": 39.29774,
    "longitude": 26.43569,
    "category": "Island",
    "subcategory": "Island",
    "featured": false,
    "priority": 50
  },
  {
    "geonameId": 264445,
    "name": "Asprópyrgos",
    "latitude": 38.06134,
    "longitude": 23.58971,
    "category": "City",
    "subcategory": "District Seat",
    "featured": false,
    "priority": 50
  },
  {
    "geonameId": 263499,
    "name": "Asprovoúni",
    "latitude": 37.43673,
    "longitude": 23.23123,
    "category": "Mountain",
    "subcategory": "Peak",
    "featured": false,
    "priority": 50
  },
  {
    "geonameId": 264416,
    "name": "Astakós",
    "latitude": 38.53556,
    "longitude": 21.08135,
    "category": "City",
    "subcategory": "City",
    "featured": false,
    "priority": 50
  },
  {
    "geonameId": 264413,
    "name": "Astéri",
    "latitude": 37.88736,
    "longitude": 20.67517,
    "category": "Mountain",
    "subcategory": "Mountain",
    "featured": false,
    "priority": 50
  },
  {
    "geonameId": 264405,
    "name": "Astráka",
    "latitude": 39.97042,
    "longitude": 20.76725,
    "category": "Mountain",
    "subcategory": "Peak",
    "featured": false,
    "priority": 50
  },
  {
    "geonameId": 736691,
    "name": "Astrapokamméno Pévko",
    "latitude": 40.11667,
    "longitude": 23.85,
    "category": "Mountain",
    "subcategory": "Mountain",
    "featured": false,
    "priority": 50
  },
  {
    "geonameId": 264397,
    "name": "Astropeléki",
    "latitude": 36.81528,
    "longitude": 22.80942,
    "category": "Mountain",
    "subcategory": "Peak",
    "featured": false,
    "priority": 50
  },
  {
    "geonameId": 264408,
    "name": "Astypálaia",
    "latitude": 36.55,
    "longitude": 26.35,
    "category": "City",
    "subcategory": "District Seat",
    "featured": false,
    "priority": 50
  },
  {
    "geonameId": 736687,
    "name": "Asvestochóri",
    "latitude": 40.64125,
    "longitude": 23.02528,
    "category": "City",
    "subcategory": "City",
    "featured": false,
    "priority": 50
  },
  {
    "geonameId": 8224725,
    "name": "Asxhmomoura",
    "latitude": 35.28013,
    "longitude": 24.78936,
    "category": "Mountain",
    "subcategory": "Peak",
    "featured": false,
    "priority": 50
  },
  {
    "geonameId": 264390,
    "name": "Atalánti",
    "latitude": 38.65111,
    "longitude": 22.99917,
    "category": "City",
    "subcategory": "District Seat",
    "featured": false,
    "priority": 50
  },
  {
    "geonameId": 264385,
    "name": "Atávyros Óros",
    "latitude": 36.18739,
    "longitude": 27.84772,
    "category": "Mountain",
    "subcategory": "Mountain",
    "featured": false,
    "priority": 50
  },
  {
    "geonameId": 264371,
    "name": "Athens",
    "latitude": 37.98376,
    "longitude": 23.72784,
    "category": "City",
    "subcategory": "Capital",
    "featured": false,
    "priority": 50
  },
  {
    "geonameId": 264359,
    "name": "Atsipópoulo",
    "latitude": 35.35253,
    "longitude": 24.43378,
    "category": "City",
    "subcategory": "City",
    "featured": false,
    "priority": 50
  },
  {
    "geonameId": 9036476,
    "name": "Attikó Álsos",
    "latitude": 38.00357,
    "longitude": 23.75781,
    "category": "Park",
    "subcategory": "Park",
    "featured": false,
    "priority": 50
  },
  {
    "geonameId": 6697240,
    "name": "Avgo",
    "latitude": 39.92507,
    "longitude": 21.0959,
    "category": "Mountain",
    "subcategory": "Mountain",
    "featured": false,
    "priority": 50
  },
  {
    "geonameId": 264338,
    "name": "Avgó",
    "latitude": 38.22908,
    "longitude": 20.66872,
    "category": "Mountain",
    "subcategory": "Peak",
    "featured": false,
    "priority": 50
  },
  {
    "geonameId": 8139208,
    "name": "Avlomóni",
    "latitude": 37.62399,
    "longitude": 25.20866,
    "category": "Mountain",
    "subcategory": "Peak",
    "featured": false,
    "priority": 50
  },
  {
    "geonameId": 264266,
    "name": "Ayía Elésa",
    "latitude": 36.16321,
    "longitude": 22.96765,
    "category": "Mountain",
    "subcategory": "Mountain",
    "featured": false,
    "priority": 50
  },
  {
    "geonameId": 264169,
    "name": "Ayía Pelayía",
    "latitude": 36.51191,
    "longitude": 22.42031,
    "category": "Mountain",
    "subcategory": "Peak",
    "featured": false,
    "priority": 50
  },
  {
    "geonameId": 263854,
    "name": "Áyios Konstandínos",
    "latitude": 38.63337,
    "longitude": 21.3995,
    "category": "City",
    "subcategory": "City",
    "featured": false,
    "priority": 50
  },
  {
    "geonameId": 11746426,
    "name": "Ayios Nikolaos",
    "latitude": 38.34716,
    "longitude": 22.15713,
    "category": "Island",
    "subcategory": "Island",
    "featured": false,
    "priority": 50
  },
  {
    "geonameId": 263679,
    "name": "Áyios Yeóryios",
    "latitude": 35.31463,
    "longitude": 25.58879,
    "category": "Mountain",
    "subcategory": "Peak",
    "featured": false,
    "priority": 50
  },
  {
    "geonameId": 8469354,
    "name": "Baïráki",
    "latitude": 35.42134,
    "longitude": 23.584,
    "category": "Mountain",
    "subcategory": "Mountain",
    "featured": false,
    "priority": 50
  },
  {
    "geonameId": 443721,
    "name": "Baïraktári",
    "latitude": 37.7389,
    "longitude": 26.97002,
    "category": "Mountain",
    "subcategory": "Peak",
    "featured": false,
    "priority": 50
  },
  {
    "geonameId": 6697254,
    "name": "BAITANI PERIVOLI",
    "latitude": 39.98278,
    "longitude": 21.07161,
    "category": "Park",
    "subcategory": "Nature Reserve",
    "featured": false,
    "priority": 50
  },
  {
    "geonameId": 263528,
    "name": "Balasinítsa",
    "latitude": 37.29251,
    "longitude": 22.77683,
    "category": "Mountain",
    "subcategory": "Peak",
    "featured": false,
    "priority": 50
  },
  {
    "geonameId": 792958,
    "name": "Baltan",
    "latitude": 40.88417,
    "longitude": 21.20833,
    "category": "Mountain",
    "subcategory": "Mountain",
    "featured": false,
    "priority": 50
  },
  {
    "geonameId": 11045508,
    "name": "Baráko",
    "latitude": 37.83634,
    "longitude": 23.83622,
    "category": "Mountain",
    "subcategory": "Peak",
    "featured": false,
    "priority": 50
  },
  {
    "geonameId": 263498,
    "name": "Bárdhi Máli",
    "latitude": 39.48333,
    "longitude": 20.35,
    "category": "Mountain",
    "subcategory": "Peak",
    "featured": false,
    "priority": 50
  },
  {
    "geonameId": 257635,
    "name": "Barmpás",
    "latitude": 38.16667,
    "longitude": 21.96667,
    "category": "Mountain",
    "subcategory": "Mountain",
    "featured": false,
    "priority": 50
  },
  {
    "geonameId": 263494,
    "name": "Barmpéri",
    "latitude": 37.62313,
    "longitude": 22.42363,
    "category": "Mountain",
    "subcategory": "Peak",
    "featured": false,
    "priority": 50
  },
  {
    "geonameId": 416311,
    "name": "Başak Adası",
    "latitude": 36.13174,
    "longitude": 29.65094,
    "category": "Island",
    "subcategory": "Island",
    "featured": false,
    "priority": 50
  },
  {
    "geonameId": 263486,
    "name": "Bastoúna",
    "latitude": 37.41206,
    "longitude": 22.53365,
    "category": "Mountain",
    "subcategory": "Peak",
    "featured": false,
    "priority": 50
  },
  {
    "geonameId": 263478,
    "name": "Belekhéri",
    "latitude": 36.94945,
    "longitude": 22.86169,
    "category": "Mountain",
    "subcategory": "Peak",
    "featured": false,
    "priority": 50
  },
  {
    "geonameId": 11919962,
    "name": "Beletsi",
    "latitude": 38.21301,
    "longitude": 23.80499,
    "category": "Lake",
    "subcategory": "Lake",
    "featured": false,
    "priority": 50
  },
  {
    "geonameId": 263476,
    "name": "Béletsi",
    "latitude": 38.21701,
    "longitude": 23.8148,
    "category": "Mountain",
    "subcategory": "Peak",
    "featured": false,
    "priority": 50
  },
  {
    "geonameId": 736543,
    "name": "Bélla Vódha",
    "latitude": 40.81667,
    "longitude": 21.23333,
    "category": "Mountain",
    "subcategory": "Peak",
    "featured": false,
    "priority": 50
  },
  {
    "geonameId": 736549,
    "name": "Belo Grotlo",
    "latitude": 40.9882,
    "longitude": 21.82003,
    "category": "Mountain",
    "subcategory": "Mountain",
    "featured": false,
    "priority": 50
  },
  {
    "geonameId": 8426832,
    "name": "Benianá",
    "latitude": 35.48029,
    "longitude": 23.71729,
    "category": "Mountain",
    "subcategory": "Mountain",
    "featured": false,
    "priority": 50
  },
  {
    "geonameId": 263467,
    "name": "Benzeveliós",
    "latitude": 39.29833,
    "longitude": 20.42417,
    "category": "Mountain",
    "subcategory": "Peak",
    "featured": false,
    "priority": 50
  },
  {
    "geonameId": 263462,
    "name": "Betoíki",
    "latitude": 37.29763,
    "longitude": 21.90167,
    "category": "Mountain",
    "subcategory": "Peak",
    "featured": false,
    "priority": 50
  },
  {
    "geonameId": 263456,
    "name": "Birmpilió",
    "latitude": 39.01419,
    "longitude": 22.00983,
    "category": "Mountain",
    "subcategory": "Mountain",
    "featured": false,
    "priority": 50
  },
  {
    "geonameId": 11498324,
    "name": "Bíth Stámna",
    "latitude": 37.24985,
    "longitude": 23.11858,
    "category": "Mountain",
    "subcategory": "Peak",
    "featured": false,
    "priority": 50
  },
  {
    "geonameId": 792555,
    "name": "Blatec",
    "latitude": 41.14521,
    "longitude": 22.04576,
    "category": "Mountain",
    "subcategory": "Mountain",
    "featured": false,
    "priority": 50
  },
  {
    "geonameId": 263444,
    "name": "Blesívos",
    "latitude": 37.54295,
    "longitude": 22.15886,
    "category": "Mountain",
    "subcategory": "Peak",
    "featured": false,
    "priority": 50
  },
  {
    "geonameId": 11034872,
    "name": "Bléta",
    "latitude": 38.15784,
    "longitude": 23.32659,
    "category": "Mountain",
    "subcategory": "Peak",
    "featured": false,
    "priority": 50
  },
  {
    "geonameId": 736537,
    "name": "Bodháyista",
    "latitude": 40.73333,
    "longitude": 21.16667,
    "category": "Mountain",
    "subcategory": "Mountain",
    "featured": false,
    "priority": 50
  },
  {
    "geonameId": 736535,
    "name": "Bogdáni",
    "latitude": 40.09891,
    "longitude": 20.98958,
    "category": "Mountain",
    "subcategory": "Peak",
    "featured": false,
    "priority": 50
  },
  {
    "geonameId": 263431,
    "name": "Bompiás",
    "latitude": 35.41043,
    "longitude": 24.97177,
    "category": "Mountain",
    "subcategory": "Mountain",
    "featured": false,
    "priority": 50
  },
  {
    "geonameId": 736532,
    "name": "Botsára",
    "latitude": 40.81667,
    "longitude": 21.2,
    "category": "Mountain",
    "subcategory": "Peak",
    "featured": false,
    "priority": 50
  },
  {
    "geonameId": 11034601,
    "name": "Boúfis",
    "latitude": 38.09933,
    "longitude": 23.36684,
    "category": "Mountain",
    "subcategory": "Peak",
    "featured": false,
    "priority": 50
  },
  {
    "geonameId": 263416,
    "name": "Boúfovo",
    "latitude": 37.24403,
    "longitude": 22.76965,
    "category": "Mountain",
    "subcategory": "Peak",
    "featured": false,
    "priority": 50
  },
  {
    "geonameId": 263411,
    "name": "Boukouméra",
    "latitude": 38.13119,
    "longitude": 21.95214,
    "category": "Mountain",
    "subcategory": "Peak",
    "featured": false,
    "priority": 50
  },
  {
    "geonameId": 263405,
    "name": "Boúmistos",
    "latitude": 38.7306,
    "longitude": 21.03183,
    "category": "Mountain",
    "subcategory": "Mountain",
    "featured": false,
    "priority": 50
  },
  {
    "geonameId": 9612224,
    "name": "Boúntes",
    "latitude": 36.75347,
    "longitude": 24.45221,
    "category": "Island",
    "subcategory": "Island Group",
    "featured": false,
    "priority": 50
  },
  {
    "geonameId": 263402,
    "name": "Boúra",
    "latitude": 37.16667,
    "longitude": 21.80085,
    "category": "Mountain",
    "subcategory": "Peak",
    "featured": false,
    "priority": 50
  },
  {
    "geonameId": 263401,
    "name": "Bourbadhokefála",
    "latitude": 35.38333,
    "longitude": 23.9,
    "category": "Mountain",
    "subcategory": "Mountain",
    "featured": false,
    "priority": 50
  },
  {
    "geonameId": 443662,
    "name": "Bourniás",
    "latitude": 37.66157,
    "longitude": 26.80786,
    "category": "Mountain",
    "subcategory": "Peak",
    "featured": false,
    "priority": 50
  },
  {
    "geonameId": 736526,
    "name": "Boútsi",
    "latitude": 40.65,
    "longitude": 21.13333,
    "category": "Mountain",
    "subcategory": "Mountain",
    "featured": false,
    "priority": 50
  },
  {
    "geonameId": 11035017,
    "name": "Bouzoúreza",
    "latitude": 38.19933,
    "longitude": 23.40438,
    "category": "Mountain",
    "subcategory": "Peak",
    "featured": false,
    "priority": 50
  },
  {
    "geonameId": 736524,
    "name": "Boz Dag",
    "latitude": 41.31667,
    "longitude": 24.08333,
    "category": "Mountain",
    "subcategory": "Mountain",
    "featured": false,
    "priority": 50
  },
  {
    "geonameId": 736523,
    "name": "Brésnitsa",
    "latitude": 40.65,
    "longitude": 21.15,
    "category": "Mountain",
    "subcategory": "Mountain",
    "featured": false,
    "priority": 50
  },
  {
    "geonameId": 10672258,
    "name": "Breznik",
    "latitude": 41.13068,
    "longitude": 22.32672,
    "category": "Mountain",
    "subcategory": "Peak",
    "featured": false,
    "priority": 50
  },
  {
    "geonameId": 254685,
    "name": "Briniás",
    "latitude": 35.15143,
    "longitude": 26.12935,
    "category": "Mountain",
    "subcategory": "Peak",
    "featured": false,
    "priority": 50
  },
  {
    "geonameId": 263367,
    "name": "Bríniza",
    "latitude": 36.97773,
    "longitude": 22.72804,
    "category": "Mountain",
    "subcategory": "Peak",
    "featured": false,
    "priority": 50
  },
  {
    "geonameId": 263454,
    "name": "Býrza",
    "latitude": 38.0699,
    "longitude": 23.90634,
    "category": "Mountain",
    "subcategory": "Peak",
    "featured": false,
    "priority": 50
  },
  {
    "geonameId": 260183,
    "name": "Chaïdári",
    "latitude": 38.01135,
    "longitude": 23.66597,
    "category": "City",
    "subcategory": "District Seat",
    "featured": false,
    "priority": 50
  },
  {
    "geonameId": 736516,
    "name": "Chál Dág",
    "latitude": 41.13333,
    "longitude": 24.5,
    "category": "Mountain",
    "subcategory": "Mountain",
    "featured": false,
    "priority": 50
  },
  {
    "geonameId": 260171,
    "name": "Chalandrítsa",
    "latitude": 38.10843,
    "longitude": 21.78349,
    "category": "City",
    "subcategory": "District Seat",
    "featured": false,
    "priority": 50
  },
  {
    "geonameId": 260170,
    "name": "Chalára",
    "latitude": 35.31639,
    "longitude": 24.21976,
    "category": "Mountain",
    "subcategory": "Mountain",
    "featured": false,
    "priority": 50
  },
  {
    "geonameId": 8473264,
    "name": "Chalári",
    "latitude": 35.38452,
    "longitude": 23.57131,
    "category": "Mountain",
    "subcategory": "Mountain",
    "featured": false,
    "priority": 50
  },
  {
    "geonameId": 8430203,
    "name": "Chálaros",
    "latitude": 35.57741,
    "longitude": 24.14664,
    "category": "Mountain",
    "subcategory": "Mountain",
    "featured": false,
    "priority": 50
  },
  {
    "geonameId": 261916,
    "name": "Chalasména",
    "latitude": 39.7,
    "longitude": 21.04667,
    "category": "Mountain",
    "subcategory": "Mountain",
    "featured": false,
    "priority": 50
  },
  {
    "geonameId": 260164,
    "name": "Chalasméno",
    "latitude": 36.95434,
    "longitude": 22.31115,
    "category": "Mountain",
    "subcategory": "Peak",
    "featured": false,
    "priority": 50
  },
  {
    "geonameId": 734622,
    "name": "Chalástra",
    "latitude": 40.62643,
    "longitude": 22.73291,
    "category": "City",
    "subcategory": "City",
    "featured": false,
    "priority": 50
  },
  {
    "geonameId": 260165,
    "name": "Chalavé",
    "latitude": 35.39346,
    "longitude": 24.04434,
    "category": "Mountain",
    "subcategory": "Mountain",
    "featured": false,
    "priority": 50
  },
  {
    "geonameId": 8609304,
    "name": "Chalavrás",
    "latitude": 35.13834,
    "longitude": 26.1646,
    "category": "Mountain",
    "subcategory": "Peak",
    "featured": false,
    "priority": 50
  },
  {
    "geonameId": 8376139,
    "name": "Chalépa",
    "latitude": 35.47035,
    "longitude": 23.60818,
    "category": "Mountain",
    "subcategory": "Mountain",
    "featured": false,
    "priority": 50
  },
  {
    "geonameId": 442624,
    "name": "Chalió",
    "latitude": 38.24094,
    "longitude": 20.48761,
    "category": "Mountain",
    "subcategory": "Mountain",
    "featured": false,
    "priority": 50
  },
  {
    "geonameId": 260145,
    "name": "Chálki",
    "latitude": 36.22243,
    "longitude": 27.61191,
    "category": "City",
    "subcategory": "District Seat",
    "featured": false,
    "priority": 50
  },
  {
    "geonameId": 260133,
    "name": "Chalkída",
    "latitude": 38.46354,
    "longitude": 23.60284,
    "category": "City",
    "subcategory": "County Seat",
    "featured": false,
    "priority": 50
  },
  {
    "geonameId": 735803,
    "name": "Chalkidóna",
    "latitude": 40.73184,
    "longitude": 22.59992,
    "category": "City",
    "subcategory": "City",
    "featured": false,
    "priority": 50
  },
  {
    "geonameId": 260130,
    "name": "Chalkoú",
    "latitude": 36.66999,
    "longitude": 23.01771,
    "category": "Mountain",
    "subcategory": "Peak",
    "featured": false,
    "priority": 50
  },
  {
    "geonameId": 260114,
    "name": "Chaniá",
    "latitude": 35.51124,
    "longitude": 24.02921,
    "category": "City",
    "subcategory": "County Seat",
    "featured": false,
    "priority": 50
  },
  {
    "geonameId": 8224756,
    "name": "Charkias",
    "latitude": 35.22445,
    "longitude": 24.82558,
    "category": "Mountain",
    "subcategory": "Peak",
    "featured": false,
    "priority": 50
  },
  {
    "geonameId": 8436785,
    "name": "Charkos",
    "latitude": 38.51543,
    "longitude": 26.01532,
    "category": "Mountain",
    "subcategory": "Peak",
    "featured": false,
    "priority": 50
  },
  {
    "geonameId": 260051,
    "name": "Charváti",
    "latitude": 37.74036,
    "longitude": 22.76854,
    "category": "Mountain",
    "subcategory": "Mountain",
    "featured": false,
    "priority": 50
  },
  {
    "geonameId": 260046,
    "name": "Chasioú Koryfí",
    "latitude": 35.27241,
    "longitude": 23.63796,
    "category": "Mountain",
    "subcategory": "Peak",
    "featured": false,
    "priority": 50
  },
  {
    "geonameId": 261831,
    "name": "Chatzí",
    "latitude": 39.40953,
    "longitude": 21.33475,
    "category": "Mountain",
    "subcategory": "Mountain",
    "featured": false,
    "priority": 50
  },
  {
    "geonameId": 260038,
    "name": "Chavalás",
    "latitude": 36.69461,
    "longitude": 22.88338,
    "category": "Mountain",
    "subcategory": "Mountain",
    "featured": false,
    "priority": 50
  },
  {
    "geonameId": 260022,
    "name": "Chelidóna",
    "latitude": 38.81667,
    "longitude": 21.68333,
    "category": "Mountain",
    "subcategory": "Mountain",
    "featured": false,
    "priority": 50
  },
  {
    "geonameId": 260017,
    "name": "Chelidovoúni",
    "latitude": 37.15006,
    "longitude": 22.52482,
    "category": "Mountain",
    "subcategory": "Peak",
    "featured": false,
    "priority": 50
  },
  {
    "geonameId": 265317,
    "name": "Chelóna",
    "latitude": 39.11833,
    "longitude": 21.26611,
    "category": "Mountain",
    "subcategory": "Peak",
    "featured": false,
    "priority": 50
  },
  {
    "geonameId": 8427375,
    "name": "Cherókampos",
    "latitude": 35.45,
    "longitude": 23.94192,
    "category": "Mountain",
    "subcategory": "Mountain",
    "featured": false,
    "priority": 50
  },
  {
    "geonameId": 260004,
    "name": "Cheróvouno",
    "latitude": 38.34272,
    "longitude": 22.78667,
    "category": "Mountain",
    "subcategory": "Peak",
    "featured": false,
    "priority": 50
  },
  {
    "geonameId": 260002,
    "name": "Chersonísi",
    "latitude": 38.02389,
    "longitude": 24.28742,
    "category": "Island",
    "subcategory": "Island",
    "featured": false,
    "priority": 50
  },
  {
    "geonameId": 259979,
    "name": "Chionáki",
    "latitude": 39.08917,
    "longitude": 21.35972,
    "category": "Mountain",
    "subcategory": "Mountain",
    "featured": false,
    "priority": 50
  },
  {
    "geonameId": 259977,
    "name": "Chióni",
    "latitude": 37.92806,
    "longitude": 22.46874,
    "category": "Mountain",
    "subcategory": "Peak",
    "featured": false,
    "priority": 50
  },
  {
    "geonameId": 259975,
    "name": "Chioniás",
    "latitude": 38.56556,
    "longitude": 22.28297,
    "category": "Mountain",
    "subcategory": "Peak",
    "featured": false,
    "priority": 50
  },
  {
    "geonameId": 259974,
    "name": "Chionovoúni",
    "latitude": 36.94944,
    "longitude": 22.93078,
    "category": "Mountain",
    "subcategory": "Mountain",
    "featured": false,
    "priority": 50
  },
  {
    "geonameId": 259973,
    "name": "Chios",
    "latitude": 38.36875,
    "longitude": 26.13718,
    "category": "City",
    "subcategory": "County Seat",
    "featured": false,
    "priority": 50
  },
  {
    "geonameId": 259957,
    "name": "Chlomó",
    "latitude": 38.6,
    "longitude": 23,
    "category": "Mountain",
    "subcategory": "Mountain",
    "featured": false,
    "priority": 50
  },
  {
    "geonameId": 260003,
    "name": "Choironísi",
    "latitude": 37.37091,
    "longitude": 25.26331,
    "category": "Island",
    "subcategory": "Island",
    "featured": false,
    "priority": 50
  },
  {
    "geonameId": 259949,
    "name": "Cholargós",
    "latitude": 38,
    "longitude": 23.8,
    "category": "City",
    "subcategory": "District Seat",
    "featured": false,
    "priority": 50
  },
  {
    "geonameId": 736109,
    "name": "Cholomón Óros",
    "latitude": 40.45922,
    "longitude": 23.51746,
    "category": "Mountain",
    "subcategory": "Mountain",
    "featured": false,
    "priority": 50
  },
  {
    "geonameId": 259947,
    "name": "Chómalis",
    "latitude": 35.49964,
    "longitude": 27.14608,
    "category": "Mountain",
    "subcategory": "Peak",
    "featured": false,
    "priority": 50
  },
  {
    "geonameId": 862579,
    "name": "Chondrós",
    "latitude": 41.04639,
    "longitude": 22.35528,
    "category": "Mountain",
    "subcategory": "Peak",
    "featured": false,
    "priority": 50
  },
  {
    "geonameId": 8426827,
    "name": "Chontrádi",
    "latitude": 35.46238,
    "longitude": 23.7342,
    "category": "Mountain",
    "subcategory": "Mountain",
    "featured": false,
    "priority": 50
  },
  {
    "geonameId": 443579,
    "name": "Chontró Vouní",
    "latitude": 37.74679,
    "longitude": 26.69044,
    "category": "Mountain",
    "subcategory": "Mountain",
    "featured": false,
    "priority": 50
  },
  {
    "geonameId": 259912,
    "name": "Chóra Sfakíon",
    "latitude": 35.20176,
    "longitude": 24.13711,
    "category": "City",
    "subcategory": "District Seat",
    "featured": false,
    "priority": 50
  },
  {
    "geonameId": 11498327,
    "name": "Chorafáki",
    "latitude": 37.24409,
    "longitude": 23.15004,
    "category": "Mountain",
    "subcategory": "Peak",
    "featured": false,
    "priority": 50
  },
  {
    "geonameId": 8432537,
    "name": "Chorafákia",
    "latitude": 35.44321,
    "longitude": 24.07049,
    "category": "Mountain",
    "subcategory": "Mountain",
    "featured": false,
    "priority": 50
  },
  {
    "geonameId": 259914,
    "name": "Choráfas Korfí",
    "latitude": 35.27048,
    "longitude": 24.07611,
    "category": "Mountain",
    "subcategory": "Peak",
    "featured": false,
    "priority": 50
  },
  {
    "geonameId": 259908,
    "name": "Choreftaroú",
    "latitude": 37.32072,
    "longitude": 22.5171,
    "category": "Mountain",
    "subcategory": "Peak",
    "featured": false,
    "priority": 50
  },
  {
    "geonameId": 7839866,
    "name": "Chortarolimni",
    "latitude": 39.90167,
    "longitude": 25.33413,
    "category": "Lake",
    "subcategory": "Lake",
    "featured": false,
    "priority": 50
  },
  {
    "geonameId": 735764,
    "name": "Chortiátis",
    "latitude": 40.60954,
    "longitude": 23.10014,
    "category": "City",
    "subcategory": "City",
    "featured": false,
    "priority": 50
  },
  {
    "geonameId": 444919,
    "name": "Chortóvouno",
    "latitude": 38.52504,
    "longitude": 25.92137,
    "category": "Mountain",
    "subcategory": "Peak",
    "featured": false,
    "priority": 50
  },
  {
    "geonameId": 444459,
    "name": "Chostós",
    "latitude": 36.93156,
    "longitude": 26.97854,
    "category": "Mountain",
    "subcategory": "Peak",
    "featured": false,
    "priority": 50
  },
  {
    "geonameId": 260030,
    "name": "Choúsakas",
    "latitude": 35.01355,
    "longitude": 25.31373,
    "category": "Mountain",
    "subcategory": "Peak",
    "featured": false,
    "priority": 50
  },
  {
    "geonameId": 413897,
    "name": "Christiani Island",
    "latitude": 36.2495,
    "longitude": 25.20384,
    "category": "Island",
    "subcategory": "Island",
    "featured": false,
    "priority": 50
  },
  {
    "geonameId": 259842,
    "name": "Christóforos",
    "latitude": 39.17444,
    "longitude": 21.06361,
    "category": "Mountain",
    "subcategory": "Peak",
    "featured": false,
    "priority": 50
  },
  {
    "geonameId": 735749,
    "name": "Chrysó",
    "latitude": 41.05806,
    "longitude": 23.65108,
    "category": "City",
    "subcategory": "District Seat",
    "featured": false,
    "priority": 50
  },
  {
    "geonameId": 735747,
    "name": "Chrysoúpolis",
    "latitude": 40.98556,
    "longitude": 24.69389,
    "category": "City",
    "subcategory": "District Seat",
    "featured": false,
    "priority": 50
  },
  {
    "geonameId": 263355,
    "name": "Chúka",
    "latitude": 39.8,
    "longitude": 20.78333,
    "category": "Mountain",
    "subcategory": "Peak",
    "featured": false,
    "priority": 50
  },
  {
    "geonameId": 734106,
    "name": "Chúka Tekhóvou",
    "latitude": 40.9,
    "longitude": 21.9,
    "category": "Mountain",
    "subcategory": "Mountain",
    "featured": false,
    "priority": 50
  },
  {
    "geonameId": 2463678,
    "name": "Corfu",
    "latitude": 39.59828,
    "longitude": 19.85231,
    "category": "Island",
    "subcategory": "Island",
    "featured": false,
    "priority": 50
  },
  {
    "geonameId": 258763,
    "name": "Crete",
    "latitude": 35.20523,
    "longitude": 24.90308,
    "category": "Island",
    "subcategory": "Island",
    "featured": false,
    "priority": 50
  },
  {
    "geonameId": 8411319,
    "name": "Crveni Steni",
    "latitude": 40.86707,
    "longitude": 21.17019,
    "category": "Mountain",
    "subcategory": "Mountain",
    "featured": false,
    "priority": 50
  },
  {
    "geonameId": 259820,
    "name": "Cyclades",
    "latitude": 37.16265,
    "longitude": 25.01747,
    "category": "Island",
    "subcategory": "Island Group",
    "featured": false,
    "priority": 50
  },
  {
    "geonameId": 259709,
    "name": "Cythera",
    "latitude": 36.24072,
    "longitude": 22.99337,
    "category": "Island",
    "subcategory": "Island",
    "featured": false,
    "priority": 50
  },
  {
    "geonameId": 263324,
    "name": "Dáfna",
    "latitude": 38.11127,
    "longitude": 23.62654,
    "category": "Mountain",
    "subcategory": "Peak",
    "featured": false,
    "priority": 50
  },
  {
    "geonameId": 444661,
    "name": "Dáfni",
    "latitude": 38.22877,
    "longitude": 25.951,
    "category": "Mountain",
    "subcategory": "Peak",
    "featured": false,
    "priority": 50
  },
  {
    "geonameId": 263296,
    "name": "Dafnokorfí",
    "latitude": 35.33726,
    "longitude": 24.23944,
    "category": "Mountain",
    "subcategory": "Peak",
    "featured": false,
    "priority": 50
  },
  {
    "geonameId": 862593,
    "name": "Daoutlí",
    "latitude": 41.135,
    "longitude": 22.63778,
    "category": "Mountain",
    "subcategory": "Peak",
    "featured": false,
    "priority": 50
  },
  {
    "geonameId": 263345,
    "name": "Dárim",
    "latitude": 38.85062,
    "longitude": 23.08504,
    "category": "Mountain",
    "subcategory": "Mountain",
    "featured": false,
    "priority": 50
  },
  {
    "geonameId": 263344,
    "name": "Dártiza",
    "latitude": 38.03333,
    "longitude": 21.65,
    "category": "Mountain",
    "subcategory": "Mountain",
    "featured": false,
    "priority": 50
  },
  {
    "geonameId": 263253,
    "name": "Daskália Nísoi",
    "latitude": 39.13056,
    "longitude": 20.25194,
    "category": "Island",
    "subcategory": "Island Group",
    "featured": false,
    "priority": 50
  },
  {
    "geonameId": 263240,
    "name": "Daskalórrachi",
    "latitude": 36.87314,
    "longitude": 22.80658,
    "category": "Mountain",
    "subcategory": "Peak",
    "featured": false,
    "priority": 50
  },
  {
    "geonameId": 736491,
    "name": "Davárdha",
    "latitude": 40.71667,
    "longitude": 21.13333,
    "category": "Mountain",
    "subcategory": "Mountain",
    "featured": false,
    "priority": 50
  },
  {
    "geonameId": 11287748,
    "name": "Delphi",
    "latitude": 38.6252,
    "longitude": 23.8427,
    "category": "Mountain",
    "subcategory": "Peak",
    "featured": false,
    "priority": 50
  },
  {
    "geonameId": 263205,
    "name": "Demoniáris",
    "latitude": 37.20553,
    "longitude": 22.82643,
    "category": "Mountain",
    "subcategory": "Peak",
    "featured": false,
    "priority": 50
  },
  {
    "geonameId": 263329,
    "name": "Déndra",
    "latitude": 37.6623,
    "longitude": 23.0568,
    "category": "Mountain",
    "subcategory": "Peak",
    "featured": false,
    "priority": 50
  },
  {
    "geonameId": 263202,
    "name": "Déntra",
    "latitude": 37.02284,
    "longitude": 22.34788,
    "category": "Mountain",
    "subcategory": "Mountain",
    "featured": false,
    "priority": 50
  },
  {
    "geonameId": 263166,
    "name": "Deskáti",
    "latitude": 39.92422,
    "longitude": 21.81031,
    "category": "City",
    "subcategory": "District Seat",
    "featured": false,
    "priority": 50
  },
  {
    "geonameId": 736487,
    "name": "Dévas",
    "latitude": 40.8,
    "longitude": 21.03333,
    "category": "Mountain",
    "subcategory": "Peak",
    "featured": false,
    "priority": 50
  },
  {
    "geonameId": 263312,
    "name": "Dhafní",
    "latitude": 37.95002,
    "longitude": 23.73437,
    "category": "City",
    "subcategory": "District Seat",
    "featured": false,
    "priority": 50
  },
  {
    "geonameId": 8224758,
    "name": "Dhamaki",
    "latitude": 35.21796,
    "longitude": 24.85816,
    "category": "Mountain",
    "subcategory": "Peak",
    "featured": false,
    "priority": 50
  },
  {
    "geonameId": 263251,
    "name": "Dhaskalia Island",
    "latitude": 35.30033,
    "longitude": 26.31035,
    "category": "Island",
    "subcategory": "Island",
    "featured": false,
    "priority": 50
  },
  {
    "geonameId": 263222,
    "name": "Dhélfi",
    "latitude": 39.14787,
    "longitude": 23.66142,
    "category": "Mountain",
    "subcategory": "Mountain",
    "featured": false,
    "priority": 50
  },
  {
    "geonameId": 263143,
    "name": "Dhiálisa",
    "latitude": 40,
    "longitude": 20.45,
    "category": "Mountain",
    "subcategory": "Mountain",
    "featured": false,
    "priority": 50
  },
  {
    "geonameId": 736075,
    "name": "Dhiávasis Kalapóti",
    "latitude": 41.23333,
    "longitude": 23.81667,
    "category": "Mountain",
    "subcategory": "Mountain Pass",
    "featured": false,
    "priority": 50
  },
  {
    "geonameId": 734612,
    "name": "Dhiávasis Pisodheríou",
    "latitude": 40.77157,
    "longitude": 21.26893,
    "category": "Mountain",
    "subcategory": "Mountain Pass",
    "featured": false,
    "priority": 50
  },
  {
    "geonameId": 736444,
    "name": "Dhikála",
    "latitude": 41.35007,
    "longitude": 24.76929,
    "category": "Mountain",
    "subcategory": "Mountain",
    "featured": false,
    "priority": 50
  },
  {
    "geonameId": 263044,
    "name": "Dhírfis Óros",
    "latitude": 38.62596,
    "longitude": 23.84346,
    "category": "Mountain",
    "subcategory": "Mountain",
    "featured": false,
    "priority": 50
  },
  {
    "geonameId": 736394,
    "name": "Dhrenítseto",
    "latitude": 40.83333,
    "longitude": 21.03333,
    "category": "Mountain",
    "subcategory": "Mountain",
    "featured": false,
    "priority": 50
  },
  {
    "geonameId": 262869,
    "name": "Dhrosiá",
    "latitude": 38.48413,
    "longitude": 23.54774,
    "category": "City",
    "subcategory": "City",
    "featured": false,
    "priority": 50
  },
  {
    "geonameId": 263148,
    "name": "Diakoptó",
    "latitude": 38.19522,
    "longitude": 22.19994,
    "category": "City",
    "subcategory": "City",
    "featured": false,
    "priority": 50
  },
  {
    "geonameId": 263134,
    "name": "Diásella",
    "latitude": 38.46906,
    "longitude": 22.30344,
    "category": "Mountain",
    "subcategory": "Peak",
    "featured": false,
    "priority": 50
  },
  {
    "geonameId": 263128,
    "name": "Diásello",
    "latitude": 36.79771,
    "longitude": 22.42387,
    "category": "Mountain",
    "subcategory": "Peak",
    "featured": false,
    "priority": 50
  },
  {
    "geonameId": 262115,
    "name": "Diáselo",
    "latitude": 38.91693,
    "longitude": 23.26243,
    "category": "Mountain",
    "subcategory": "Peak",
    "featured": false,
    "priority": 50
  },
  {
    "geonameId": 736366,
    "name": "Diávasis Kastanoússis",
    "latitude": 41.27278,
    "longitude": 22.89472,
    "category": "Mountain",
    "subcategory": "Mountain Pass",
    "featured": false,
    "priority": 50
  },
  {
    "geonameId": 736450,
    "name": "Diavatá",
    "latitude": 40.68744,
    "longitude": 22.85799,
    "category": "City",
    "subcategory": "City",
    "featured": false,
    "priority": 50
  },
  {
    "geonameId": 263113,
    "name": "Dídymo Óros",
    "latitude": 37.47874,
    "longitude": 23.18223,
    "category": "Mountain",
    "subcategory": "Mountain",
    "featured": false,
    "priority": 50
  },
  {
    "geonameId": 736447,
    "name": "Didymóteicho",
    "latitude": 41.349,
    "longitude": 26.49377,
    "category": "City",
    "subcategory": "District Seat",
    "featured": false,
    "priority": 50
  },
  {
    "geonameId": 263022,
    "name": "Digenís",
    "latitude": 36.26526,
    "longitude": 23.04636,
    "category": "Mountain",
    "subcategory": "Peak",
    "featured": false,
    "priority": 50
  },
  {
    "geonameId": 263111,
    "name": "Díkaios Óros",
    "latitude": 36.83898,
    "longitude": 27.22748,
    "category": "Mountain",
    "subcategory": "Mountain",
    "featured": false,
    "priority": 50
  },
  {
    "geonameId": 263075,
    "name": "Dimitsána",
    "latitude": 37.59524,
    "longitude": 22.04025,
    "category": "City",
    "subcategory": "District Seat",
    "featured": false,
    "priority": 50
  },
  {
    "geonameId": 263071,
    "name": "Dimoúli",
    "latitude": 38.35289,
    "longitude": 22.17658,
    "category": "Mountain",
    "subcategory": "Mountain",
    "featured": false,
    "priority": 50
  },
  {
    "geonameId": 735342,
    "name": "Díon",
    "latitude": 40.17169,
    "longitude": 22.48463,
    "category": "City",
    "subcategory": "City",
    "featured": false,
    "priority": 50
  },
  {
    "geonameId": 252922,
    "name": "Dionisi",
    "latitude": 38.08589,
    "longitude": 20.54383,
    "category": "Island",
    "subcategory": "Island",
    "featured": false,
    "priority": 50
  },
  {
    "geonameId": 263064,
    "name": "Diónysos",
    "latitude": 38.10458,
    "longitude": 23.87938,
    "category": "City",
    "subcategory": "City",
    "featured": false,
    "priority": 50
  },
  {
    "geonameId": 263062,
    "name": "Dionysovoúni",
    "latitude": 38.10598,
    "longitude": 23.89639,
    "category": "Mountain",
    "subcategory": "Mountain",
    "featured": false,
    "priority": 50
  },
  {
    "geonameId": 263035,
    "name": "Dískou Koryfí",
    "latitude": 35.40169,
    "longitude": 24.02545,
    "category": "Mountain",
    "subcategory": "Peak",
    "featured": false,
    "priority": 50
  },
  {
    "geonameId": 263034,
    "name": "Dístomo",
    "latitude": 38.42892,
    "longitude": 22.66728,
    "category": "City",
    "subcategory": "District Seat",
    "featured": false,
    "priority": 50
  },
  {
    "geonameId": 251157,
    "name": "Dodecanese Islands",
    "latitude": 36,
    "longitude": 27,
    "category": "Island",
    "subcategory": "Island Group",
    "featured": false,
    "priority": 50
  },
  {
    "geonameId": 263020,
    "name": "Dodóni",
    "latitude": 39.54336,
    "longitude": 20.77283,
    "category": "City",
    "subcategory": "City",
    "featured": false,
    "priority": 50
  },
  {
    "geonameId": 263000,
    "name": "Domokós",
    "latitude": 39.12722,
    "longitude": 22.30028,
    "category": "City",
    "subcategory": "District Seat",
    "featured": false,
    "priority": 50
  },
  {
    "geonameId": 736368,
    "name": "Doúska",
    "latitude": 40.03333,
    "longitude": 20.6,
    "category": "Mountain",
    "subcategory": "Mountain",
    "featured": false,
    "priority": 50
  },
  {
    "geonameId": 736404,
    "name": "Doúsko",
    "latitude": 40.05721,
    "longitude": 20.53445,
    "category": "Mountain",
    "subcategory": "Mountain",
    "featured": false,
    "priority": 50
  },
  {
    "geonameId": 262961,
    "name": "Dragopsá",
    "latitude": 39.59206,
    "longitude": 20.67164,
    "category": "Mountain",
    "subcategory": "Peak",
    "featured": false,
    "priority": 50
  },
  {
    "geonameId": 262943,
    "name": "Drakóspilo",
    "latitude": 38.50881,
    "longitude": 23.67408,
    "category": "Mountain",
    "subcategory": "Peak",
    "featured": false,
    "priority": 50
  },
  {
    "geonameId": 262940,
    "name": "Drakovoúni",
    "latitude": 37.79964,
    "longitude": 22.08941,
    "category": "Mountain",
    "subcategory": "Mountain",
    "featured": false,
    "priority": 50
  },
  {
    "geonameId": 736364,
    "name": "Dráma",
    "latitude": 41.15283,
    "longitude": 24.1473,
    "category": "City",
    "subcategory": "County Seat",
    "featured": false,
    "priority": 50
  },
  {
    "geonameId": 261909,
    "name": "Drampála",
    "latitude": 39.92106,
    "longitude": 20.66108,
    "category": "Mountain",
    "subcategory": "Peak",
    "featured": false,
    "priority": 50
  },
  {
    "geonameId": 262931,
    "name": "Drapanokefála",
    "latitude": 35.44574,
    "longitude": 24.23406,
    "category": "Mountain",
    "subcategory": "Mountain",
    "featured": false,
    "priority": 50
  },
  {
    "geonameId": 8644195,
    "name": "Drapetsóna",
    "latitude": 37.94988,
    "longitude": 23.62309,
    "category": "City",
    "subcategory": "City",
    "featured": false,
    "priority": 50
  },
  {
    "geonameId": 263379,
    "name": "Drasovoúni",
    "latitude": 37.30471,
    "longitude": 22.04802,
    "category": "Mountain",
    "subcategory": "Peak",
    "featured": false,
    "priority": 50
  },
  {
    "geonameId": 262885,
    "name": "Drískos",
    "latitude": 39.66861,
    "longitude": 20.97281,
    "category": "Mountain",
    "subcategory": "Mountain",
    "featured": false,
    "priority": 50
  },
  {
    "geonameId": 262871,
    "name": "Drosiá",
    "latitude": 38.11977,
    "longitude": 23.86428,
    "category": "City",
    "subcategory": "City",
    "featured": false,
    "priority": 50
  },
  {
    "geonameId": 8521831,
    "name": "Dryólaka",
    "latitude": 35.35386,
    "longitude": 23.71488,
    "category": "Mountain",
    "subcategory": "Mountain",
    "featured": false,
    "priority": 50
  },
  {
    "geonameId": 252628,
    "name": "Dryonísi",
    "latitude": 36.99261,
    "longitude": 25.24057,
    "category": "Island",
    "subcategory": "Island",
    "featured": false,
    "priority": 50
  },
  {
    "geonameId": 790959,
    "name": "Dudica",
    "latitude": 41.12679,
    "longitude": 22.14452,
    "category": "Mountain",
    "subcategory": "Mountain",
    "featured": false,
    "priority": 50
  },
  {
    "geonameId": 263060,
    "name": "Dýo Vouná",
    "latitude": 37.90705,
    "longitude": 22.50187,
    "category": "Mountain",
    "subcategory": "Peak",
    "featured": false,
    "priority": 50
  },
  {
    "geonameId": 736420,
    "name": "Dýsoron Óros",
    "latitude": 41.19056,
    "longitude": 22.93833,
    "category": "Mountain",
    "subcategory": "Mountain",
    "featured": false,
    "priority": 50
  },
  {
    "geonameId": 736357,
    "name": "Édessa",
    "latitude": 40.8026,
    "longitude": 22.04751,
    "category": "City",
    "subcategory": "County Seat",
    "featured": false,
    "priority": 50
  },
  {
    "geonameId": 11978845,
    "name": "Edessa Waterfalls",
    "latitude": 40.804,
    "longitude": 22.05577,
    "category": "Waterfall",
    "subcategory": "Waterfall",
    "featured": false,
    "priority": 50
  },
  {
    "geonameId": 736296,
    "name": "Efkarpía",
    "latitude": 40.68797,
    "longitude": 22.95348,
    "category": "City",
    "subcategory": "City",
    "featured": false,
    "priority": 50
  },
  {
    "geonameId": 262576,
    "name": "Efpálio",
    "latitude": 38.41949,
    "longitude": 21.92908,
    "category": "City",
    "subcategory": "City",
    "featured": false,
    "priority": 50
  },
  {
    "geonameId": 262833,
    "name": "Ekáli",
    "latitude": 38.11035,
    "longitude": 23.83505,
    "category": "City",
    "subcategory": "City",
    "featured": false,
    "priority": 50
  },
  {
    "geonameId": 8224713,
    "name": "Ekdora",
    "latitude": 35.19962,
    "longitude": 24.79005,
    "category": "Mountain",
    "subcategory": "Peak",
    "featured": false,
    "priority": 50
  },
  {
    "geonameId": 256041,
    "name": "Ekklisáki",
    "latitude": 38.04558,
    "longitude": 22.53798,
    "category": "Mountain",
    "subcategory": "Peak",
    "featured": false,
    "priority": 50
  },
  {
    "geonameId": 262820,
    "name": "Elafokklísi",
    "latitude": 38.49483,
    "longitude": 24.17558,
    "category": "Mountain",
    "subcategory": "Peak",
    "featured": false,
    "priority": 50
  },
  {
    "geonameId": 262810,
    "name": "Elafovoúni",
    "latitude": 38.75988,
    "longitude": 22.56422,
    "category": "Mountain",
    "subcategory": "Mountain",
    "featured": false,
    "priority": 50
  },
  {
    "geonameId": 262784,
    "name": "Elassóna",
    "latitude": 39.89472,
    "longitude": 22.18861,
    "category": "City",
    "subcategory": "District Seat",
    "featured": false,
    "priority": 50
  },
  {
    "geonameId": 262781,
    "name": "Eláti",
    "latitude": 38.69966,
    "longitude": 20.6249,
    "category": "Mountain",
    "subcategory": "Mountain",
    "featured": false,
    "priority": 50
  },
  {
    "geonameId": 262774,
    "name": "Elatiás",
    "latitude": 37.02857,
    "longitude": 22.7733,
    "category": "Mountain",
    "subcategory": "Peak",
    "featured": false,
    "priority": 50
  },
  {
    "geonameId": 262752,
    "name": "Elefsína",
    "latitude": 38.04135,
    "longitude": 23.54295,
    "category": "City",
    "subcategory": "District Seat",
    "featured": false,
    "priority": 50
  },
  {
    "geonameId": 736337,
    "name": "Eleftherés",
    "latitude": 40.84666,
    "longitude": 24.25431,
    "category": "City",
    "subcategory": "City",
    "featured": false,
    "priority": 50
  },
  {
    "geonameId": 736330,
    "name": "Eleftheroúpolis",
    "latitude": 40.91389,
    "longitude": 24.25139,
    "category": "City",
    "subcategory": "District Seat",
    "featured": false,
    "priority": 50
  },
  {
    "geonameId": 262757,
    "name": "Eleoúsa",
    "latitude": 39.70639,
    "longitude": 20.7925,
    "category": "City",
    "subcategory": "District Seat",
    "featured": false,
    "priority": 50
  },
  {
    "geonameId": 736331,
    "name": "Elevtherónisos",
    "latitude": 40.5297,
    "longitude": 23.92817,
    "category": "Island",
    "subcategory": "Island",
    "featured": false,
    "priority": 50
  },
  {
    "geonameId": 262733,
    "name": "Elikónas",
    "latitude": 38.29133,
    "longitude": 22.88773,
    "category": "Mountain",
    "subcategory": "Mountain",
    "featured": false,
    "priority": 50
  },
  {
    "geonameId": 262719,
    "name": "Ellinikó",
    "latitude": 37.89013,
    "longitude": 23.74406,
    "category": "City",
    "subcategory": "City",
    "featured": false,
    "priority": 50
  },
  {
    "geonameId": 262712,
    "name": "Ellinítsa",
    "latitude": 37.27345,
    "longitude": 22.10629,
    "category": "Mountain",
    "subcategory": "Peak",
    "featured": false,
    "priority": 50
  },
  {
    "geonameId": 262685,
    "name": "Enniá Adélfia",
    "latitude": 38.76667,
    "longitude": 20.93333,
    "category": "Mountain",
    "subcategory": "Peak",
    "featured": false,
    "priority": 50
  },
  {
    "geonameId": 736320,
    "name": "Epáno Aréna",
    "latitude": 40.31667,
    "longitude": 20.9,
    "category": "Mountain",
    "subcategory": "Peak",
    "featured": false,
    "priority": 50
  },
  {
    "geonameId": 262669,
    "name": "Epáno Chrépa",
    "latitude": 37.54889,
    "longitude": 22.3194,
    "category": "Mountain",
    "subcategory": "Peak",
    "featured": false,
    "priority": 50
  },
  {
    "geonameId": 736319,
    "name": "Epanomí",
    "latitude": 40.42614,
    "longitude": 22.92782,
    "category": "City",
    "subcategory": "City",
    "featured": false,
    "priority": 50
  },
  {
    "geonameId": 262628,
    "name": "Erétria",
    "latitude": 38.40097,
    "longitude": 23.8022,
    "category": "City",
    "subcategory": "District Seat",
    "featured": false,
    "priority": 50
  },
  {
    "geonameId": 262615,
    "name": "Erimonísi",
    "latitude": 37.32909,
    "longitude": 23.40422,
    "category": "Island",
    "subcategory": "Island",
    "featured": false,
    "priority": 50
  },
  {
    "geonameId": 413841,
    "name": "Érimos",
    "latitude": 37.16129,
    "longitude": 25.27824,
    "category": "Island",
    "subcategory": "Island",
    "featured": false,
    "priority": 50
  },
  {
    "geonameId": 262603,
    "name": "Ermoúpolis",
    "latitude": 37.44466,
    "longitude": 24.9429,
    "category": "City",
    "subcategory": "Regional Capital",
    "featured": false,
    "priority": 50
  },
  {
    "geonameId": 262602,
    "name": "Éros",
    "latitude": 37.32819,
    "longitude": 23.46,
    "category": "Mountain",
    "subcategory": "Mountain",
    "featured": false,
    "priority": 50
  },
  {
    "geonameId": 262619,
    "name": "Erýmanthos",
    "latitude": 37.97128,
    "longitude": 21.83842,
    "category": "Mountain",
    "subcategory": "Mountain",
    "featured": false,
    "priority": 50
  },
  {
    "geonameId": 262599,
    "name": "Estavroménos",
    "latitude": 35.05501,
    "longitude": 25.63913,
    "category": "Mountain",
    "subcategory": "Peak",
    "featured": false,
    "priority": 50
  },
  {
    "geonameId": 11026795,
    "name": "Ethnikós Drymós Párnithas",
    "latitude": 38.20354,
    "longitude": 23.71466,
    "category": "Park",
    "subcategory": "Park",
    "featured": false,
    "priority": 50
  },
  {
    "geonameId": 9036410,
    "name": "Ethnikós Kípos",
    "latitude": 37.97326,
    "longitude": 23.73774,
    "category": "Park",
    "subcategory": "Park",
    "featured": false,
    "priority": 50
  },
  {
    "geonameId": 262595,
    "name": "Etianí Kefála",
    "latitude": 35.06898,
    "longitude": 26.06791,
    "category": "Mountain",
    "subcategory": "Peak",
    "featured": false,
    "priority": 50
  },
  {
    "geonameId": 262565,
    "name": "Euboea",
    "latitude": 38.5,
    "longitude": 24,
    "category": "Island",
    "subcategory": "Island",
    "featured": false,
    "priority": 50
  },
  {
    "geonameId": 262588,
    "name": "Evangelístria",
    "latitude": 37.90089,
    "longitude": 22.68116,
    "category": "Mountain",
    "subcategory": "Peak",
    "featured": false,
    "priority": 50
  },
  {
    "geonameId": 262562,
    "name": "Evgéras",
    "latitude": 38.20919,
    "longitude": 20.53681,
    "category": "Mountain",
    "subcategory": "Peak",
    "featured": false,
    "priority": 50
  },
  {
    "geonameId": 736293,
    "name": "Évlalo",
    "latitude": 40.98333,
    "longitude": 24.8,
    "category": "City",
    "subcategory": "District Seat",
    "featured": false,
    "priority": 50
  },
  {
    "geonameId": 262577,
    "name": "Evmorfía",
    "latitude": 38.23514,
    "longitude": 20.52897,
    "category": "Mountain",
    "subcategory": "Mountain",
    "featured": false,
    "priority": 50
  },
  {
    "geonameId": 736291,
    "name": "Évosmos",
    "latitude": 40.67056,
    "longitude": 22.90833,
    "category": "City",
    "subcategory": "District Seat",
    "featured": false,
    "priority": 50
  },
  {
    "geonameId": 8224723,
    "name": "Evrolithos",
    "latitude": 35.28343,
    "longitude": 24.75885,
    "category": "Mountain",
    "subcategory": "Peak",
    "featured": false,
    "priority": 50
  },
  {
    "geonameId": 262569,
    "name": "Evrostína",
    "latitude": 38.08709,
    "longitude": 22.38725,
    "category": "Mountain",
    "subcategory": "Mountain",
    "featured": false,
    "priority": 50
  },
  {
    "geonameId": 262560,
    "name": "Évzonos",
    "latitude": 37.94644,
    "longitude": 23.81469,
    "category": "Mountain",
    "subcategory": "Peak",
    "featured": false,
    "priority": 50
  },
  {
    "geonameId": 736283,
    "name": "Exaplátanos",
    "latitude": 40.97643,
    "longitude": 22.12958,
    "category": "City",
    "subcategory": "City",
    "featured": false,
    "priority": 50
  },
  {
    "geonameId": 262538,
    "name": "Éxo Pétra",
    "latitude": 38.46877,
    "longitude": 21.01301,
    "category": "Island",
    "subcategory": "Island",
    "featured": false,
    "priority": 50
  },
  {
    "geonameId": 444520,
    "name": "Éxo Psarónas",
    "latitude": 38.17893,
    "longitude": 26.01928,
    "category": "Mountain",
    "subcategory": "Peak",
    "featured": false,
    "priority": 50
  },
  {
    "geonameId": 10630473,
    "name": "Exo Tourloti",
    "latitude": 35.27488,
    "longitude": 24.02719,
    "category": "Mountain",
    "subcategory": "Mountain",
    "featured": false,
    "priority": 50
  },
  {
    "geonameId": 262539,
    "name": "Exonísi",
    "latitude": 36.25,
    "longitude": 22.89943,
    "category": "Island",
    "subcategory": "Island",
    "featured": false,
    "priority": 50
  },
  {
    "geonameId": 262532,
    "name": "Fagás",
    "latitude": 38.37206,
    "longitude": 23.18458,
    "category": "Mountain",
    "subcategory": "Mountain",
    "featured": false,
    "priority": 50
  },
  {
    "geonameId": 262450,
    "name": "Fagiá",
    "latitude": 37.06653,
    "longitude": 22.50748,
    "category": "Mountain",
    "subcategory": "Peak",
    "featured": false,
    "priority": 50
  },
  {
    "geonameId": 262529,
    "name": "Fakós",
    "latitude": 39.81255,
    "longitude": 25.19136,
    "category": "Mountain",
    "subcategory": "Peak",
    "featured": false,
    "priority": 50
  },
  {
    "geonameId": 262527,
    "name": "Fakoúla",
    "latitude": 37.25873,
    "longitude": 22.34183,
    "category": "Mountain",
    "subcategory": "Peak",
    "featured": false,
    "priority": 50
  },
  {
    "geonameId": 6354951,
    "name": "Faliraki",
    "latitude": 36.33981,
    "longitude": 28.19942,
    "category": "City",
    "subcategory": "City",
    "featured": false,
    "priority": 50
  },
  {
    "geonameId": 10975364,
    "name": "Fanári",
    "latitude": 38.19764,
    "longitude": 24.06531,
    "category": "Mountain",
    "subcategory": "Peak",
    "featured": false,
    "priority": 50
  },
  {
    "geonameId": 262500,
    "name": "Faneroméni",
    "latitude": 36.50225,
    "longitude": 22.42749,
    "category": "Mountain",
    "subcategory": "Mountain",
    "featured": false,
    "priority": 50
  },
  {
    "geonameId": 254540,
    "name": "Faradonísia",
    "latitude": 37.19295,
    "longitude": 26.76164,
    "category": "Island",
    "subcategory": "Island Group",
    "featured": false,
    "priority": 50
  },
  {
    "geonameId": 262472,
    "name": "Farkadóna",
    "latitude": 39.6,
    "longitude": 22.06667,
    "category": "City",
    "subcategory": "District Seat",
    "featured": false,
    "priority": 50
  },
  {
    "geonameId": 262471,
    "name": "Farmakás",
    "latitude": 37.75469,
    "longitude": 22.49042,
    "category": "Mountain",
    "subcategory": "Mountain",
    "featured": false,
    "priority": 50
  },
  {
    "geonameId": 262469,
    "name": "Farmakonísi",
    "latitude": 37.28917,
    "longitude": 27.08557,
    "category": "Island",
    "subcategory": "Island",
    "featured": false,
    "priority": 50
  },
  {
    "geonameId": 262468,
    "name": "Farmakovoúni",
    "latitude": 39.64106,
    "longitude": 20.34678,
    "category": "Mountain",
    "subcategory": "Mountain",
    "featured": false,
    "priority": 50
  },
  {
    "geonameId": 262462,
    "name": "Fársala",
    "latitude": 39.29472,
    "longitude": 22.38472,
    "category": "City",
    "subcategory": "District Seat",
    "featured": false,
    "priority": 50
  },