[
  {
    "geonameId": 13156943,
    "name": "Aamadi",
    "latitude": 20.77097,
    "longitude": 81.48991,
    "category": "City",
    "subcategory": "City",
    "featured": false,
    "priority": 50
  },
  {
    "geonameId": 10974403,
    "name": "Aarachaligulikan Betta",
    "latitude": 12.61434,
    "longitude": 75.5964,
    "category": "Mountain",
    "subcategory": "Mountain",
    "featured": false,
    "priority": 50
  },
  {
    "geonameId": 11630429,
    "name": "Abāngtāngi Buru",
    "latitude": 22.63862,
    "longitude": 85.15484,
    "category": "Mountain",
    "subcategory": "Mountain",
    "featured": false,
    "priority": 50
  },
  {
    "geonameId": 12524521,
    "name": "Abbaspur",
    "latitude": 33.8174,
    "longitude": 73.97568,
    "category": "City",
    "subcategory": "City",
    "featured": false,
    "priority": 50
  },
  {
    "geonameId": 10886963,
    "name": "Abbekal Gudda",
    "latitude": 12.61031,
    "longitude": 75.4617,
    "category": "Mountain",
    "subcategory": "Mountain",
    "featured": false,
    "priority": 50
  },
  {
    "geonameId": 1279418,
    "name": "Abbott Mount",
    "latitude": 29.43333,
    "longitude": 80.08333,
    "category": "Mountain",
    "subcategory": "Mountain",
    "featured": false,
    "priority": 50
  },
  {
    "geonameId": 10974062,
    "name": "Abbur Betta",
    "latitude": 12.24902,
    "longitude": 75.96259,
    "category": "Mountain",
    "subcategory": "Mountain",
    "featured": false,
    "priority": 50
  },
  {
    "geonameId": 13353572,
    "name": "Abdu Rahiman Nagar",
    "latitude": 11.06983,
    "longitude": 75.93879,
    "category": "City",
    "subcategory": "City",
    "featured": false,
    "priority": 50
  },
  {
    "geonameId": 11496513,
    "name": "Abdul Kalam Island",
    "latitude": 20.75684,
    "longitude": 87.08502,
    "category": "Island",
    "subcategory": "Island",
    "featured": false,
    "priority": 50
  },
  {
    "geonameId": 1432743,
    "name": "Abdullun Dhār",
    "latitude": 34.51667,
    "longitude": 75.28333,
    "category": "Mountain",
    "subcategory": "Mountain",
    "featured": false,
    "priority": 50
  },
  {
    "geonameId": 1279409,
    "name": "Abhanpur",
    "latitude": 21.05309,
    "longitude": 81.74088,
    "category": "City",
    "subcategory": "District Seat",
    "featured": false,
    "priority": 50
  },
  {
    "geonameId": 1279407,
    "name": "Abhayāpuri",
    "latitude": 26.32255,
    "longitude": 90.68526,
    "category": "City",
    "subcategory": "City",
    "featured": false,
    "priority": 50
  },
  {
    "geonameId": 1279405,
    "name": "Abirāmam",
    "latitude": 9.4423,
    "longitude": 78.4399,
    "category": "City",
    "subcategory": "City",
    "featured": false,
    "priority": 50
  },
  {
    "geonameId": 1279403,
    "name": "Abohar",
    "latitude": 30.14453,
    "longitude": 74.19552,
    "category": "City",
    "subcategory": "City",
    "featured": false,
    "priority": 50
  },
  {
    "geonameId": 11102685,
    "name": "Abrama",
    "latitude": 20.85865,
    "longitude": 72.90648,
    "category": "City",
    "subcategory": "City",
    "featured": false,
    "priority": 50
  },
  {
    "geonameId": 1279398,
    "name": "Abroka Pass",
    "latitude": 28.71667,
    "longitude": 95.35,
    "category": "Mountain",
    "subcategory": "Mountain Pass",
    "featured": false,
    "priority": 50
  },
  {
    "geonameId": 1279396,
    "name": "Ābu",
    "latitude": 24.59365,
    "longitude": 72.71756,
    "category": "City",
    "subcategory": "City",
    "featured": false,
    "priority": 50
  },
  {
    "geonameId": 1279394,
    "name": "Ābu Road",
    "latitude": 24.48012,
    "longitude": 72.78186,
    "category": "City",
    "subcategory": "City",
    "featured": false,
    "priority": 50
  },
  {
    "geonameId": 10520969,
    "name": "Achal Tāl",
    "latitude": 25.51112,
    "longitude": 80.39154,
    "category": "Lake",
    "subcategory": "Reservoir",
    "featured": false,
    "priority": 50
  },
  {
    "geonameId": 1279390,
    "name": "Achalpur",
    "latitude": 21.25665,
    "longitude": 77.51006,
    "category": "City",
    "subcategory": "City",
    "featured": false,
    "priority": 50
  },
  {
    "geonameId": 10891356,
    "name": "Achampare Betta",
    "latitude": 12.43774,
    "longitude": 75.34283,
    "category": "Mountain",
    "subcategory": "Mountain",
    "featured": false,
    "priority": 50
  },
  {
    "geonameId": 10525684,
    "name": "Achampet",
    "latitude": 16.3982,
    "longitude": 78.63758,
    "category": "City",
    "subcategory": "City",
    "featured": false,
    "priority": 50
  },
  {
    "geonameId": 11680722,
    "name": "Achanputtūr",
    "latitude": 9.04143,
    "longitude": 77.29693,
    "category": "City",
    "subcategory": "City",
    "featured": false,
    "priority": 50
  },
  {
    "geonameId": 1279385,
    "name": "Acharapākkam",
    "latitude": 12.40279,
    "longitude": 79.81699,
    "category": "City",
    "subcategory": "City",
    "featured": false,
    "priority": 50
  },
  {
    "geonameId": 11419503,
    "name": "Acharia Cheruvu",
    "latitude": 13.73198,
    "longitude": 79.08374,
    "category": "Lake",
    "subcategory": "Reservoir",
    "featured": false,
    "priority": 50
  },
  {
    "geonameId": 11655782,
    "name": "Āchāripallam Vāniyakudi",
    "latitude": 8.17428,
    "longitude": 77.38486,
    "category": "City",
    "subcategory": "City",
    "featured": false,
    "priority": 50
  },
  {
    "geonameId": 11563086,
    "name": "Achchippatti",
    "latitude": 10.69979,
    "longitude": 77.01248,
    "category": "City",
    "subcategory": "City",
    "featured": false,
    "priority": 50
  },
  {
    "geonameId": 10669010,
    "name": "Achhan Mal",
    "latitude": 33.46059,
    "longitude": 75.0244,
    "category": "Mountain",
    "subcategory": "Mountain",
    "featured": false,
    "priority": 50
  },
  {
    "geonameId": 1279383,
    "name": "Achhībal",
    "latitude": 33.68409,
    "longitude": 75.21835,
    "category": "City",
    "subcategory": "City",
    "featured": false,
    "priority": 50
  },
  {
    "geonameId": 1279382,
    "name": "Achhnera",
    "latitude": 27.17826,
    "longitude": 77.75674,
    "category": "City",
    "subcategory": "City",
    "featured": false,
    "priority": 50
  },
  {
    "geonameId": 11456567,
    "name": "Achitōldammalai",
    "latitude": 11.30432,
    "longitude": 76.47621,
    "category": "Mountain",
    "subcategory": "Mountain",
    "featured": false,
    "priority": 50
  },
  {
    "geonameId": 10612387,
    "name": "Ādā Gutta",
    "latitude": 18.68425,
    "longitude": 78.90602,
    "category": "Mountain",
    "subcategory": "Mountain",
    "featured": false,
    "priority": 50
  },
  {
    "geonameId": 13494660,
    "name": "Adaikkakuzhi",
    "latitude": 8.30779,
    "longitude": 77.1411,
    "category": "City",
    "subcategory": "City",
    "featured": false,
    "priority": 50
  },
  {
    "geonameId": 1279373,
    "name": "Adalaj",
    "latitude": 23.16453,
    "longitude": 72.58107,
    "category": "City",
    "subcategory": "City",
    "featured": false,
    "priority": 50
  },
  {
    "geonameId": 10532002,
    "name": "Adali Ghāt",
    "latitude": 24.93482,
    "longitude": 81.55974,
    "category": "Mountain",
    "subcategory": "Mountain Pass",
    "featured": false,
    "priority": 50
  },
  {
    "geonameId": 1462733,
    "name": "Adampur",
    "latitude": 31.43224,
    "longitude": 75.71484,
    "category": "City",
    "subcategory": "City",
    "featured": false,
    "priority": 50
  },
  {
    "geonameId": 11456837,
    "name": "Adamudi",
    "latitude": 11.06605,
    "longitude": 76.46191,
    "category": "Mountain",
    "subcategory": "Mountain",
    "featured": false,
    "priority": 50
  },
  {
    "geonameId": 11501709,
    "name": "Ādanāttutekkumuri Kizhakku",
    "latitude": 9.07909,
    "longitude": 76.51367,
    "category": "City",
    "subcategory": "City",
    "featured": false,
    "priority": 50
  },
  {
    "geonameId": 11521092,
    "name": "Adap Borai",
    "latitude": 11.68971,
    "longitude": 77.53589,
    "category": "Mountain",
    "subcategory": "Mountain",
    "featured": false,
    "priority": 50
  },
  {
    "geonameId": 10745201,
    "name": "Adapavāri Kottam",
    "latitude": 17.30968,
    "longitude": 81.52545,
    "category": "Mountain",
    "subcategory": "Mountain",
    "featured": false,
    "priority": 50
  },
  {
    "geonameId": 11456720,
    "name": "Adapukalmalai",
    "latitude": 11.25228,
    "longitude": 76.44591,
    "category": "Mountain",
    "subcategory": "Mountain",
    "featured": false,
    "priority": 50
  },
  {
    "geonameId": 10776175,
    "name": "Adasanūr Dongar",
    "latitude": 19.43064,
    "longitude": 83.26708,
    "category": "Mountain",
    "subcategory": "Mountain",
    "featured": false,
    "priority": 50
  },
  {
    "geonameId": 11463005,
    "name": "Adātt",
    "latitude": 10.54404,
    "longitude": 76.1423,
    "category": "City",
    "subcategory": "City",
    "featured": false,
    "priority": 50
  },
  {
    "geonameId": 1279357,
    "name": "Adbhār",
    "latitude": 21.95345,
    "longitude": 83.02475,
    "category": "City",
    "subcategory": "City",
    "featured": false,
    "priority": 50
  },
  {
    "geonameId": 11264349,
    "name": "Adda Betta",
    "latitude": 12.02012,
    "longitude": 77.6425,
    "category": "Mountain",
    "subcategory": "Mountain",
    "featured": false,
    "priority": 50
  },
  {
    "geonameId": 11335046,
    "name": "Adda Kallu",
    "latitude": 12.26502,
    "longitude": 77.9513,
    "category": "Mountain",
    "subcategory": "Mountain",
    "featured": false,
    "priority": 50
  },
  {
    "geonameId": 11412058,
    "name": "Adda Kattuva",
    "latitude": 14.80883,
    "longitude": 79.14942,
    "category": "Mountain",
    "subcategory": "Mountain",
    "featured": false,
    "priority": 50
  },
  {
    "geonameId": 10745262,
    "name": "Adda Konda",
    "latitude": 17.40084,
    "longitude": 81.63895,
    "category": "Mountain",
    "subcategory": "Mountain",
    "featured": false,
    "priority": 50
  },
  {
    "geonameId": 10770032,
    "name": "Adda Metta",
    "latitude": 17.77199,
    "longitude": 82.59526,
    "category": "Mountain",
    "subcategory": "Mountain",
    "featured": false,
    "priority": 50
  },
  {
    "geonameId": 11416298,
    "name": "Adda Tippa",
    "latitude": 14.27393,
    "longitude": 79.32462,
    "category": "Mountain",
    "subcategory": "Mountain",
    "featured": false,
    "priority": 50
  },
  {
    "geonameId": 11416527,
    "name": "Adda Yeni",
    "latitude": 14.06964,
    "longitude": 79.42746,
    "category": "Mountain",
    "subcategory": "Mountain",
    "featured": false,
    "priority": 50
  },
  {
    "geonameId": 10873277,
    "name": "Addanchalu",
    "latitude": 13.01788,
    "longitude": 75.5318,
    "category": "Mountain",
    "subcategory": "Mountain",
    "featured": false,
    "priority": 50
  },
  {
    "geonameId": 1279356,
    "name": "Addanki",
    "latitude": 15.81061,
    "longitude": 79.97338,
    "category": "City",
    "subcategory": "City",
    "featured": false,
    "priority": 50
  },
  {
    "geonameId": 10783386,
    "name": "Addu Konda",
    "latitude": 18.60772,
    "longitude": 83.27841,
    "category": "Mountain",
    "subcategory": "Mountain",
    "featured": false,
    "priority": 50
  },
  {
    "geonameId": 10846455,
    "name": "Addūru",
    "latitude": 12.92049,
    "longitude": 74.95656,
    "category": "City",
    "subcategory": "City",
    "featured": false,
    "priority": 50
  },
  {
    "geonameId": 11691299,
    "name": "Adhulkata Pahār",
    "latitude": 21.58627,
    "longitude": 85.02988,
    "category": "Mountain",
    "subcategory": "Mountain",
    "featured": false,
    "priority": 50
  },
  {
    "geonameId": 11502176,
    "name": "Adichānallūr",
    "latitude": 8.88049,
    "longitude": 76.71558,
    "category": "City",
    "subcategory": "City",
    "featured": false,
    "priority": 50
  },
  {
    "geonameId": 11460609,
    "name": "Adigaratti",
    "latitude": 11.33442,
    "longitude": 76.69705,
    "category": "City",
    "subcategory": "City",
    "featured": false,
    "priority": 50
  },
  {
    "geonameId": 1279344,
    "name": "Ādilābād",
    "latitude": 19.67203,
    "longitude": 78.5359,
    "category": "City",
    "subcategory": "City",
    "featured": false,
    "priority": 50
  },
  {
    "geonameId": 1278204,
    "name": "Adirampattinam",
    "latitude": 10.34059,
    "longitude": 79.37905,
    "category": "City",
    "subcategory": "City",
    "featured": false,
    "priority": 50
  },
  {
    "geonameId": 13494692,
    "name": "Adiyanuthu",
    "latitude": 10.33075,
    "longitude": 77.98118,
    "category": "City",
    "subcategory": "City",
    "featured": false,
    "priority": 50
  },
  {
    "geonameId": 10979633,
    "name": "Adjakal Rock",
    "latitude": 13.36062,
    "longitude": 74.69203,
    "category": "Island",
    "subcategory": "Island",
    "featured": false,
    "priority": 50
  },
  {
    "geonameId": 1279335,
    "name": "Adoni",
    "latitude": 15.62788,
    "longitude": 77.27495,
    "category": "City",
    "subcategory": "City",
    "featured": false,
    "priority": 50
  },
  {
    "geonameId": 11372669,
    "name": "Adorai Banda",
    "latitude": 12.36552,
    "longitude": 77.65564,
    "category": "Mountain",
    "subcategory": "Mountain",
    "featured": false,
    "priority": 50
  },
  {
    "geonameId": 1279334,
    "name": "Adra",
    "latitude": 23.49668,
    "longitude": 86.68363,
    "category": "City",
    "subcategory": "City",
    "featured": false,
    "priority": 50
  },
  {
    "geonameId": 1279332,
    "name": "Ādri",
    "latitude": 20.96591,
    "longitude": 70.28857,
    "category": "City",
    "subcategory": "City",
    "featured": false,
    "priority": 50
  },
  {
    "geonameId": 10526902,
    "name": "Adulūr Cheruvu",
    "latitude": 17.63267,
    "longitude": 79.11448,
    "category": "Lake",
    "subcategory": "Reservoir",
    "featured": false,
    "priority": 50
  },
  {
    "geonameId": 10891436,
    "name": "Adumale Motte",
    "latitude": 12.37461,
    "longitude": 75.45258,
    "category": "Mountain",
    "subcategory": "Mountain",
    "featured": false,
    "priority": 50
  },
  {
    "geonameId": 11655303,
    "name": "Aduppukkai Mottai",
    "latitude": 8.58543,
    "longitude": 77.26763,
    "category": "Mountain",
    "subcategory": "Mountain",
    "featured": false,
    "priority": 50
  },
  {
    "geonameId": 11477706,
    "name": "Aduppukūtti Malai",
    "latitude": 10.84664,
    "longitude": 76.74178,
    "category": "Mountain",
    "subcategory": "Mountain",
    "featured": false,
    "priority": 50
  },
  {
    "geonameId": 1279323,
    "name": "Adūr",
    "latitude": 9.15595,
    "longitude": 76.73192,
    "category": "City",
    "subcategory": "City",
    "featured": false,
    "priority": 50
  },
  {
    "geonameId": 1279318,
    "name": "Aduthurai",
    "latitude": 11.01542,
    "longitude": 79.48093,
    "category": "City",
    "subcategory": "City",
    "featured": false,
    "priority": 50
  },
  {
    "geonameId": 1279307,
    "name": "Afzalgarh",
    "latitude": 29.3937,
    "longitude": 78.67393,
    "category": "City",
    "subcategory": "City",
    "featured": false,
    "priority": 50
  },
  {
    "geonameId": 1279306,
    "name": "Afzalpur",
    "latitude": 17.19986,
    "longitude": 76.36018,
    "category": "City",
    "subcategory": "City",
    "featured": false,
    "priority": 50
  },
  {
    "geonameId": 10757478,
    "name": "Agadhwākhol Pahār",
    "latitude": 21.6,
    "longitude": 83.86988,
    "category": "Mountain",
    "subcategory": "Mountain",
    "featured": false,
    "priority": 50
  },
  {
    "geonameId": 11691327,
    "name": "Agam Pahār",
    "latitude": 21.50824,
    "longitude": 85.11514,
    "category": "Mountain",
    "subcategory": "Mountain",
    "featured": false,
    "priority": 50
  },
  {
    "geonameId": 1279299,
    "name": "Agar",
    "latitude": 23.71177,
    "longitude": 76.01571,
    "category": "City",
    "subcategory": "County Seat",
    "featured": false,
    "priority": 50
  },
  {
    "geonameId": 11019035,
    "name": "Āgar Bil",
    "latitude": 24.27419,
    "longitude": 87.93798,
    "category": "Lake",
    "subcategory": "Lake",
    "featured": false,
    "priority": 50
  },
  {
    "geonameId": 7005032,
    "name": "Agār Pahār",
    "latitude": 24.65182,
    "longitude": 79.20846,
    "category": "Mountain",
    "subcategory": "Mountain",
    "featured": false,
    "priority": 50
  },
  {
    "geonameId": 11252843,
    "name": "Agara Kere",
    "latitude": 12.58639,
    "longitude": 77.43401,
    "category": "Lake",
    "subcategory": "Reservoir",
    "featured": false,
    "priority": 50
  },
  {
    "geonameId": 11677565,
    "name": "Agaram",
    "latitude": 10.44325,
    "longitude": 77.94848,
    "category": "City",
    "subcategory": "City",
    "featured": false,
    "priority": 50
  },
  {
    "geonameId": 1279290,
    "name": "Agartala",
    "latitude": 23.83605,
    "longitude": 91.27939,
    "category": "City",
    "subcategory": "Regional Capital",
    "featured": false,
    "priority": 50
  },
  {
    "geonameId": 10670579,
    "name": "Agāshmandal",
    "latitude": 33.40937,
    "longitude": 75.48247,
    "category": "Mountain",
    "subcategory": "Mountain",
    "featured": false,
    "priority": 50
  },
  {
    "geonameId": 13494567,
    "name": "Agastinuagan",
    "latitude": 19.37003,
    "longitude": 85.03428,
    "category": "City",
    "subcategory": "City",
    "featured": false,
    "priority": 50
  },
  {
    "geonameId": 1279282,
    "name": "Agastīswaram",
    "latitude": 8.09964,
    "longitude": 77.52153,
    "category": "City",
    "subcategory": "City",
    "featured": false,
    "priority": 50
  },
  {
    "geonameId": 1279281,
    "name": "Agastya Malai",
    "latitude": 8.61453,
    "longitude": 77.24426,
    "category": "Mountain",
    "subcategory": "Mountain",
    "featured": false,
    "priority": 50
  },
  {
    "geonameId": 10856137,
    "name": "Agastya Parvata",
    "latitude": 13.85817,
    "longitude": 75.20313,
    "category": "Mountain",
    "subcategory": "Mountain",
    "featured": false,
    "priority": 50
  },
  {
    "geonameId": 12382221,
    "name": "Agatti",
    "latitude": 10.83522,
    "longitude": 72.18217,
    "category": "City",
    "subcategory": "City",
    "featured": false,
    "priority": 50
  },
  {
    "geonameId": 1279278,
    "name": "Agatti Island",
    "latitude": 10.8645,
    "longitude": 72.19674,
    "category": "Island",
    "subcategory": "Island",
    "featured": false,
    "priority": 50
  },
  {
    "geonameId": 7284799,
    "name": "Agaya Ganga",
    "latitude": 11.26773,
    "longitude": 78.3926,
    "category": "Waterfall",
    "subcategory": "Waterfall",
    "featured": false,
    "priority": 50
  },
  {
    "geonameId": 10872228,
    "name": "Aggal Gudda",
    "latitude": 13.18028,
    "longitude": 75.37831,
    "category": "Mountain",
    "subcategory": "Mountain",
    "featured": false,
    "priority": 50
  },
  {
    "geonameId": 1344079,
    "name": "Agnimāri Char",
    "latitude": 21.98062,
    "longitude": 88.08907,
    "category": "Island",
    "subcategory": "Island",
    "featured": false,
    "priority": 50
  },
  {
    "geonameId": 1279259,
    "name": "Agra",
    "latitude": 27.18333,
    "longitude": 78.01667,
    "category": "City",
    "subcategory": "County Seat",
    "featured": false,
    "priority": 50
  },
  {
    "geonameId": 11488167,
    "name": "Agrahāra Sāmakkulam",
    "latitude": 11.15279,
    "longitude": 77.01104,
    "category": "City",
    "subcategory": "City",
    "featured": false,
    "priority": 50
  },
  {
    "geonameId": 10784185,
    "name": "Ahasadunu Konda",
    "latitude": 18.24071,
    "longitude": 83.25142,
    "category": "Mountain",
    "subcategory": "Mountain",
    "featured": false,
    "priority": 50
  },
  {
    "geonameId": 10801282,
    "name": "Ahelu Tank",
    "latitude": 23.08085,
    "longitude": 73.41861,
    "category": "Lake",
    "subcategory": "Reservoir",
    "featured": false,
    "priority": 50
  },
  {
    "geonameId": 1279228,
    "name": "Ahilyanagar",
    "latitude": 19.09457,
    "longitude": 74.73843,
    "category": "City",
    "subcategory": "City",
    "featured": false,
    "priority": 50
  },
  {
    "geonameId": 1279237,
    "name": "Ahiri",
    "latitude": 19.41386,
    "longitude": 80.00359,
    "category": "City",
    "subcategory": "City",
    "featured": false,
    "priority": 50
  },
  {
    "geonameId": 10689564,
    "name": "Ahīrkheri",
    "latitude": 22.68,
    "longitude": 75.80482,
    "category": "City",
    "subcategory": "City",
    "featured": false,
    "priority": 50
  },
  {
    "geonameId": 10447536,
    "name": "Ahīwāra",
    "latitude": 21.35799,
    "longitude": 81.41794,
    "category": "City",
    "subcategory": "City",
    "featured": false,
    "priority": 50
  },
  {
    "geonameId": 13157075,
    "name": "Ahmadabad Cantonment",
    "latitude": 23.04768,
    "longitude": 72.60987,
    "category": "City",
    "subcategory": "City",
    "featured": false,
    "priority": 50
  },
  {
    "geonameId": 1279225,
    "name": "Ahmadpur",
    "latitude": 23.83009,
    "longitude": 87.68661,
    "category": "City",
    "subcategory": "City",
    "featured": false,
    "priority": 50
  },
  {
    "geonameId": 10692825,
    "name": "Ahmadpur Ghāt",
    "latitude": 22.23279,
    "longitude": 80.21622,
    "category": "Mountain",
    "subcategory": "Mountain Pass",
    "featured": false,
    "priority": 50
  },
  {
    "geonameId": 10694802,
    "name": "Ahmadpur Tank",
    "latitude": 22.22354,
    "longitude": 80.25399,
    "category": "Lake",
    "subcategory": "Reservoir",
    "featured": false,
    "priority": 50
  },
  {
    "geonameId": 1279233,
    "name": "Ahmedabad",
    "latitude": 23.02579,
    "longitude": 72.58727,
    "category": "City",
    "subcategory": "City",
    "featured": false,
    "priority": 50
  },
  {
    "geonameId": 13494596,
    "name": "Ahmedgarh",
    "latitude": 30.67731,
    "longitude": 75.82633,
    "category": "City",
    "subcategory": "City",
    "featured": false,
    "priority": 50
  },
  {
    "geonameId": 1279221,
    "name": "Ahor",
    "latitude": 25.3687,
    "longitude": 72.78038,
    "category": "City",
    "subcategory": "City",
    "featured": false,
    "priority": 50
  },
  {
    "geonameId": 1279219,
    "name": "Ahraura",
    "latitude": 25.01579,
    "longitude": 83.03294,
    "category": "City",
    "subcategory": "City",
    "featured": false,
    "priority": 50
  },
  {
    "geonameId": 10510424,
    "name": "Ahraura Reservoir",
    "latitude": 24.99301,
    "longitude": 83.0371,
    "category": "Lake",
    "subcategory": "Reservoir",
    "featured": false,
    "priority": 50
  },
  {
    "geonameId": 1279213,
    "name": "Ahwa",
    "latitude": 20.75718,
    "longitude": 73.68626,
    "category": "City",
    "subcategory": "City",
    "featured": false,
    "priority": 50
  },
  {
    "geonameId": 1279209,
    "name": "Aida Tāl",
    "latitude": 26.1455,
    "longitude": 81.70509,
    "category": "Lake",
    "subcategory": "Lake",
    "featured": false,
    "priority": 50
  },
  {
    "geonameId": 10594711,
    "name": "Ainpat Sar",
    "latitude": 33.7406,
    "longitude": 74.527,
    "category": "Lake",
    "subcategory": "Lake",
    "featured": false,
    "priority": 50
  },
  {
    "geonameId": 11456565,
    "name": "Ainslie Rock",
    "latitude": 11.42175,
    "longitude": 76.41518,
    "category": "Mountain",
    "subcategory": "Mountain",
    "featured": false,
    "priority": 50
  },
  {
    "geonameId": 11655302,
    "name": "Aintalai Podigai",
    "latitude": 8.59897,
    "longitude": 77.26665,
    "category": "Mountain",
    "subcategory": "Mountain",
    "featured": false,
    "priority": 50
  },
  {
    "geonameId": 11483041,
    "name": "Aira Kunnu",
    "latitude": 10.27181,
    "longitude": 76.73403,
    "category": "Mountain",
    "subcategory": "Mountain",
    "featured": false,
    "priority": 50
  },
  {
    "geonameId": 11664491,
    "name": "Airāvadanallūr",
    "latitude": 9.90575,
    "longitude": 78.15521,
    "category": "City",
    "subcategory": "City",
    "featured": false,
    "priority": 50
  },
  {
    "geonameId": 7279599,
    "name": "Airoli",
    "latitude": 19.15096,
    "longitude": 72.99625,
    "category": "City",
    "subcategory": "City",
    "featured": false,
    "priority": 50
  },
  {
    "geonameId": 1279192,
    "name": "Aish Maqām",
    "latitude": 33.86503,
    "longitude": 75.28369,
    "category": "City",
    "subcategory": "City",
    "featured": false,
    "priority": 50
  },
  {
    "geonameId": 7302860,
    "name": "Aistala",
    "latitude": 23.18,
    "longitude": 88.58,
    "category": "City",
    "subcategory": "City",
    "featured": false,
    "priority": 50
  },
  {
    "geonameId": 10973958,
    "name": "Aiyyambare Motte",
    "latitude": 12.06879,
    "longitude": 75.88654,
    "category": "Mountain",
    "subcategory": "Mountain",
    "featured": false,
    "priority": 50
  },
  {
    "geonameId": 1279186,
    "name": "Aizawl",
    "latitude": 23.72894,
    "longitude": 92.71791,
    "category": "City",
    "subcategory": "Regional Capital",
    "featured": false,
    "priority": 50
  },
  {
    "geonameId": 1279183,
    "name": "Ajād Tāpu",
    "latitude": 22.37954,
    "longitude": 69.33253,
    "category": "Island",
    "subcategory": "Island",
    "featured": false,
    "priority": 50
  },
  {
    "geonameId": 1279181,
    "name": "Ajaigarh",
    "latitude": 24.89879,
    "longitude": 80.25921,
    "category": "City",
    "subcategory": "City",
    "featured": false,
    "priority": 50
  },
  {
    "geonameId": 10697244,
    "name": "Ajānpurghāt",
    "latitude": 22.11857,
    "longitude": 80.86849,
    "category": "Mountain",
    "subcategory": "Mountain Pass",
    "featured": false,
    "priority": 50
  },
  {
    "geonameId": 1279154,
    "name": "Ajara",
    "latitude": 16.11601,
    "longitude": 74.21097,
    "category": "City",
    "subcategory": "City",
    "featured": false,
    "priority": 50
  },
  {
    "geonameId": 13494610,
    "name": "Ajeetgarh",
    "latitude": 27.41933,
    "longitude": 75.82143,
    "category": "City",
    "subcategory": "City",
    "featured": false,
    "priority": 50
  },
  {
    "geonameId": 11334885,
    "name": "Aji Guddai",
    "latitude": 12.28528,
    "longitude": 77.78771,
    "category": "Mountain",
    "subcategory": "Mountain",
    "featured": false,
    "priority": 50
  },
  {
    "geonameId": 10775108,
    "name": "Ajimāli Dongar",
    "latitude": 19.43447,
    "longitude": 83.09468,
    "category": "Mountain",
    "subcategory": "Mountain",
    "featured": false,
    "priority": 50
  },
  {
    "geonameId": 10517235,
    "name": "Ajīt Tāl",
    "latitude": 25.50597,
    "longitude": 80.19914,
    "category": "Lake",
    "subcategory": "Lake",
    "featured": false,
    "priority": 50
  },
  {
    "geonameId": 1279161,
    "name": "Ajjampur",
    "latitude": 13.72794,
    "longitude": 76.0068,
    "category": "City",
    "subcategory": "City",
    "featured": false,
    "priority": 50
  },
  {
    "geonameId": 10878756,
    "name": "Ajji Male",
    "latitude": 12.86089,
    "longitude": 75.43511,
    "category": "Mountain",
    "subcategory": "Mountain",
    "featured": false,
    "priority": 50
  },
  {
    "geonameId": 1279159,
    "name": "Ajmer",
    "latitude": 26.4521,
    "longitude": 74.63867,
    "category": "City",
    "subcategory": "City",
    "featured": false,
    "priority": 50
  },
  {
    "geonameId": 1279158,
    "name": "Ajnāla",
    "latitude": 31.84473,
    "longitude": 74.76295,
    "category": "City",
    "subcategory": "City",
    "featured": false,
    "priority": 50
  },
  {
    "geonameId": 11644384,
    "name": "Ajupahār",
    "latitude": 22.5029,
    "longitude": 84.26999,
    "category": "Mountain",
    "subcategory": "Mountain",
    "featured": false,
    "priority": 50
  },
  {
    "geonameId": 9915841,
    "name": "Akaira",
    "latitude": 28.23103,
    "longitude": 76.85081,
    "category": "City",
    "subcategory": "City",
    "featured": false,
    "priority": 50
  },
  {
    "geonameId": 1279148,
    "name": "Akālgarh",
    "latitude": 29.82074,
    "longitude": 75.89078,
    "category": "City",
    "subcategory": "City",
    "featured": false,
    "priority": 50
  },
  {
    "geonameId": 1279147,
    "name": "Akalkot",
    "latitude": 17.52532,
    "longitude": 76.20611,
    "category": "City",
    "subcategory": "City",
    "featured": false,
    "priority": 50
  },
  {
    "geonameId": 10815768,
    "name": "Akalkuva",
    "latitude": 21.5543,
    "longitude": 74.01922,
    "category": "City",
    "subcategory": "City",
    "featured": false,
    "priority": 50
  },
  {
    "geonameId": 1279144,
    "name": "Akaltara",
    "latitude": 22.02463,
    "longitude": 82.42641,
    "category": "City",
    "subcategory": "City",
    "featured": false,
    "priority": 50
  },
  {
    "geonameId": 11411951,
    "name": "Ākasani Bodu",
    "latitude": 14.83274,
    "longitude": 79.16496,
    "category": "Mountain",
    "subcategory": "Mountain",
    "featured": false,
    "priority": 50
  },
  {
    "geonameId": 11463051,
    "name": "Akathiyūr",
    "latitude": 10.68088,
    "longitude": 76.09419,
    "category": "City",
    "subcategory": "City",
    "featured": false,
    "priority": 50
  },
  {
    "geonameId": 11723914,
    "name": "Akbaria",
    "latitude": 24.8719,
    "longitude": 85.88222,
    "category": "Mountain",
    "subcategory": "Mountain",
    "featured": false,
    "priority": 50
  },
  {
    "geonameId": 1279134,
    "name": "Akbarpur",
    "latitude": 26.42953,
    "longitude": 82.53431,
    "category": "City",
    "subcategory": "City",
    "featured": false,
    "priority": 50
  },
  {
    "geonameId": 10822641,
    "name": "Ākera",
    "latitude": 27.01208,
    "longitude": 75.80884,
    "category": "City",
    "subcategory": "City",
    "featured": false,
    "priority": 50
  },
  {
    "geonameId": 1279126,
    "name": "Akhnūr",
    "latitude": 32.8955,
    "longitude": 74.73486,
    "category": "City",
    "subcategory": "City",
    "featured": false,
    "priority": 50
  },
  {
    "geonameId": 1279123,
    "name": "Akivīdu",
    "latitude": 16.58225,
    "longitude": 81.38112,
    "category": "City",
    "subcategory": "City",
    "featured": false,
    "priority": 50
  },
  {
    "geonameId": 11568751,
    "name": "Akkā Malai",
    "latitude": 10.36058,
    "longitude": 77.0684,
    "category": "Mountain",
    "subcategory": "Mountain",
    "featured": false,
    "priority": 50
  },
  {
    "geonameId": 10603370,
    "name": "Akkachanal Gutta",
    "latitude": 18.83499,
    "longitude": 78.52146,
    "category": "Mountain",
    "subcategory": "Mountain",
    "featured": false,
    "priority": 50
  },
  {
    "geonameId": 7302805,
    "name": "Akkarampalle",
    "latitude": 13.65,
    "longitude": 79.42,
    "category": "City",
    "subcategory": "City",
    "featured": false,
    "priority": 50
  },
  {
    "geonameId": 10876593,
    "name": "Akkatangeru Gudda",
    "latitude": 13.56762,
    "longitude": 75.92776,
    "category": "Mountain",
    "subcategory": "Mountain",
    "featured": false,
    "priority": 50
  },
  {
    "geonameId": 10527084,
    "name": "Akkenapalli Cheruvu",
    "latitude": 17.28738,
    "longitude": 79.24609,
    "category": "Lake",
    "subcategory": "Reservoir",
    "featured": false,
    "priority": 50
  },
  {
    "geonameId": 10774284,
    "name": "Akkūru Parvatam",
    "latitude": 18.54193,
    "longitude": 82.00024,
    "category": "Mountain",
    "subcategory": "Mountain",
    "featured": false,
    "priority": 50
  },
  {
    "geonameId": 1279115,
    "name": "Aklera",
    "latitude": 24.41288,
    "longitude": 76.56719,
    "category": "City",
    "subcategory": "City",
    "featured": false,
    "priority": 50
  },
  {
    "geonameId": 1279113,
    "name": "Aklūj",
    "latitude": 17.89241,
    "longitude": 75.02138,
    "category": "City",
    "subcategory": "City",
    "featured": false,
    "priority": 50
  },
  {
    "geonameId": 13353611,
    "name": "Akoda",
    "latitude": 26.53338,
    "longitude": 78.90364,
    "category": "City",
    "subcategory": "City",
    "featured": false,
    "priority": 50
  },
  {
    "geonameId": 1279110,
    "name": "Akodia",
    "latitude": 23.38027,
    "longitude": 76.59875,
    "category": "City",
    "subcategory": "City",
    "featured": false,
    "priority": 50
  },
  {
    "geonameId": 1279105,
    "name": "Akola",
    "latitude": 20.70957,
    "longitude": 76.9981,
    "category": "City",
    "subcategory": "City",
    "featured": false,
    "priority": 50
  },
  {
    "geonameId": 10538102,
    "name": "Akori Tāl",
    "latitude": 25.99608,
    "longitude": 82.10774,
    "category": "Lake",
    "subcategory": "Lake",
    "featured": false,
    "priority": 50
  },
  {
    "geonameId": 1279094,
    "name": "Akot",
    "latitude": 21.0963,
    "longitude": 77.0588,
    "category": "City",
    "subcategory": "City",
    "featured": false,
    "priority": 50
  },
  {
    "geonameId": 11636677,
    "name": "Aksi",
    "latitude": 23.52261,
    "longitude": 84.12822,
    "category": "Mountain",
    "subcategory": "Mountain",
    "featured": false,
    "priority": 50
  },
  {
    "geonameId": 1279085,
    "name": "Akukan Pass",
    "latitude": 28.83333,
    "longitude": 96.08333,
    "category": "Mountain",
    "subcategory": "Mountain Pass",
    "featured": false,
    "priority": 50
  },
  {
    "geonameId": 10770050,
    "name": "Akulamāri Gutta",
    "latitude": 17.81108,
    "longitude": 82.62945,
    "category": "Mountain",
    "subcategory": "Mountain",
    "featured": false,
    "priority": 50
  },
  {
    "geonameId": 13353478,
    "name": "Ala",
    "latitude": 10.25353,
    "longitude": 76.18568,
    "category": "City",
    "subcategory": "City",
    "featured": false,
    "priority": 50
  },
  {
    "geonameId": 11253228,
    "name": "Aladanai Betta",
    "latitude": 12.03063,
    "longitude": 77.29351,
    "category": "Mountain",
    "subcategory": "Mountain",
    "featured": false,
    "priority": 50
  },
  {
    "geonameId": 11422095,
    "name": "Alādāvamāna Bodu",
    "latitude": 13.23964,
    "longitude": 79.37554,
    "category": "Mountain",
    "subcategory": "Mountain",
    "featured": false,
    "priority": 50
  },
  {
    "geonameId": 11680603,
    "name": "Alādi Malai",
    "latitude": 9.39347,
    "longitude": 77.28815,
    "category": "Mountain",
    "subcategory": "Mountain",
    "featured": false,
    "priority": 50
  },
  {
    "geonameId": 11680027,
    "name": "Āladi Malai",
    "latitude": 9.66254,
    "longitude": 77.04869,
    "category": "Mountain",
    "subcategory": "Mountain",
    "featured": false,
    "priority": 50
  },
  {
    "geonameId": 11656767,
    "name": "Alagappapuram",
    "latitude": 8.14678,
    "longitude": 77.54131,
    "category": "City",
    "subcategory": "City",
    "featured": false,
    "priority": 50
  },
  {
    "geonameId": 1279084,
    "name": "Alagāpuram",
    "latitude": 11.88705,
    "longitude": 78.91758,
    "category": "City",
    "subcategory": "City",
    "featured": false,
    "priority": 50
  },
  {
    "geonameId": 10479160,
    "name": "Alaīm Tāl",
    "latitude": 27.32366,
    "longitude": 78.82719,
    "category": "Lake",
    "subcategory": "Lake",
    "featured": false,
    "priority": 50
  },
  {
    "geonameId": 10891483,
    "name": "Ālakettia Motte",
    "latitude": 12.26159,
    "longitude": 75.45929,
    "category": "Mountain",
    "subcategory": "Mountain",
    "featured": false,
    "priority": 50
  },
  {
    "geonameId": 8021148,
    "name": "Alakjhāri Pahār",
    "latitude": 26.25168,
    "longitude": 89.86397,
    "category": "Mountain",
    "subcategory": "Mountain",
    "featured": false,
    "priority": 50
  },
  {
    "geonameId": 1466038,
    "name": "Alamādi",
    "latitude": 13.2092,
    "longitude": 80.1097,
    "category": "City",
    "subcategory": "City",
    "featured": false,
    "priority": 50
  },
  {
    "geonameId": 13494650,
    "name": "Alamelumangapuram",
    "latitude": 12.94223,
    "longitude": 79.18688,
    "category": "City",
    "subcategory": "City",
    "featured": false,
    "priority": 50
  },
  {
    "geonameId": 11556989,
    "name": "Ālampālaiyam",
    "latitude": 11.36353,
    "longitude": 77.76773,
    "category": "City",
    "subcategory": "City",
    "featured": false,
    "priority": 50
  },
  {
    "geonameId": 10929486,
    "name": "Alampara",
    "latitude": 11.58095,
    "longitude": 75.86864,
    "category": "Mountain",
    "subcategory": "Mountain",
    "featured": false,
    "priority": 50
  },
  {
    "geonameId": 1279072,
    "name": "Alampur",
    "latitude": 26.02514,
    "longitude": 78.79697,
    "category": "City",
    "subcategory": "City",
    "featured": false,
    "priority": 50
  },
  {
    "geonameId": 1279074,
    "name": "Ālampur",
    "latitude": 15.87987,
    "longitude": 78.13352,
    "category": "City",
    "subcategory": "City",
    "featured": false,
    "priority": 50
  },
  {
    "geonameId": 1279068,
    "name": "Aland",
    "latitude": 17.56425,
    "longitude": 76.56854,
    "category": "City",
    "subcategory": "City",
    "featured": false,
    "priority": 50
  },
  {
    "geonameId": 1279066,
    "name": "Alandi",
    "latitude": 18.67756,
    "longitude": 73.89868,
    "category": "City",
    "subcategory": "City",
    "featured": false,
    "priority": 50
  },
  {
    "geonameId": 1279063,
    "name": "Ālāndurai",
    "latitude": 10.95322,
    "longitude": 76.79003,
    "category": "City",
    "subcategory": "City",
    "featured": false,
    "priority": 50
  },
  {
    "geonameId": 12196119,
    "name": "Alang",
    "latitude": 21.39878,
    "longitude": 72.17544,
    "category": "City",
    "subcategory": "City",
    "featured": false,
    "priority": 50
  },
  {
    "geonameId": 11184118,
    "name": "Alangad",
    "latitude": 10.10192,
    "longitude": 76.29104,
    "category": "City",
    "subcategory": "City",
    "featured": false,
    "priority": 50
  },
  {
    "geonameId": 11456827,
    "name": "Alangamalai",
    "latitude": 11.13854,
    "longitude": 76.46853,
    "category": "Mountain",
    "subcategory": "Mountain",
    "featured": false,
    "priority": 50
  },
  {
    "geonameId": 1279062,
    "name": "Alangānallūr",
    "latitude": 10.04697,
    "longitude": 78.09033,
    "category": "City",
    "subcategory": "City",
    "featured": false,
    "priority": 50
  },
  {
    "geonameId": 1279061,
    "name": "Alangāyam",
    "latitude": 12.62235,
    "longitude": 78.75207,
    "category": "City",
    "subcategory": "City",
    "featured": false,
    "priority": 50
  },
  {
    "geonameId": 1279059,
    "name": "Ālangudi",
    "latitude": 10.3606,
    "longitude": 78.98492,
    "category": "City",
    "subcategory": "City",
    "featured": false,
    "priority": 50
  },
  {
    "geonameId": 1279058,
    "name": "Ālangulam",
    "latitude": 8.86404,
    "longitude": 77.49937,
    "category": "City",
    "subcategory": "City",
    "featured": false,
    "priority": 50
  },
  {
    "geonameId": 11462864,
    "name": "Ālankōd",
    "latitude": 10.74603,
    "longitude": 76.03481,
    "category": "City",
    "subcategory": "City",
    "featured": false,
    "priority": 50
  },
  {
    "geonameId": 1465883,
    "name": "Alapakam",
    "latitude": 12.89444,
    "longitude": 80.11111,
    "category": "City",
    "subcategory": "City",
    "featured": false,
    "priority": 50
  },
  {
    "geonameId": 11680292,
    "name": "Ālappādi Mettu",
    "latitude": 9.11104,
    "longitude": 77.13558,
    "category": "Mountain",
    "subcategory": "Mountain",
    "featured": false,
    "priority": 50
  },
  {
    "geonameId": 1279056,
    "name": "Ālappākkam",
    "latitude": 11.59895,
    "longitude": 79.71893,
    "category": "City",
    "subcategory": "City",
    "featured": false,
    "priority": 50
  },
  {
    "geonameId": 1278985,
    "name": "Alappuzha",
    "latitude": 9.49004,
    "longitude": 76.3264,
    "category": "City",
    "subcategory": "County Seat",
    "featured": false,
    "priority": 50
  },
  {
    "geonameId": 11683863,
    "name": "Ālāpuram Eri",
    "latitude": 11.97419,
    "longitude": 78.37469,
    "category": "Lake",
    "subcategory": "Lake",
    "featured": false,
    "priority": 50
  },
  {
    "geonameId": 1279053,
    "name": "Alattūr",
    "latitude": 10.65,
    "longitude": 76.53333,
    "category": "City",
    "subcategory": "City",
    "featured": false,
    "priority": 50
  },
  {
    "geonameId": 11682463,
    "name": "Alavāy Malai",
    "latitude": 11.47005,
    "longitude": 78.11894,
    "category": "Mountain",
    "subcategory": "Mountain",
    "featured": false,
    "priority": 50
  },
  {
    "geonameId": 1279050,
    "name": "Alāwalpur",
    "latitude": 31.43161,
    "longitude": 75.65614,
    "category": "City",
    "subcategory": "City",
    "featured": false,
    "priority": 50
  },
  {
    "geonameId": 1279045,
    "name": "Aldona",
    "latitude": 15.59337,
    "longitude": 73.87482,
    "category": "City",
    "subcategory": "City",
    "featured": false,
    "priority": 50
  },
  {
    "geonameId": 11463700,
    "name": "Alengād",
    "latitude": 10.11901,
    "longitude": 76.30226,
    "category": "City",
    "subcategory": "City",
    "featured": false,
    "priority": 50
  },
  {
    "geonameId": 1279034,
    "name": "Alexandra Island",
    "latitude": 11.57926,
    "longitude": 92.60882,
    "category": "Island",
    "subcategory": "Island",
    "featured": false,
    "priority": 50
  },
  {
    "geonameId": 10593193,
    "name": "Alfa Tōpa",
    "latitude": 33.64863,
    "longitude": 74.41643,
    "category": "Mountain",
    "subcategory": "Mountain",
    "featured": false,
    "priority": 50
  },
  {
    "geonameId": 10501761,
    "name": "Algi Tāl",
    "latitude": 25.48511,
    "longitude": 78.34749,
    "category": "Lake",
    "subcategory": "Lake",
    "featured": false,
    "priority": 50
  },
  {
    "geonameId": 10654049,
    "name": "Alhārizan Hijhan",
    "latitude": 34.39481,
    "longitude": 75.25349,
    "category": "Mountain",
    "subcategory": "Mountain",
    "featured": false,
    "priority": 50
  },
  {
    "geonameId": 10517070,
    "name": "Alhi Tāl",
    "latitude": 25.68703,
    "longitude": 80.12041,
    "category": "Lake",
    "subcategory": "Reservoir",
    "featured": false,
    "priority": 50
  },
  {
    "geonameId": 10265188,
    "name": "Ali",
    "latitude": 28.5161,
    "longitude": 77.30993,
    "category": "City",
    "subcategory": "City",
    "featured": false,
    "priority": 50
  },
  {
    "geonameId": 10788120,
    "name": "Alī Cheruvu",
    "latitude": 18.37063,
    "longitude": 83.95628,
    "category": "Lake",
    "subcategory": "Reservoir",
    "featured": false,
    "priority": 50
  },
  {
    "geonameId": 1279028,
    "name": "Alia Bet",
    "latitude": 21.65535,
    "longitude": 72.71902,
    "category": "Island",
    "subcategory": "Island",
    "featured": false,
    "priority": 50
  },
  {
    "geonameId": 10726928,
    "name": "Aliās Goh",
    "latitude": 32.42566,
    "longitude": 76.90915,
    "category": "Mountain",
    "subcategory": "Mountain",
    "featured": false,
    "priority": 50
  },
  {
    "geonameId": 1279027,
    "name": "Alībāg",
    "latitude": 18.64813,
    "longitude": 72.87579,
    "category": "City",
    "subcategory": "City",
    "featured": false,
    "priority": 50
  },
  {
    "geonameId": 1279023,
    "name": "Alīganj",
    "latitude": 27.49358,
    "longitude": 79.17127,
    "category": "City",
    "subcategory": "City",
    "featured": false,
    "priority": 50
  },
  {
    "geonameId": 1279017,
    "name": "Alīgarh",
    "latitude": 27.88145,
    "longitude": 78.07464,
    "category": "City",
    "subcategory": "City",
    "featured": false,
    "priority": 50
  },
  {
    "geonameId": 13157080,
    "name": "Alikherva",
    "latitude": 22.28107,
    "longitude": 73.71792,
    "category": "City",
    "subcategory": "City",
    "featured": false,
    "priority": 50
  },
  {
    "geonameId": 10783337,
    "name": "Alimetta",
    "latitude": 18.74872,
    "longitude": 83.29176,
    "category": "Mountain",
    "subcategory": "Mountain",
    "featured": false,
    "priority": 50
  },
  {
    "geonameId": 10677940,
    "name": "Alini Ghatti Pass",
    "latitude": 33.09818,
    "longitude": 75.92976,
    "category": "Mountain",
    "subcategory": "Mountain Pass",
    "featured": false,
    "priority": 50
  },
  {
    "geonameId": 10719459,
    "name": "Alipatan",
    "latitude": 32.92077,
    "longitude": 76.35356,
    "category": "Mountain",
    "subcategory": "Mountain",
    "featured": false,
    "priority": 50
  },
  {
    "geonameId": 10719698,
    "name": "Alipatan Pass",
    "latitude": 32.92878,
    "longitude": 76.34858,
    "category": "Mountain",
    "subcategory": "Mountain Pass",
    "featured": false,
    "priority": 50
  },
  {
    "geonameId": 1279005,
    "name": "Alīpur",
    "latitude": 28.79862,
    "longitude": 77.13314,
    "category": "City",
    "subcategory": "County Seat",
    "featured": false,
    "priority": 50
  },
  {
    "geonameId": 1279003,
    "name": "Alīpur Duār",
    "latitude": 26.4835,
    "longitude": 89.52286,
    "category": "City",
    "subcategory": "County Seat",
    "featured": false,
    "priority": 50
  },
  {
    "geonameId": 1258815,
    "name": "Alirajpur",
    "latitude": 22.30393,
    "longitude": 74.35568,
    "category": "City",
    "subcategory": "City",
    "featured": false,
    "priority": 50
  },
  {
    "geonameId": 1278999,
    "name": "Aliyābād",
    "latitude": 12.63168,
    "longitude": 79.21636,
    "category": "City",
    "subcategory": "City",
    "featured": false,
    "priority": 50
  },
  {
    "geonameId": 11264330,
    "name": "Alkerai Betta",
    "latitude": 12.0803,
    "longitude": 77.66795,
    "category": "Mountain",
    "subcategory": "Mountain",
    "featured": false,
    "priority": 50
  },
  {
    "geonameId": 11252841,
    "name": "Allachan Kere",
    "latitude": 12.58206,
    "longitude": 77.45131,
    "category": "Lake",
    "subcategory": "Reservoir",
    "featured": false,
    "priority": 50
  },
  {
    "geonameId": 1278990,
    "name": "Allāhganj",
    "latitude": 27.5454,
    "longitude": 79.68715,
    "category": "City",
    "subcategory": "City",
    "featured": false,
    "priority": 50
  },
  {
    "geonameId": 11421158,
    "name": "Āllamadugu Konda",
    "latitude": 13.36407,
    "longitude": 79.28547,
    "category": "Mountain",
    "subcategory": "Mountain",
    "featured": false,
    "priority": 50
  },
  {
    "geonameId": 1278987,
    "name": "Allāpalli",
    "latitude": 19.43172,
    "longitude": 80.06377,
    "category": "City",
    "subcategory": "City",
    "featured": false,
    "priority": 50
  },
  {
    "geonameId": 13494716,
    "name": "Allapuram",
    "latitude": 12.89509,
    "longitude": 79.12786,
    "category": "City",
    "subcategory": "City",
    "featured": false,
    "priority": 50
  },
  {
    "geonameId": 10771429,
    "name": "Alli Konda",
    "latitude": 17.56436,
    "longitude": 82.79545,
    "category": "Mountain",
    "subcategory": "Mountain",
    "featured": false,
    "priority": 50
  },
  {
    "geonameId": 11416204,
    "name": "Alli Mora",
    "latitude": 14.28595,
    "longitude": 79.40109,
    "category": "Mountain",
    "subcategory": "Mountain",
    "featured": false,
    "priority": 50
  },
  {
    "geonameId": 1278983,
    "name": "Allinagaram",
    "latitude": 10.02737,
    "longitude": 77.47815,
    "category": "City",
    "subcategory": "City",
    "featured": false,
    "priority": 50
  },
  {
    "geonameId": 13494728,
    "name": "Allipur",
    "latitude": 17.6763,
    "longitude": 77.62887,
    "category": "City",
    "subcategory": "City",
    "featured": false,
    "priority": 50
  },
  {
    "geonameId": 13353457,
    "name": "Allipura",
    "latitude": 13.48848,
    "longitude": 77.45859,
    "category": "City",
    "subcategory": "City",
    "featured": false,
    "priority": 50
  },
  {
    "geonameId": 10674421,
    "name": "Allivāgu Cheruvu",
    "latitude": 18.38146,
    "longitude": 80.5564,
    "category": "Lake",
    "subcategory": "Reservoir",
    "featured": false,
    "priority": 50
  },
  {
    "geonameId": 11439859,
    "name": "Alliyalamangalam Eri",
    "latitude": 12.47755,
    "longitude": 79.20523,
    "category": "Lake",
    "subcategory": "Reservoir",
    "featured": false,
    "priority": 50
  },
  {
    "geonameId": 11655446,
    "name": "Allūttu Mottai",
    "latitude": 8.58467,
    "longitude": 77.4638,
    "category": "Mountain",
    "subcategory": "Mountain",
    "featured": false,
    "priority": 50
  },
  {
    "geonameId": 10772091,
    "name": "Alma Dongar",
    "latitude": 19.8104,
    "longitude": 83.09264,
    "category": "Mountain",
    "subcategory": "Mountain",
    "featured": false,
    "priority": 50
  },
  {
    "geonameId": 1278974,
    "name": "Almora",
    "latitude": 29.59713,
    "longitude": 79.65911,
    "category": "City",
    "subcategory": "City",
    "featured": false,
    "priority": 50
  },
  {
    "geonameId": 1278973,
    "name": "Alnāvar",
    "latitude": 15.42727,
    "longitude": 74.74111,
    "category": "City",
    "subcategory": "City",
    "featured": false,
    "priority": 50
  },
  {
    "geonameId": 10722906,
    "name": "Alod Goth",
    "latitude": 32.20831,
    "longitude": 76.43358,
    "category": "Mountain",
    "subcategory": "Mountain Pass",
    "featured": false,
    "priority": 50
  },
  {
    "geonameId": 1278969,
    "name": "Along",
    "latitude": 28.16951,
    "longitude": 94.8006,
    "category": "City",
    "subcategory": "County Seat",
    "featured": false,
    "priority": 50
  },
  {
    "geonameId": 1278964,
    "name": "Alot",
    "latitude": 23.76336,
    "longitude": 75.55662,
    "category": "City",
    "subcategory": "City",
    "featured": false,
    "priority": 50
  },
  {
    "geonameId": 10492883,
    "name": "Alua Tāl",
    "latitude": 25.11066,
    "longitude": 79.41343,
    "category": "Lake",
    "subcategory": "Lake",
    "featured": false,
    "priority": 50
  },
  {
    "geonameId": 1278953,
    "name": "Alūr",
    "latitude": 12.97805,
    "longitude": 75.99094,
    "category": "City",
    "subcategory": "City",
    "featured": false,
    "priority": 50
  },
  {
    "geonameId": 11655763,
    "name": "Ālūr",
    "latitude": 8.19311,
    "longitude": 77.36428,
    "category": "City",
    "subcategory": "City",
    "featured": false,
    "priority": 50
  },
  {
    "geonameId": 7279600,
    "name": "Aluva",
    "latitude": 10.10764,
    "longitude": 76.35158,
    "category": "City",
    "subcategory": "City",
    "featured": false,
    "priority": 50
  },
  {
    "geonameId": 10801321,
    "name": "Āluwalu Tank",
    "latitude": 23.15041,
    "longitude": 73.44255,
    "category": "Lake",
    "subcategory": "Reservoir",
    "featured": false,
    "priority": 50
  },
  {
    "geonameId": 1278943,
    "name": "Alwa Tirunagari",
    "latitude": 8.60635,
    "longitude": 77.93983,
    "category": "City",
    "subcategory": "City",
    "featured": false,
    "priority": 50
  },
  {
    "geonameId": 1278946,
    "name": "Alwar",
    "latitude": 27.56246,
    "longitude": 76.625,
    "category": "City",
    "subcategory": "City",
    "featured": false,
    "priority": 50
  },
  {
    "geonameId": 1278944,
    "name": "Ālwārkurichchi",
    "latitude": 8.7838,
    "longitude": 77.39524,
    "category": "City",
    "subcategory": "City",
    "featured": false,
    "priority": 50
  },
  {
    "geonameId": 1278941,
    "name": "Alwaye",
    "latitude": 10.10649,
    "longitude": 76.35484,
    "category": "City",
    "subcategory": "City",
    "featured": false,
    "priority": 50
  },
  {
    "geonameId": 11485488,
    "name": "Alyampāra Malai",
    "latitude": 9.61956,
    "longitude": 76.83052,
    "category": "Mountain",
    "subcategory": "Mountain",
    "featured": false,
    "priority": 50
  },
  {
    "geonameId": 10843365,
    "name": "Ām Ghāti",
    "latitude": 25.00067,
    "longitude": 80.55414,
    "category": "Mountain",
    "subcategory": "Mountain Pass",
    "featured": false,
    "priority": 50
  },
  {
    "geonameId": 10514973,
    "name": "Ām Talāv",
    "latitude": 21.23454,
    "longitude": 79.81984,
    "category": "Lake",
    "subcategory": "Reservoir",
    "featured": false,
    "priority": 50
  },
  {
    "geonameId": 10480171,
    "name": "Amāhi Tāl",
    "latitude": 24.52738,
    "longitude": 77.68115,
    "category": "Lake",
    "subcategory": "Reservoir",
    "featured": false,
    "priority": 50
  },
  {
    "geonameId": 10577242,
    "name": "Amaila Tāl",
    "latitude": 26.46016,
    "longitude": 81.97215,
    "category": "Lake",
    "subcategory": "Lake",
    "featured": false,
    "priority": 50
  },
  {
    "geonameId": 1278935,
    "name": "Amalāpuram",
    "latitude": 16.57868,
    "longitude": 82.00609,
    "category": "City",
    "subcategory": "City",
    "featured": false,
    "priority": 50
  },
  {
    "geonameId": 1278931,
    "name": "Amalner",
    "latitude": 21.03983,
    "longitude": 75.05887,
    "category": "City",
    "subcategory": "City",
    "featured": false,
    "priority": 50
  },
  {
    "geonameId": 10692827,
    "name": "Amānāra",
    "latitude": 22.2371,
    "longitude": 80.22137,
    "category": "Mountain",
    "subcategory": "Mountain",
    "featured": false,
    "priority": 50
  },
  {
    "geonameId": 1278923,
    "name": "Amānganj",
    "latitude": 24.42664,
    "longitude": 80.03579,
    "category": "City",
    "subcategory": "City",
    "featured": false,
    "priority": 50
  },
  {
    "geonameId": 11278797,
    "name": "Amānichillapalli Kere",
    "latitude": 13.19737,
    "longitude": 78.20686,
    "category": "Lake",
    "subcategory": "Reservoir",
    "featured": false,
    "priority": 50
  },
  {
    "geonameId": 1278921,
    "name": "Amānpur",
    "latitude": 27.71222,
    "longitude": 78.73788,
    "category": "City",
    "subcategory": "City",
    "featured": false,
    "priority": 50
  },
  {
    "geonameId": 11460731,
    "name": "Amanthamudi",
    "latitude": 11.0098,
    "longitude": 76.6079,
    "category": "Mountain",
    "subcategory": "Mountain",
    "featured": false,
    "priority": 50
  },
  {
    "geonameId": 10694337,
    "name": "Amar Dongri",
    "latitude": 20.11425,
    "longitude": 81.31972,
    "category": "Mountain",
    "subcategory": "Mountain",
    "featured": false,
    "priority": 50
  },
  {
    "geonameId": 12261477,
    "name": "Amaravati",
    "latitude": 16.514,
    "longitude": 80.516,
    "category": "City",
    "subcategory": "City",
    "featured": false,
    "priority": 50
  },
  {
    "geonameId": 12465603,
    "name": "Amarāvati",
    "latitude": 16.54167,
    "longitude": 80.51528,
    "category": "City",
    "subcategory": "Regional Capital",
    "featured": false,
    "priority": 50
  },
  {
    "geonameId": 13157062,
    "name": "Amardad",
    "latitude": 21.69713,
    "longitude": 69.72057,
    "category": "City",
    "subcategory": "City",
    "featured": false,
    "priority": 50
  },
  {
    "geonameId": 10432960,
    "name": "Amargarh",
    "latitude": 30.46207,
    "longitude": 76.01438,
    "category": "City",
    "subcategory": "City",
    "featured": false,
    "priority": 50
  },
  {
    "geonameId": 1278905,
    "name": "Amarkantak",
    "latitude": 22.67486,
    "longitude": 81.75908,
    "category": "City",
    "subcategory": "City",
    "featured": false,
    "priority": 50
  },
  {
    "geonameId": 10654711,
    "name": "Amarnāth",
    "latitude": 34.22371,
    "longitude": 75.48447,
    "category": "Mountain",
    "subcategory": "Mountain",
    "featured": false,
    "priority": 50
  },
  {
    "geonameId": 1278899,
    "name": "Amarpātan",
    "latitude": 24.31371,
    "longitude": 80.97703,
    "category": "City",
    "subcategory": "City",
    "featured": false,
    "priority": 50
  },
  {
    "geonameId": 1278895,
    "name": "Amarpur",
    "latitude": 25.03967,
    "longitude": 86.90247,
    "category": "City",
    "subcategory": "City",
    "featured": false,
    "priority": 50
  },
  {
    "geonameId": 1278889,
    "name": "Amarwāra",
    "latitude": 22.2978,
    "longitude": 79.16943,
    "category": "City",
    "subcategory": "City",
    "featured": false,
    "priority": 50
  },
  {
    "geonameId": 10548859,
    "name": "Amāwa Tāra",
    "latitude": 24.95586,
    "longitude": 82.05789,
    "category": "Lake",
    "subcategory": "Reservoir",
    "featured": false,
    "priority": 50
  },
  {
    "geonameId": 11742325,
    "name": "Amba Ambdhari Parbat",
    "latitude": 20.424,
    "longitude": 84.66435,
    "category": "Mountain",
    "subcategory": "Mountain",
    "featured": false,
    "priority": 50
  },
  {
    "geonameId": 10894472,
    "name": "Ambā Gutta",
    "latitude": 19.39222,
    "longitude": 79.88686,
    "category": "Mountain",
    "subcategory": "Mountain",
    "featured": false,
    "priority": 50
  },
  {
    "geonameId": 10467526,
    "name": "Ambābāi Cheruvu",
    "latitude": 19.22718,
    "longitude": 78.24432,
    "category": "Lake",
    "subcategory": "Reservoir",
    "featured": false,
    "priority": 50
  },
  {
    "geonameId": 1278871,
    "name": "Ambad",
    "latitude": 19.61301,
    "longitude": 75.78906,
    "category": "City",
    "subcategory": "City",
    "featured": false,
    "priority": 50
  },
  {
    "geonameId": 1278869,
    "name": "Ambāgarh Chauki",
    "latitude": 20.77644,
    "longitude": 80.74608,
    "category": "City",
    "subcategory": "City",
    "featured": false,
    "priority": 50
  },
  {
    "geonameId": 1278868,
    "name": "Ambāh",
    "latitude": 26.70423,
    "longitude": 78.22678,
    "category": "City",
    "subcategory": "City",
    "featured": false,
    "priority": 50
  },
  {
    "geonameId": 1278867,
    "name": "Ambahta",
    "latitude": 29.85706,
    "longitude": 77.33583,
    "category": "City",
    "subcategory": "City",
    "featured": false,
    "priority": 50
  },
  {
    "geonameId": 10708317,
    "name": "Ambājhari",
    "latitude": 20.97002,
    "longitude": 80.18009,
    "category": "Mountain",
    "subcategory": "Mountain",
    "featured": false,
    "priority": 50
  },
  {
    "geonameId": 10453124,
    "name": "Ambājhari Tālāb",
    "latitude": 20.95948,
    "longitude": 78.31844,
    "category": "Lake",
    "subcategory": "Reservoir",
    "featured": false,
    "priority": 50
  },
  {
    "geonameId": 1278864,
    "name": "Ambājheri Tank",
    "latitude": 21.12774,
    "longitude": 79.03891,
    "category": "Lake",
    "subcategory": "Reservoir",
    "featured": false,
    "priority": 50
  },
  {
    "geonameId": 13157126,
    "name": "Ambaji",
    "latitude": 24.33174,
    "longitude": 72.84564,
    "category": "City",
    "subcategory": "City",
    "featured": false,
    "priority": 50
  },
  {
    "geonameId": 11278486,
    "name": "Ambājidurga",
    "latitude": 13.39376,
    "longitude": 78.01675,
    "category": "Mountain",
    "subcategory": "Mountain",
    "featured": false,
    "priority": 50
  },
  {
    "geonameId": 1278862,
    "name": "Ambājogāi",
    "latitude": 18.73312,
    "longitude": 76.38616,
    "category": "City",
    "subcategory": "City",
    "featured": false,
    "priority": 50
  },
  {
    "geonameId": 11623994,
    "name": "Āmbakhol",
    "latitude": 20.5804,
    "longitude": 84.92201,
    "category": "Mountain",
    "subcategory": "Mountain",
    "featured": false,
    "priority": 50
  },
  {
    "geonameId": 1278860,
    "name": "Ambāla",
    "latitude": 30.36099,
    "longitude": 76.79782,
    "category": "City",
    "subcategory": "City",
    "featured": false,
    "priority": 50
  },
  {
    "geonameId": 11477676,
    "name": "Ambala Malai",
    "latitude": 10.86564,
    "longitude": 76.60631,
    "category": "Mountain",
    "subcategory": "Mountain",
    "featured": false,
    "priority": 50
  },
  {
    "geonameId": 13157160,
    "name": "Ambala Sadar",
    "latitude": 30.33544,
    "longitude": 76.86265,
    "category": "City",
    "subcategory": "City",
    "featured": false,
    "priority": 50
  },
  {
    "geonameId": 13157072,
    "name": "Ambaliyasan",
    "latitude": 23.44986,
    "longitude": 72.42333,
    "category": "City",
    "subcategory": "City",
    "featured": false,
    "priority": 50
  },
  {
    "geonameId": 11463522,
    "name": "Amballūr",
    "latitude": 10.43431,
    "longitude": 76.26341,
    "category": "City",
    "subcategory": "City",
    "featured": false,
    "priority": 50
  },
  {
    "geonameId": 10210430,
    "name": "Ambara",
    "latitude": 22.19022,
    "longitude": 78.67079,
    "category": "City",
    "subcategory": "City",
    "featured": false,
    "priority": 50
  },
  {
    "geonameId": 11422518,
    "name": "Ambara Kona",
    "latitude": 13.53075,
    "longitude": 79.58599,
    "category": "Mountain",
    "subcategory": "Mountain",
    "featured": false,
    "priority": 50
  },
  {
    "geonameId": 11680624,
    "name": "Ambarimedu Malai",
    "latitude": 9.42047,
    "longitude": 77.35862,
    "category": "Mountain",
    "subcategory": "Mountain",
    "featured": false,
    "priority": 50
  },
  {
    "geonameId": 1278903,
    "name": "Ambarnath",
    "latitude": 19.2,
    "longitude": 73.16667,
    "category": "City",
    "subcategory": "City",
    "featured": false,
    "priority": 50
  },
  {
    "geonameId": 1278842,
    "name": "Āmbāsa",
    "latitude": 23.936,
    "longitude": 91.85436,
    "category": "City",
    "subcategory": "City",
    "featured": false,
    "priority": 50
  },
  {
    "geonameId": 1278841,
    "name": "Ambasamudram",
    "latitude": 8.71068,
    "longitude": 77.4519,
    "category": "City",
    "subcategory": "City",
    "featured": false,
    "priority": 50
  },
  {
    "geonameId": 1278840,
    "name": "Ambattur",
    "latitude": 13.09818,
    "longitude": 80.16152,
    "category": "City",
    "subcategory": "City",
    "featured": false,
    "priority": 50
  },
  {
    "geonameId": 1466026,
    "name": "Ambattur Tank",
    "latitude": 13.1075,
    "longitude": 80.13833,
    "category": "Lake",
    "subcategory": "Reservoir",
    "featured": false,
    "priority": 50
  },
  {
    "geonameId": 10716866,
    "name": "Ambekhāri",
    "latitude": 20.64181,
    "longitude": 80.49103,
    "category": "Mountain",
    "subcategory": "Mountain",
    "featured": false,
    "priority": 50
  },
  {
    "geonameId": 13353627,
    "name": "Ambepur",
    "latitude": 18.68826,
    "longitude": 72.98553,
    "category": "City",
    "subcategory": "City",
    "featured": false,
    "priority": 50
  },
  {
    "geonameId": 10845423,
    "name": "Amber Gudda",
    "latitude": 13.925,
    "longitude": 74.79398,
    "category": "Mountain",
    "subcategory": "Mountain",
    "featured": false,
    "priority": 50
  },
  {
    "geonameId": 11720565,
    "name": "Ambeti",
    "latitude": 20.69321,
    "longitude": 85.15132,
    "category": "Mountain",
    "subcategory": "Mountain",
    "featured": false,
    "priority": 50
  },
  {
    "geonameId": 13156867,
    "name": "Ambicapur Pt VI",
    "latitude": 24.78262,
    "longitude": 92.78919,
    "category": "City",
    "subcategory": "City",
    "featured": false,
    "priority": 50
  },
  {
    "geonameId": 13156898,
    "name": "Ambicapur Pt VIII",
    "latitude": 24.82088,
    "longitude": 92.77543,
    "category": "City",
    "subcategory": "City",
    "featured": false,
    "priority": 50
  },
  {
    "geonameId": 1278827,
    "name": "Ambikāpur",
    "latitude": 23.11892,
    "longitude": 83.19537,
    "category": "City",
    "subcategory": "County Seat",
    "featured": false,
    "priority": 50
  },
  {
    "geonameId": 13156903,
    "name": "Ambikapur Part-X",
    "latitude": 24.79925,
    "longitude": 92.79196,
    "category": "City",
    "subcategory": "City",
    "featured": false,
    "priority": 50
  },
  {
    "geonameId": 11477658,
    "name": "Ambikāpuram",
    "latitude": 10.79385,
    "longitude": 76.65303,
    "category": "City",
    "subcategory": "City",
    "featured": false,
    "priority": 50
  },
  {
    "geonameId": 1445573,
    "name": "Ambīr Cheruvu",
    "latitude": 17.51074,
    "longitude": 78.39655,
    "category": "Lake",
    "subcategory": "Lake",
    "featured": false,
    "priority": 50
  },
  {
    "geonameId": 13353637,
    "name": "Ambivali T. Tungartan",
    "latitude": 18.89775,
    "longitude": 73.17291,
    "category": "City",
    "subcategory": "City",
    "featured": false,
    "priority": 50
  },
  {
    "geonameId": 1431958,
    "name": "Āmbli Dhār",
    "latitude": 33.19607,
    "longitude": 74.20184,
    "category": "Mountain",
    "subcategory": "Mountain",
    "featured": false,
    "priority": 50
  },
  {
    "geonameId": 10808008,
    "name": "Ambli Tank",
    "latitude": 22.71716,
    "longitude": 74.18132,
    "category": "Lake",
    "subcategory": "Reservoir",
    "featured": false,
    "priority": 50
  },
  {
    "geonameId": 10773556,
    "name": "Ambobādi Parbat",
    "latitude": 19.78504,
    "longitude": 83.74913,
    "category": "Mountain",
    "subcategory": "Mountain",
    "featured": false,
    "priority": 50
  },
  {
    "geonameId": 13157064,
    "name": "Amboli",
    "latitude": 21.28851,
    "longitude": 72.95062,
    "category": "City",
    "subcategory": "City",
    "featured": false,
    "priority": 50
  },
  {
    "geonameId": 1278816,
    "name": "Ambu Island",
    "latitude": 19.13404,
    "longitude": 72.78196,
    "category": "Island",
    "subcategory": "Island",
    "featured": false,
    "priority": 50
  },
  {
    "geonameId": 1278815,
    "name": "Ambur",
    "latitude": 12.79163,
    "longitude": 78.71644,
    "category": "City",
    "subcategory": "City",
    "featured": false,
    "priority": 50
  },
  {
    "geonameId": 10771526,
    "name": "Amdālavāka Konda",
    "latitude": 17.69194,
    "longitude": 82.85259,
    "category": "Mountain",
    "subcategory": "Mountain",
    "featured": false,
    "priority": 50
  },
  {
    "geonameId": 1278746,
    "name": "Amedikal Betta",
    "latitude": 12.97811,
    "longitude": 75.51163,
    "category": "Mountain",
    "subcategory": "Mountain",
    "featured": false,
    "priority": 50
  },
  {
    "geonameId": 1278808,
    "name": "Amet",
    "latitude": 25.30609,
    "longitude": 73.9258,
    "category": "City",
    "subcategory": "City",
    "featured": false,
    "priority": 50
  },
  {
    "geonameId": 1278805,
    "name": "Amethi",
    "latitude": 28.01667,
    "longitude": 81.05,
    "category": "City",
    "subcategory": "City",
    "featured": false,
    "priority": 50
  },
  {
    "geonameId": 1278806,
    "name": "Amethī",
    "latitude": 26.15696,
    "longitude": 81.80519,
    "category": "City",
    "subcategory": "City",
    "featured": false,
    "priority": 50
  },
  {
    "geonameId": 1278802,
    "name": "Amgaon",
    "latitude": 21.37196,
    "longitude": 80.38446,
    "category": "City",
    "subcategory": "City",
    "featured": false,
    "priority": 50
  },
  {
    "geonameId": 11738635,
    "name": "Āmgothu Pahār",
    "latitude": 21.27417,
    "longitude": 84.94399,
    "category": "Mountain",
    "subcategory": "Mountain",
    "featured": false,
    "priority": 50
  },
  {
    "geonameId": 1278796,
    "name": "Amguri",
    "latitude": 26.81482,
    "longitude": 94.52614,
    "category": "City",
    "subcategory": "City",
    "featured": false,
    "priority": 50
  },
  {
    "geonameId": 11340625,
    "name": "Āmidāla Konda",
    "latitude": 15.99193,
    "longitude": 78.78019,
    "category": "Mountain",
    "subcategory": "Mountain",
    "featured": false,
    "priority": 50
  },
  {
    "geonameId": 1278788,
    "name": "Amīndīvi Islands",
    "latitude": 11.38333,
    "longitude": 72.38333,
    "category": "Island",
    "subcategory": "Island Group",
    "featured": false,
    "priority": 50
  },
  {
    "geonameId": 1278787,
    "name": "Amingaon",
    "latitude": 26.18491,
    "longitude": 91.6786,
    "category": "City",
    "subcategory": "City",
    "featured": false,
    "priority": 50
  },
  {
    "geonameId": 1278785,
    "name": "Amīngarh",
    "latitude": 16.05662,
    "longitude": 75.94773,
    "category": "City",
    "subcategory": "City",
    "featured": false,
    "priority": 50
  },
  {
    "geonameId": 12382220,
    "name": "Amini",
    "latitude": 11.11408,
    "longitude": 72.71907,
    "category": "City",
    "subcategory": "City",
    "featured": false,
    "priority": 50
  },
  {
    "geonameId": 1278784,
    "name": "Amini Island",
    "latitude": 11.12114,
    "longitude": 72.72263,
    "category": "Island",
    "subcategory": "Island",
    "featured": false,
    "priority": 50
  },
  {
    "geonameId": 10524013,
    "name": "Amīnpur",
    "latitude": 17.5242,
    "longitude": 78.32273,
    "category": "City",
    "subcategory": "City",
    "featured": false,
    "priority": 50
  },
  {
    "geonameId": 1462598,
    "name": "Āmjhori",
    "latitude": 21.85667,
    "longitude": 86.31861,
    "category": "Mountain",
    "subcategory": "Mountain",
    "featured": false,
    "priority": 50
  },
  {
    "geonameId": 10458113,
    "name": "Amkhera",
    "latitude": 23.21334,
    "longitude": 79.93336,
    "category": "City",
    "subcategory": "City",
    "featured": false,
    "priority": 50
  },
  {
    "geonameId": 10512377,
    "name": "Āmkhore Pahār",
    "latitude": 21.40092,
    "longitude": 77.42847,
    "category": "Mountain",
    "subcategory": "Mountain",
    "featured": false,
    "priority": 50
  },
  {
    "geonameId": 10772488,
    "name": "Amkunar",
    "latitude": 19.63776,
    "longitude": 83.21012,
    "category": "Mountain",
    "subcategory": "Mountain",
    "featured": false,
    "priority": 50
  },
  {
    "geonameId": 1278775,
    "name": "Amla",
    "latitude": 21.92485,
    "longitude": 78.12786,
    "category": "City",
    "subcategory": "City",
    "featured": false,
    "priority": 50
  },
  {
    "geonameId": 10435941,
    "name": "Āmla Reservoir",
    "latitude": 18.90469,
    "longitude": 76.28424,
    "category": "Lake",
    "subcategory": "Reservoir",
    "featured": false,
    "priority": 50
  },
  {
    "geonameId": 10765003,
    "name": "Amla Tāl",
    "latitude": 26.23559,
    "longitude": 81.59379,
    "category": "Lake",
    "subcategory": "Lake",
    "featured": false,
    "priority": 50
  },
  {
    "geonameId": 1278774,
    "name": "Āmlāgora",
    "latitude": 22.84616,
    "longitude": 87.33559,
    "category": "City",
    "subcategory": "City",
    "featured": false,
    "priority": 50
  },
  {
    "geonameId": 10515384,
    "name": "Amlāh Ghāt",
    "latitude": 24.53043,
    "longitude": 83.23637,
    "category": "Mountain",
    "subcategory": "Mountain Pass",
    "featured": false,
    "priority": 50
  },
  {
    "geonameId": 13353615,
    "name": "Amlai",
    "latitude": 23.19838,
    "longitude": 81.58064,
    "category": "City",
    "subcategory": "City",
    "featured": false,
    "priority": 50
  },
  {
    "geonameId": 1278768,
    "name": "Āmli",
    "latitude": 20.28333,
    "longitude": 73.01667,
    "category": "City",
    "subcategory": "City",
    "featured": false,
    "priority": 50
  },
  {
    "geonameId": 10721345,
    "name": "Amli Dādar",
    "latitude": 22.02246,
    "longitude": 81.08557,
    "category": "Mountain",
    "subcategory": "Mountain",
    "featured": false,
    "priority": 50
  },
  {
    "geonameId": 10698451,
    "name": "Amli Pāni",
    "latitude": 21.74461,
    "longitude": 74.42029,
    "category": "Mountain",
    "subcategory": "Mountain Pass",
    "featured": false,
    "priority": 50
  },
  {
    "geonameId": 10709198,
    "name": "Amli Pathār",
    "latitude": 21.36601,
    "longitude": 82.33891,
    "category": "Mountain",
    "subcategory": "Mountain",
    "featured": false,
    "priority": 50
  },
  {
    "geonameId": 10815843,
    "name": "Āmlibāri Pass",
    "latitude": 21.68424,
    "longitude": 74.02404,
    "category": "Mountain",
    "subcategory": "Mountain Pass",
    "featured": false,
    "priority": 50
  },
  {
    "geonameId": 10526432,
    "name": "Amliha Tāl",
    "latitude": 25.56955,
    "longitude": 80.52898,
    "category": "Lake",
    "subcategory": "Lake",
    "featured": false,
    "priority": 50
  },
  {
    "geonameId": 10721196,
    "name": "Amlīrota Dongar",
    "latitude": 22.36022,
    "longitude": 81.15502,
    "category": "Mountain",
    "subcategory": "Mountain",
    "featured": false,
    "priority": 50
  },
  {
    "geonameId": 1278758,
    "name": "Amloh",
    "latitude": 30.60837,
    "longitude": 76.23199,
    "category": "City",
    "subcategory": "City",
    "featured": false,
    "priority": 50
  },
  {
    "geonameId": 10169212,
    "name": "Amlokri Tibba",
    "latitude": 30.72702,
    "longitude": 77.94274,
    "category": "Mountain",
    "subcategory": "Mountain",
    "featured": false,
    "priority": 50
  },
  {
    "geonameId": 10783495,
    "name": "Ammadevi Parvatam",
    "latitude": 18.68312,
    "longitude": 83.3582,
    "category": "Mountain",
    "subcategory": "Mountain",
    "featured": false,
    "priority": 50
  },
  {
    "geonameId": 13494700,
    "name": "Ammainaickanur",
    "latitude": 10.16707,
    "longitude": 77.91318,
    "category": "City",
    "subcategory": "City",
    "featured": false,
    "priority": 50
  },
  {
    "geonameId": 11439432,
    "name": "Ammak Kallu",
    "latitude": 12.60375,
    "longitude": 79.03804,
    "category": "Mountain",
    "subcategory": "Mountain",
    "featured": false,
    "priority": 50
  },
  {
    "geonameId": 11456711,
    "name": "Ammanmudibetta",
    "latitude": 11.47859,
    "longitude": 76.32699,
    "category": "Mountain",
    "subcategory": "Mountain",
    "featured": false,
    "priority": 50
  },
  {
    "geonameId": 11423479,
    "name": "Ammanūr",
    "latitude": 13.06505,
    "longitude": 79.65303,
    "category": "City",
    "subcategory": "City",
    "featured": false,
    "priority": 50
  },
  {
    "geonameId": 1278753,
    "name": "Ammāpattinam",
    "latitude": 10.01534,
    "longitude": 79.23137,
    "category": "City",
    "subcategory": "City",
    "featured": false,
    "priority": 50
  },
  {
    "geonameId": 1278751,
    "name": "Ammāpettai",
    "latitude": 11.61975,
    "longitude": 77.74264,
    "category": "City",
    "subcategory": "City",
    "featured": false,
    "priority": 50
  },
  {
    "geonameId": 11184126,
    "name": "Ammavarikuppam",
    "latitude": 13.17794,
    "longitude": 79.41278,
    "category": "City",
    "subcategory": "City",
    "featured": false,
    "priority": 50
  },
  {
    "geonameId": 11712068,
    "name": "Ammāyi Malai",
    "latitude": 11.45914,
    "longitude": 78.6555,
    "category": "Mountain",
    "subcategory": "Mountain",
    "featured": false,
    "priority": 50
  },
  {
    "geonameId": 10878725,
    "name": "Ammunja Gudde",
    "latitude": 12.88404,
    "longitude": 75.39161,
    "category": "Mountain",
    "subcategory": "Mountain",
    "featured": false,
    "priority": 50
  },
  {
    "geonameId": 11441203,
    "name": "Ammūr",
    "latitude": 12.975,
    "longitude": 79.36279,
    "category": "City",
    "subcategory": "City",
    "featured": false,
    "priority": 50
  },
  {
    "geonameId": 1278742,
    "name": "Amod",
    "latitude": 21.99317,
    "longitude": 72.87047,
    "category": "City",
    "subcategory": "City",
    "featured": false,
    "priority": 50
  },
  {
    "geonameId": 11875610,
    "name": "Ampati",
    "latitude": 25.4623,
    "longitude": 89.93325,
    "category": "City",
    "subcategory": "County Seat",
    "featured": false,
    "priority": 50
  },
  {
    "geonameId": 1278718,
    "name": "Amravati",
    "latitude": 20.93333,
    "longitude": 77.75,
    "category": "City",
    "subcategory": "County Seat",
    "featured": false,
    "priority": 50
  },
  {
    "geonameId": 10773373,
    "name": "Amravaticuttack",
    "latitude": 19.88697,
    "longitude": 83.52227,
    "category": "Mountain",
    "subcategory": "Mountain",
    "featured": false,
    "priority": 50
  },
  {
    "geonameId": 1278715,
    "name": "Amreli",
    "latitude": 21.59983,
    "longitude": 71.21169,
    "category": "City",
    "subcategory": "County Seat",
    "featured": false,
    "priority": 50
  },
  {
    "geonameId": 10226576,
    "name": "Amri Thāch",
    "latitude": 31.30104,
    "longitude": 78.12828,
    "category": "Mountain",
    "subcategory": "Mountain Pass",
    "featured": false,
    "priority": 50
  },
  {
    "geonameId": 1278710,
    "name": "Amritsar",
    "latitude": 31.62234,
    "longitude": 74.87534,
    "category": "City",
    "subcategory": "City",
    "featured": false,
    "priority": 50
  },
  {
    "geonameId": 1278708,
    "name": "Amroha",
    "latitude": 28.90314,
    "longitude": 78.46984,
    "category": "City",
    "subcategory": "City",
    "featured": false,
    "priority": 50
  },
  {
    "geonameId": 1278707,
    "name": "Amroli",
    "latitude": 21.25084,
    "longitude": 72.83878,
    "category": "City",
    "subcategory": "City",
    "featured": false,
    "priority": 50
  },
  {
    "geonameId": 10168502,
    "name": "Amsot",
    "latitude": 30.37932,
    "longitude": 77.68752,
    "category": "Mountain",
    "subcategory": "Mountain",
    "featured": false,
    "priority": 50
  },
  {
    "geonameId": 1278703,
    "name": "Āmta",
    "latitude": 22.58344,
    "longitude": 88.01039,
    "category": "City",
    "subcategory": "City",
    "featured": false,
    "priority": 50
  },
  {
    "geonameId": 10872092,
    "name": "Amtanal Gudde",
    "latitude": 13.09446,
    "longitude": 75.30337,
    "category": "Mountain",
    "subcategory": "Mountain",
    "featured": false,
    "priority": 50
  },
  {
    "geonameId": 11740741,
    "name": "Amthāpāra Nadia",
    "latitude": 20.70195,
    "longitude": 84.25203,
    "category": "Mountain",
    "subcategory": "Mountain",
    "featured": false,
    "priority": 50
  },
  {
    "geonameId": 10897166,
    "name": "Amti Katte",
    "latitude": 12.00326,
    "longitude": 76.18968,
    "category": "Lake",
    "subcategory": "Lake",
    "featured": false,
    "priority": 50
  },
  {
    "geonameId": 11275717,
    "name": "Āmu Konda",
    "latitude": 14.88709,
    "longitude": 78.79654,
    "category": "Mountain",
    "subcategory": "Mountain",
    "featured": false,
    "priority": 50
  },
  {
    "geonameId": 1278698,
    "name": "Amudālavalasa",
    "latitude": 18.41025,
    "longitude": 83.90295,
    "category": "City",
    "subcategory": "City",
    "featured": false,
    "priority": 50
  },
  {
    "geonameId": 1278697,
    "name": "Āmūr",
    "latitude": 18.79284,
    "longitude": 78.27666,
    "category": "City",
    "subcategory": "City",
    "featured": false,
    "priority": 50
  },
  {
    "geonameId": 10473470,
    "name": "Āna Sāgar",
    "latitude": 25.2305,
    "longitude": 77.10924,
    "category": "Lake",
    "subcategory": "Reservoir",
    "featured": false,
    "priority": 50
  },
  {
    "geonameId": 11680049,
    "name": "Anachērutta Malai",
    "latitude": 9.51861,
    "longitude": 77.13795,
    "category": "Mountain",
    "subcategory": "Mountain",
    "featured": false,
    "priority": 50
  },
  {
    "geonameId": 11521093,
    "name": "Ānai Kādu",
    "latitude": 11.68407,
    "longitude": 77.50895,
    "category": "Mountain",
    "subcategory": "Mountain",
    "featured": false,
    "priority": 50
  },
  {
    "geonameId": 11568759,
    "name": "Ānai Kal",
    "latitude": 10.32101,
    "longitude": 77.04579,
    "category": "Mountain",
    "subcategory": "Mountain",
    "featured": false,
    "priority": 50
  },
  {
    "geonameId": 1278690,
    "name": "Anai Mudi",
    "latitude": 10.16846,
    "longitude": 77.0618,
    "category": "Mountain",
    "subcategory": "Mountain",
    "featured": false,
    "priority": 50
  },
  {
    "geonameId": 11456789,
    "name": "Anaikettu",
    "latitude": 11.09701,
    "longitude": 76.37562,
    "category": "Mountain",
    "subcategory": "Mountain",
    "featured": false,
    "priority": 50
  },
  {
    "geonameId": 11482962,
    "name": "Anaikuli Kavalai",
    "latitude": 10.27191,
    "longitude": 76.53733,
    "category": "Mountain",
    "subcategory": "Mountain",
    "featured": false,
    "priority": 50
  },
  {
    "geonameId": 1278692,
    "name": "Anaimalai",
    "latitude": 10.58303,
    "longitude": 76.93441,
    "category": "City",
    "subcategory": "City",
    "featured": false,
    "priority": 50
  },
  {
    "geonameId": 11484706,
    "name": "Anaimudikal",
    "latitude": 10.15982,
    "longitude": 76.96704,
    "category": "Mountain",
    "subcategory": "Mountain",
    "featured": false,
    "priority": 50
  },
  {
    "geonameId": 11667429,
    "name": "Ānaipār Tīvu",
    "latitude": 9.15295,
    "longitude": 78.69492,
    "category": "Island",
    "subcategory": "Island",
    "featured": false,
    "priority": 50
  },
  {
    "geonameId": 11568705,
    "name": "Ānaitalai Gundu",
    "latitude": 10.45657,
    "longitude": 77.03197,
    "category": "Mountain",
    "subcategory": "Mountain",
    "featured": false,
    "priority": 50
  },
  {
    "geonameId": 11571922,
    "name": "Ānaivarai Malai",
    "latitude": 10.21737,
    "longitude": 77.2153,
    "category": "Mountain",
    "subcategory": "Mountain",
    "featured": false,
    "priority": 50
  },
  {
    "geonameId": 11664525,
    "name": "Ānaiyūr",
    "latitude": 9.96152,
    "longitude": 78.1118,
    "category": "City",
    "subcategory": "City",
    "featured": false,
    "priority": 50
  },
  {
    "geonameId": 11453103,
    "name": "Anakallu",
    "latitude": 11.51952,
    "longitude": 76.40283,
    "category": "Mountain",
    "subcategory": "Mountain",
    "featured": false,
    "priority": 50
  },
  {
    "geonameId": 1278688,
    "name": "Anakapalle",
    "latitude": 17.69134,
    "longitude": 83.00395,
    "category": "City",
    "subcategory": "City",
    "featured": false,
    "priority": 50
  },
  {
    "geonameId": 10698450,
    "name": "Anakdeo",
    "latitude": 21.73051,
    "longitude": 74.44671,
    "category": "Mountain",
    "subcategory": "Mountain Pass",
    "featured": false,
    "priority": 50
  },
  {
    "geonameId": 10704224,
    "name": "Anakvādl",
    "latitude": 20.78479,
    "longitude": 74.69409,
    "category": "Mountain",
    "subcategory": "Mountain",
    "featured": false,
    "priority": 50
  },
  {
    "geonameId": 11680952,
    "name": "Ānal Kal",
    "latitude": 9.76506,
    "longitude": 77.60505,
    "category": "Mountain",
    "subcategory": "Mountain Pass",
    "featured": false,
    "priority": 50
  },
  {
    "geonameId": 10773533,
    "name": "Anamini Parbat",
    "latitude": 19.85246,
    "longitude": 83.68379,
    "category": "Mountain",
    "subcategory": "Mountain",
    "featured": false,
    "priority": 50
  },
  {
    "geonameId": 11522027,
    "name": "Ananatasāgaram",
    "latitude": 11.46033,
    "longitude": 77.58349,
    "category": "Lake",
    "subcategory": "Reservoir",
    "featured": false,
    "priority": 50
  },
  {
    "geonameId": 1278685,
    "name": "Anand",
    "latitude": 22.55251,
    "longitude": 72.9552,
    "category": "City",
    "subcategory": "County Seat",
    "featured": false,
    "priority": 50
  },
  {
    "geonameId": 13494743,
    "name": "Anandanagar",
    "latitude": 23.8087,
    "longitude": 91.31299,
    "category": "City",
    "subcategory": "City",
    "featured": false,
    "priority": 50
  },
  {
    "geonameId": 11485305,
    "name": "Anandi Malai",
    "latitude": 9.73784,
    "longitude": 76.96333,
    "category": "Mountain",
    "subcategory": "Mountain",
    "featured": false,
    "priority": 50
  },
  {
    "geonameId": 1278682,
    "name": "Anandnagar",
    "latitude": 27.10062,
    "longitude": 83.27156,
    "category": "City",
    "subcategory": "City",
    "featured": false,
    "priority": 50
  },
  {
    "geonameId": 13157110,
    "name": "Anandpar",
    "latitude": 22.322,
    "longitude": 70.84556,
    "category": "City",
    "subcategory": "City",
    "featured": false,
    "priority": 50
  },
  {
    "geonameId": 1278676,
    "name": "Anandpur",
    "latitude": 31.23926,
    "longitude": 76.50253,
    "category": "City",
    "subcategory": "City",
    "featured": false,
    "priority": 50
  },
  {
    "geonameId": 11485377,
    "name": "Anangam Padi",
    "latitude": 9.60351,
    "longitude": 76.84842,
    "category": "Mountain",
    "subcategory": "Mountain",
    "featured": false,
    "priority": 50
  },
  {
    "geonameId": 1278672,
    "name": "Anantapur",
    "latitude": 14.67784,
    "longitude": 77.60813,
    "category": "City",
    "subcategory": "City",
    "featured": false,
    "priority": 50
  },
  {
    "geonameId": 11719689,
    "name": "Anantapur Parbat",
    "latitude": 21.02261,
    "longitude": 85.51102,
    "category": "Mountain",
    "subcategory": "Mountain",
    "featured": false,
    "priority": 50
  },
  {
    "geonameId": 11442597,
    "name": "Anantapuram",
    "latitude": 12.11861,
    "longitude": 79.3822,
    "category": "City",
    "subcategory": "City",
    "featured": false,
    "priority": 50
  },
  {
    "geonameId": 1278667,
    "name": "Anantnag",
    "latitude": 33.73068,
    "longitude": 75.15418,
    "category": "City",
    "subcategory": "City",
    "featured": false,
    "priority": 50
  },
  {
    "geonameId": 13353636,
    "name": "Anantpur",
    "latitude": 19.93289,
    "longitude": 75.01235,
    "category": "City",
    "subcategory": "City",
    "featured": false,
    "priority": 50
  },
  {
    "geonameId": 10745543,
    "name": "Anapa Konda",
    "latitude": 17.5649,
    "longitude": 81.77019,
    "category": "Mountain",
    "subcategory": "Mountain",
    "featured": false,
    "priority": 50
  },
  {
    "geonameId": 11412867,
    "name": "Anapalamma Bodu",
    "latitude": 14.31843,
    "longitude": 79.05069,
    "category": "Mountain",
    "subcategory": "Mountain",
    "featured": false,
    "priority": 50
  },
  {
    "geonameId": 11486633,
    "name": "Ānappāra Mudi",
    "latitude": 9.08734,
    "longitude": 76.98405,
    "category": "Mountain",
    "subcategory": "Mountain",
    "featured": false,
    "priority": 50
  },
  {
    "geonameId": 11482996,
    "name": "Anavāripādam",
    "latitude": 10.45901,
    "longitude": 76.59344,
    "category": "Mountain",
    "subcategory": "Mountain",
    "featured": false,
    "priority": 50
  },
  {
    "geonameId": 1278653,
    "name": "Ānchār Lake",
    "latitude": 34.14694,
    "longitude": 74.78933,
    "category": "Lake",
    "subcategory": "Lake",
    "featured": false,
    "priority": 50
  },
  {
    "geonameId": 13353529,
    "name": "Ancharakandy",
    "latitude": 11.8841,
    "longitude": 75.48501,
    "category": "City",
    "subcategory": "City",
    "featured": false,
    "priority": 50
  },
  {
    "geonameId": 11519240,
    "name": "Anchi Ora",
    "latitude": 11.93994,
    "longitude": 77.47511,
    "category": "Mountain",
    "subcategory": "Mountain",
    "featured": false,
    "priority": 50
  },
  {
    "geonameId": 11344971,
    "name": "Anchimalu Malai",
    "latitude": 12.45031,
    "longitude": 78.27851,
    "category": "Mountain",
    "subcategory": "Mountain",
    "featured": false,
    "priority": 50
  },
  {
    "geonameId": 11680068,
    "name": "Anchūr Malai",
    "latitude": 9.57112,
    "longitude": 77.16588,
    "category": "Mountain",
    "subcategory": "Mountain",
    "featured": false,
    "priority": 50
  },
  {
    "geonameId": 13157123,
    "name": "Andada",
    "latitude": 21.65588,
    "longitude": 73.02151,
    "category": "City",
    "subcategory": "City",
    "featured": false,
    "priority": 50
  },
  {
    "geonameId": 11413025,
    "name": "Andamala Kuppa",
    "latitude": 14.34102,
    "longitude": 79.08947,
    "category": "Mountain",
    "subcategory": "Mountain",
    "featured": false,
    "priority": 50
  },
  {
    "geonameId": 1278646,
    "name": "Andaman Islands",
    "latitude": 12.41647,
    "longitude": 92.7831,
    "category": "Island",
    "subcategory": "Island Group",
    "featured": false,
    "priority": 50
  },
  {
    "geonameId": 10501623,
    "name": "Andar Tāl",
    "latitude": 25.54086,
    "longitude": 78.07791,
    "category": "Lake",
    "subcategory": "Reservoir",
    "featured": false,
    "priority": 50
  },
  {
    "geonameId": 1429354,
    "name": "Andarūn Sar",
    "latitude": 34.45139,
    "longitude": 74.91944,
    "category": "Mountain",
    "subcategory": "Mountain",
    "featured": false,
    "priority": 50
  },
  {
    "geonameId": 1278640,
    "name": "Anderson Island",
    "latitude": 12.79849,
    "longitude": 92.70152,
    "category": "Island",
    "subcategory": "Island",
    "featured": false,
    "priority": 50
  },
  {
    "geonameId": 10533391,
    "name": "Andha Pahār",
    "latitude": 24.4603,
    "longitude": 81.01225,
    "category": "Mountain",
    "subcategory": "Mountain",
    "featured": false,
    "priority": 50
  },
  {
    "geonameId": 10533389,
    "name": "Andhi Pahār",
    "latitude": 24.47773,
    "longitude": 81.00719,
    "category": "Mountain",
    "subcategory": "Mountain",
    "featured": false,
    "priority": 50
  },
  {
    "geonameId": 10466443,
    "name": "Andhiari",
    "latitude": 24.68541,
    "longitude": 78.22901,
    "category": "Mountain",
    "subcategory": "Mountain",
    "featured": false,
    "priority": 50
  },
  {
    "geonameId": 1278630,
    "name": "Andhra Lake",
    "latitude": 18.90151,
    "longitude": 73.5278,
    "category": "Lake",
    "subcategory": "Lake",
    "featured": false,
    "priority": 50
  },
  {
    "geonameId": 10534833,
    "name": "Andhyāribāoli Pahār",
    "latitude": 22.46426,
    "longitude": 78.35909,
    "category": "Mountain",
    "subcategory": "Mountain",
    "featured": false,
    "priority": 50
  },
  {
    "geonameId": 11685151,
    "name": "Āndi Malai",
    "latitude": 11.97328,
    "longitude": 78.75664,
    "category": "Mountain",
    "subcategory": "Mountain",
    "featured": false,
    "priority": 50
  },
  {
    "geonameId": 11661586,
    "name": "Āndichi Varai",
    "latitude": 10.24826,
    "longitude": 77.54644,
    "category": "Mountain",
    "subcategory": "Mountain",
    "featured": false,
    "priority": 50
  },
  {
    "geonameId": 10766059,
    "name": "Andingbayalu Konda",
    "latitude": 18.37026,
    "longitude": 82.78408,
    "category": "Mountain",
    "subcategory": "Mountain",
    "featured": false,
    "priority": 50
  },
  {
    "geonameId": 11184131,
    "name": "Andipalayam",
    "latitude": 11.09246,
    "longitude": 77.31225,
    "category": "City",
    "subcategory": "City",
    "featured": false,
    "priority": 50
  },
  {
    "geonameId": 1278625,
    "name": "Āndippatti",
    "latitude": 9.99797,
    "longitude": 77.62097,
    "category": "City",
    "subcategory": "City",
    "featured": false,
    "priority": 50
  },
  {
    "geonameId": 1278621,
    "name": "Andol",
    "latitude": 17.81458,
    "longitude": 78.07713,
    "category": "City",
    "subcategory": "City",
    "featured": false,
    "priority": 50
  },
  {
    "geonameId": 8432454,
    "name": "Andra",
    "latitude": 24.75012,
    "longitude": 94.04764,
    "category": "Mountain",
    "subcategory": "Mountain",
    "featured": false,
    "priority": 50
  },
  {
    "geonameId": 1278617,
    "name": "Andra La",
    "latitude": 29.15,
    "longitude": 95.55,
    "category": "Mountain",
    "subcategory": "Mountain Pass",
    "featured": false,
    "priority": 50
  },
  {
    "geonameId": 6990877,
    "name": "Andra Tāl",
    "latitude": 24.83547,
    "longitude": 78.31954,
    "category": "Lake",
    "subcategory": "Lake",
    "featured": false,
    "priority": 50
  },
  {
    "geonameId": 13494536,
    "name": "Andro",
    "latitude": 24.74854,
    "longitude": 94.04296,
    "category": "City",
    "subcategory": "City",
    "featured": false,
    "priority": 50
  },
  {
    "geonameId": 1278616,
    "name": "Andrōth Island",
    "latitude": 10.81172,
    "longitude": 73.67569,
    "category": "Island",
    "subcategory": "Island",
    "featured": false,
    "priority": 50
  },
  {
    "geonameId": 12382219,
    "name": "Andrott",
    "latitude": 10.81186,
    "longitude": 73.67408,
    "category": "City",
    "subcategory": "Local Seat",
    "featured": false,
    "priority": 50
  },
  {
    "geonameId": 11068831,
    "name": "Andugula Bodu",
    "latitude": 16.1345,
    "longitude": 78.97714,
    "category": "Mountain",
    "subcategory": "Mountain",
    "featured": false,
    "priority": 50
  },
  {
    "geonameId": 10521077,
    "name": "Anduwa Tāl",
    "latitude": 25.43455,
    "longitude": 80.25781,
    "category": "Lake",
    "subcategory": "Lake",
    "featured": false,
    "priority": 50
  },
  {
    "geonameId": 11487648,
    "name": "Āne Betta",
    "latitude": 11.89328,
    "longitude": 77.19892,
    "category": "Mountain",
    "subcategory": "Mountain",
    "featured": false,
    "priority": 50
  },
  {
    "geonameId": 10846243,
    "name": "Ane Kere",
    "latitude": 13.20742,
    "longitude": 74.99716,
    "category": "Lake",
    "subcategory": "Reservoir",
    "featured": false,
    "priority": 50
  },
  {
    "geonameId": 1278608,
    "name": "Āne La",
    "latitude": 33.96478,
    "longitude": 78.73759,
    "category": "Mountain",
    "subcategory": "Mountain Pass",
    "featured": false,
    "priority": 50
  },
  {
    "geonameId": 1278609,
    "name": "Anekal",
    "latitude": 12.7111,
    "longitude": 77.69557,
    "category": "City",
    "subcategory": "City",
    "featured": false,
    "priority": 50
  },
  {
    "geonameId": 11253296,
    "name": "Anekal Dod Kere",
    "latitude": 12.71543,
    "longitude": 77.68502,
    "category": "Lake",
    "subcategory": "Reservoir",
    "featured": false,
    "priority": 50
  },
  {
    "geonameId": 10856815,
    "name": "Anēkal Gudde",
    "latitude": 13.28312,
    "longitude": 75.11388,
    "category": "Mountain",
    "subcategory": "Mountain",
    "featured": false,
    "priority": 50
  },
  {
    "geonameId": 11251065,
    "name": "Anekaldurga",
    "latitude": 12.82624,
    "longitude": 77.20717,
    "category": "Mountain",
    "subcategory": "Mountain",
    "featured": false,
    "priority": 50
  },
  {
    "geonameId": 10878797,
    "name": "Anekallu Gudde",
    "latitude": 12.97835,
    "longitude": 75.47829,
    "category": "Mountain",
    "subcategory": "Mountain",
    "featured": false,
    "priority": 50
  },
  {
    "geonameId": 10891355,
    "name": "Anemajelkaya Betta",
    "latitude": 12.49039,
    "longitude": 75.30551,
    "category": "Mountain",
    "subcategory": "Mountain",
    "featured": false,
    "priority": 50
  },
  {
    "geonameId": 10801030,
    "name": "Angad",
    "latitude": 22.61347,
    "longitude": 76.18878,
    "category": "Mountain",
    "subcategory": "Mountain",
    "featured": false,
    "priority": 50
  },
  {
    "geonameId": 11461073,
    "name": "Angadivaral Malai",
    "latitude": 11.53949,
    "longitude": 76.93501,
    "category": "Mountain",
    "subcategory": "Mountain",
    "featured": false,
    "priority": 50
  },
  {
    "geonameId": 1278602,
    "name": "Angamāli",
    "latitude": 10.19055,
    "longitude": 76.38789,
    "category": "City",
    "subcategory": "City",
    "featured": false,
    "priority": 50
  },
  {
    "geonameId": 10654028,
    "name": "Angan Gali",
    "latitude": 34.03396,
    "longitude": 75.17842,
    "category": "Mountain",
    "subcategory": "Mountain Pass",
    "featured": false,
    "priority": 50
  },
  {
    "geonameId": 11344728,
    "name": "Angana Malai",
    "latitude": 12.63868,
    "longitude": 78.27088,
    "category": "Mountain",
    "subcategory": "Mountain",
    "featured": false,
    "priority": 50
  },
  {
    "geonameId": 10719232,
    "name": "Angāri-ka-Jot",
    "latitude": 32.98814,
    "longitude": 76.27691,
    "category": "Mountain",
    "subcategory": "Mountain Pass",
    "featured": false,
    "priority": 50
  },
  {
    "geonameId": 10314248,
    "name": "Angāru",
    "latitude": 33.14122,
    "longitude": 76.05128,
    "category": "Mountain",
    "subcategory": "Mountain",
    "featured": false,
    "priority": 50
  },
  {
    "geonameId": 11453030,
    "name": "Angattibathbetta",
    "latitude": 11.63944,
    "longitude": 76.46126,
    "category": "Mountain",
    "subcategory": "Mountain",
    "featured": false,
    "priority": 50
  },
  {
    "geonameId": 11456820,
    "name": "Anginda",
    "latitude": 11.18739,
    "longitude": 76.45843,
    "category": "Mountain",
    "subcategory": "Mountain",
    "featured": false,
    "priority": 50
  },
  {
    "geonameId": 10785428,
    "name": "Angrada Konda",
    "latitude": 18.93381,
    "longitude": 83.59275,
    "category": "Mountain",
    "subcategory": "Mountain",
    "featured": false,
    "priority": 50
  },
  {
    "geonameId": 1278593,
    "name": "Angul",
    "latitude": 20.84089,
    "longitude": 85.10192,
    "category": "City",
    "subcategory": "City",
    "featured": false,
    "priority": 50
  },
  {
    "geonameId": 11252873,
    "name": "Angul Kere",
    "latitude": 12.56679,
    "longitude": 77.49368,
    "category": "Lake",
    "subcategory": "Reservoir",
    "featured": false,
    "priority": 50
  },
  {
    "geonameId": 10538111,
    "name": "Anhāwa Tāl",
    "latitude": 25.9682,
    "longitude": 82.11081,
    "category": "Lake",
    "subcategory": "Lake",
    "featured": false,
    "priority": 50
  },
  {
    "geonameId": 11460436,
    "name": "Anikalbetta",
    "latitude": 11.41993,
    "longitude": 76.63173,
    "category": "Mountain",
    "subcategory": "Mountain",
    "featured": false,
    "priority": 50
  },
  {
    "geonameId": 1278588,
    "name": "Anjad",
    "latitude": 22.04171,
    "longitude": 75.05519,
    "category": "City",
    "subcategory": "City",
    "featured": false,
    "priority": 50
  },
  {
    "geonameId": 11680256,
    "name": "Anjadi Mugal",
    "latitude": 9.04614,
    "longitude": 77.04039,
    "category": "Mountain",
    "subcategory": "Mountain",
    "featured": false,
    "priority": 50
  },
  {
    "geonameId": 11482986,
    "name": "Anjana Pāra",
    "latitude": 10.42646,
    "longitude": 76.58086,
    "category": "Mountain",
    "subcategory": "Mountain",
    "featured": false,
    "priority": 50
  },
  {
    "geonameId": 1278582,
    "name": "Anjanāpura Reservoir",
    "latitude": 14.1448,
    "longitude": 75.38296,
    "category": "Lake",
    "subcategory": "Reservoir",
    "featured": false,
    "priority": 50
  },
  {
    "geonameId": 1278580,
    "name": "Anjangaon",
    "latitude": 21.16516,
    "longitude": 77.3091,
    "category": "City",
    "subcategory": "City",
    "featured": false,
    "priority": 50
  },
  {
    "geonameId": 10512433,
    "name": "Anjangaon Talāb",
    "latitude": 20.84853,
    "longitude": 77.81171,
    "category": "Lake",
    "subcategory": "Reservoir",
    "featured": false,
    "priority": 50
  },