[
  {
    "geonameId": 1865776,
    "name": "Aba Shima",
    "latitude": 34.31857,
    "longitude": 132.94385,
    "category": "Island",
    "subcategory": "Island",
    "featured": false,
    "priority": 50
  },
  {
    "geonameId": 2130741,
    "name": "Abashiri",
    "latitude": 44.02127,
    "longitude": 144.26971,
    "category": "City",
    "subcategory": "County Seat",
    "featured": false,
    "priority": 50
  },
  {
    "geonameId": 2130738,
    "name": "Abashiri Ko",
    "latitude": 43.97167,
    "longitude": 144.175,
    "category": "Lake",
    "subcategory": "Lake",
    "featured": false,
    "priority": 50
  },
  {
    "geonameId": 2130737,
    "name": "Abashiri Prefectural Park",
    "latitude": 44.16667,
    "longitude": 143.83333,
    "category": "Park",
    "subcategory": "Park",
    "featured": false,
    "priority": 50
  },
  {
    "geonameId": 1865774,
    "name": "Abegadate Yama",
    "latitude": 38.15727,
    "longitude": 139.94684,
    "category": "Mountain",
    "subcategory": "Mountain",
    "featured": false,
    "priority": 50
  },
  {
    "geonameId": 2113165,
    "name": "Abetate-yama",
    "latitude": 39.71667,
    "longitude": 141.4,
    "category": "Mountain",
    "subcategory": "Mountain",
    "featured": false,
    "priority": 50
  },
  {
    "geonameId": 2113164,
    "name": "Abiko",
    "latitude": 35.86667,
    "longitude": 140.01667,
    "category": "City",
    "subcategory": "County Seat",
    "featured": false,
    "priority": 50
  },
  {
    "geonameId": 2130732,
    "name": "Abira",
    "latitude": 42.81667,
    "longitude": 141.83333,
    "category": "City",
    "subcategory": "City",
    "featured": false,
    "priority": 50
  },
  {
    "geonameId": 8675111,
    "name": "Abō San",
    "latitude": 36.19064,
    "longitude": 137.59512,
    "category": "Mountain",
    "subcategory": "Mountain",
    "featured": false,
    "priority": 50
  },
  {
    "geonameId": 9936490,
    "name": "Abono Taki",
    "latitude": 33.8071,
    "longitude": 129.65037,
    "category": "Waterfall",
    "subcategory": "Waterfall",
    "featured": false,
    "priority": 50
  },
  {
    "geonameId": 9637355,
    "name": "Aboshi Yama",
    "latitude": 34.9666,
    "longitude": 136.06089,
    "category": "Mountain",
    "subcategory": "Mountain",
    "featured": false,
    "priority": 50
  },
  {
    "geonameId": 1865755,
    "name": "Abu-san",
    "latitude": 34.48333,
    "longitude": 132.48333,
    "category": "Mountain",
    "subcategory": "Mountain",
    "featured": false,
    "priority": 50
  },
  {
    "geonameId": 1865764,
    "name": "Abuga Shima",
    "latitude": 36.93213,
    "longitude": 137.04131,
    "category": "Island",
    "subcategory": "Island Group",
    "featured": false,
    "priority": 50
  },
  {
    "geonameId": 1865761,
    "name": "Abuōru-shima",
    "latitude": 26.53295,
    "longitude": 128.09824,
    "category": "Island",
    "subcategory": "Island",
    "featured": false,
    "priority": 50
  },
  {
    "geonameId": 9888304,
    "name": "Abura Yama",
    "latitude": 33.51204,
    "longitude": 130.36449,
    "category": "Mountain",
    "subcategory": "Mountain",
    "featured": false,
    "priority": 50
  },
  {
    "geonameId": 10261732,
    "name": "Aburada Tameike",
    "latitude": 33.61444,
    "longitude": 130.65451,
    "category": "Lake",
    "subcategory": "Reservoir",
    "featured": false,
    "priority": 50
  },
  {
    "geonameId": 9637342,
    "name": "Aburahi Dake",
    "latitude": 34.87416,
    "longitude": 136.27717,
    "category": "Mountain",
    "subcategory": "Mountain",
    "featured": false,
    "priority": 50
  },
  {
    "geonameId": 10316520,
    "name": "Adachi Yama",
    "latitude": 33.85948,
    "longitude": 130.91726,
    "category": "Mountain",
    "subcategory": "Mountain",
    "featured": false,
    "priority": 50
  },
  {
    "geonameId": 1865749,
    "name": "Adaka-jima",
    "latitude": 26.74686,
    "longitude": 128.33274,
    "category": "Island",
    "subcategory": "Island",
    "featured": false,
    "priority": 50
  },
  {
    "geonameId": 10797030,
    "name": "Adano Chosuichi",
    "latitude": 35.35182,
    "longitude": 138.96491,
    "category": "Lake",
    "subcategory": "Reservoir",
    "featured": false,
    "priority": 50
  },
  {
    "geonameId": 2113157,
    "name": "Adatara-yama",
    "latitude": 37.6213,
    "longitude": 140.2888,
    "category": "Mountain",
    "subcategory": "Mountain",
    "featured": false,
    "priority": 50
  },
  {
    "geonameId": 1865744,
    "name": "Adochi Jima",
    "latitude": 26.14532,
    "longitude": 127.80917,
    "category": "Island",
    "subcategory": "Island",
    "featured": false,
    "priority": 50
  },
  {
    "geonameId": 6825488,
    "name": "Agano",
    "latitude": 37.77392,
    "longitude": 139.22192,
    "category": "City",
    "subcategory": "County Seat",
    "featured": false,
    "priority": 50
  },
  {
    "geonameId": 8663030,
    "name": "Agehara Yama",
    "latitude": 36.42661,
    "longitude": 136.73595,
    "category": "Mountain",
    "subcategory": "Mountain",
    "featured": false,
    "priority": 50
  },
  {
    "geonameId": 1865719,
    "name": "Agenashiku Jima",
    "latitude": 26.21513,
    "longitude": 127.295,
    "category": "Island",
    "subcategory": "Island",
    "featured": false,
    "priority": 50
  },
  {
    "geonameId": 1865714,
    "name": "Ageo",
    "latitude": 35.97145,
    "longitude": 139.61382,
    "category": "City",
    "subcategory": "County Seat",
    "featured": false,
    "priority": 50
  },
  {
    "geonameId": 11019460,
    "name": "Ageo Undō Kōen",
    "latitude": 35.96868,
    "longitude": 139.60183,
    "category": "Park",
    "subcategory": "Park",
    "featured": false,
    "priority": 50
  },
  {
    "geonameId": 11020182,
    "name": "Ageo-maruyama Kōen",
    "latitude": 35.95701,
    "longitude": 139.54819,
    "category": "Park",
    "subcategory": "Park",
    "featured": false,
    "priority": 50
  },
  {
    "geonameId": 1865711,
    "name": "Aginami Shima",
    "latitude": 26.28955,
    "longitude": 127.91672,
    "category": "Island",
    "subcategory": "Island",
    "featured": false,
    "priority": 50
  },
  {
    "geonameId": 6415126,
    "name": "Ago-shima",
    "latitude": 34.0575,
    "longitude": 136.26389,
    "category": "Island",
    "subcategory": "Island",
    "featured": false,
    "priority": 50
  },
  {
    "geonameId": 1865709,
    "name": "Agouo",
    "latitude": 35.70477,
    "longitude": 135.95924,
    "category": "Mountain",
    "subcategory": "Mountain Pass",
    "featured": false,
    "priority": 50
  },
  {
    "geonameId": 8310658,
    "name": "Agu Jima",
    "latitude": 38.4365,
    "longitude": 141.49508,
    "category": "Island",
    "subcategory": "Island",
    "featured": false,
    "priority": 50
  },
  {
    "geonameId": 1865706,
    "name": "Aguni Jima",
    "latitude": 26.58861,
    "longitude": 127.22639,
    "category": "Island",
    "subcategory": "Island",
    "featured": false,
    "priority": 50
  },
  {
    "geonameId": 2114003,
    "name": "Aguroshi Yama",
    "latitude": 38.9,
    "longitude": 140.80639,
    "category": "Mountain",
    "subcategory": "Mountain",
    "featured": false,
    "priority": 50
  },
  {
    "geonameId": 11172971,
    "name": "Aho Tōge",
    "latitude": 32.6757,
    "longitude": 130.60886,
    "category": "Mountain",
    "subcategory": "Mountain Pass",
    "featured": false,
    "priority": 50
  },
  {
    "geonameId": 11618126,
    "name": "Ahoro Dake",
    "latitude": 43.51714,
    "longitude": 144.07091,
    "category": "Mountain",
    "subcategory": "Mountain",
    "featured": false,
    "priority": 50
  },
  {
    "geonameId": 1865687,
    "name": "Ai Jima",
    "latitude": 34.07101,
    "longitude": 132.70706,
    "category": "Island",
    "subcategory": "Island",
    "featured": false,
    "priority": 50
  },
  {
    "geonameId": 1865646,
    "name": "Ai Shima",
    "latitude": 34.50766,
    "longitude": 131.27973,
    "category": "Island",
    "subcategory": "Island",
    "featured": false,
    "priority": 50
  },
  {
    "geonameId": 1865686,
    "name": "Ai-jima",
    "latitude": 34.2,
    "longitude": 129.3,
    "category": "Island",
    "subcategory": "Island",
    "featured": false,
    "priority": 50
  },
  {
    "geonameId": 12035966,
    "name": "Aichi-kodomonokuni",
    "latitude": 34.78929,
    "longitude": 137.15558,
    "category": "Park",
    "subcategory": "Park",
    "featured": false,
    "priority": 50
  },
  {
    "geonameId": 2038809,
    "name": "Aidomari-yama",
    "latitude": 42.26732,
    "longitude": 139.80669,
    "category": "Mountain",
    "subcategory": "Mountain",
    "featured": false,
    "priority": 50
  },
  {
    "geonameId": 1865689,
    "name": "Aihara",
    "latitude": 35.6,
    "longitude": 139.31667,
    "category": "City",
    "subcategory": "City",
    "featured": false,
    "priority": 50
  },
  {
    "geonameId": 1899190,
    "name": "Aiko-dake",
    "latitude": 30.35833,
    "longitude": 130.61667,
    "category": "Mountain",
    "subcategory": "Mountain",
    "featured": false,
    "priority": 50
  },
  {
    "geonameId": 2130714,
    "name": "Aikubo Yama",
    "latitude": 40.17925,
    "longitude": 140.66013,
    "category": "Mountain",
    "subcategory": "Mountain",
    "featured": false,
    "priority": 50
  },
  {
    "geonameId": 1865667,
    "name": "Aino Shima",
    "latitude": 33.99436,
    "longitude": 130.81713,
    "category": "Island",
    "subcategory": "Island",
    "featured": false,
    "priority": 50
  },
  {
    "geonameId": 1865665,
    "name": "Aino-dake",
    "latitude": 35.64572,
    "longitude": 138.22826,
    "category": "Mountain",
    "subcategory": "Mountain",
    "featured": false,
    "priority": 50
  },
  {
    "geonameId": 1865668,
    "name": "Aino-shima",
    "latitude": 33.76256,
    "longitude": 130.3651,
    "category": "Island",
    "subcategory": "Island",
    "featured": false,
    "priority": 50
  },
  {
    "geonameId": 1865661,
    "name": "Aioi",
    "latitude": 34.80361,
    "longitude": 134.46806,
    "category": "City",
    "subcategory": "County Seat",
    "featured": false,
    "priority": 50
  },
  {
    "geonameId": 11611646,
    "name": "Aira",
    "latitude": 31.77429,
    "longitude": 130.59208,
    "category": "City",
    "subcategory": "County Seat",
    "featured": false,
    "priority": 50
  },
  {
    "geonameId": 6822212,
    "name": "Aisai",
    "latitude": 35.16349,
    "longitude": 136.73222,
    "category": "City",
    "subcategory": "County Seat",
    "featured": false,
    "priority": 50
  },
  {
    "geonameId": 8579350,
    "name": "Aizawa Yama",
    "latitude": 39.68353,
    "longitude": 140.76811,
    "category": "Mountain",
    "subcategory": "Mountain",
    "featured": false,
    "priority": 50
  },
  {
    "geonameId": 2113644,
    "name": "Aizen-yama",
    "latitude": 39.21667,
    "longitude": 141.7,
    "category": "Mountain",
    "subcategory": "Mountain",
    "featured": false,
    "priority": 50
  },
  {
    "geonameId": 8751318,
    "name": "Aizu-asahi Dake",
    "latitude": 37.22226,
    "longitude": 139.33891,
    "category": "Mountain",
    "subcategory": "Mountain",
    "featured": false,
    "priority": 50
  },
  {
    "geonameId": 7451505,
    "name": "Aizu-misato Machi",
    "latitude": 37.40862,
    "longitude": 139.81317,
    "category": "City",
    "subcategory": "City",
    "featured": false,
    "priority": 50
  },
  {
    "geonameId": 8992079,
    "name": "Aizu-nunobiki Yama",
    "latitude": 37.3335,
    "longitude": 140.0403,
    "category": "Mountain",
    "subcategory": "Mountain",
    "featured": false,
    "priority": 50
  },
  {
    "geonameId": 6822148,
    "name": "Aizu-Wakamatsu",
    "latitude": 37.49142,
    "longitude": 139.94546,
    "category": "City",
    "subcategory": "County Seat",
    "featured": false,
    "priority": 50
  },
  {
    "geonameId": 8428865,
    "name": "Ajara Yama",
    "latitude": 40.49065,
    "longitude": 140.57858,
    "category": "Mountain",
    "subcategory": "Mountain",
    "featured": false,
    "priority": 50
  },
  {
    "geonameId": 2113147,
    "name": "Aji Shima",
    "latitude": 38.2676,
    "longitude": 141.47947,
    "category": "Island",
    "subcategory": "Island",
    "featured": false,
    "priority": 50
  },
  {
    "geonameId": 2130708,
    "name": "Ajigasawa",
    "latitude": 40.77444,
    "longitude": 140.20306,
    "category": "City",
    "subcategory": "City",
    "featured": false,
    "priority": 50
  },
  {
    "geonameId": 2113149,
    "name": "Ajiki",
    "latitude": 35.83333,
    "longitude": 140.23333,
    "category": "City",
    "subcategory": "City",
    "featured": false,
    "priority": 50
  },
  {
    "geonameId": 1865624,
    "name": "Ajima",
    "latitude": 35.51667,
    "longitude": 137.88333,
    "category": "City",
    "subcategory": "City",
    "featured": false,
    "priority": 50
  },
  {
    "geonameId": 10351415,
    "name": "Ajimi Tōge",
    "latitude": 33.7022,
    "longitude": 130.87576,
    "category": "Mountain",
    "subcategory": "Mountain Pass",
    "featured": false,
    "priority": 50
  },
  {
    "geonameId": 6417527,
    "name": "Ajiro Shotō",
    "latitude": 34.45,
    "longitude": 133.69389,
    "category": "Island",
    "subcategory": "Island Group",
    "featured": false,
    "priority": 50
  },
  {
    "geonameId": 2130703,
    "name": "Aka Dake",
    "latitude": 41.70286,
    "longitude": 140.16184,
    "category": "Mountain",
    "subcategory": "Mountain",
    "featured": false,
    "priority": 50
  },
  {
    "geonameId": 8463510,
    "name": "Aka Daki",
    "latitude": 41.39243,
    "longitude": 140.9763,
    "category": "Waterfall",
    "subcategory": "Waterfall",
    "featured": false,
    "priority": 50
  },
  {
    "geonameId": 1865481,
    "name": "Aka Jima",
    "latitude": 26.19947,
    "longitude": 127.27949,
    "category": "Island",
    "subcategory": "Island",
    "featured": false,
    "priority": 50
  },
  {
    "geonameId": 1865475,
    "name": "Aka Shima",
    "latitude": 34.35717,
    "longitude": 129.40817,
    "category": "Island",
    "subcategory": "Island",
    "featured": false,
    "priority": 50
  },
  {
    "geonameId": 1865596,
    "name": "Aka-dake",
    "latitude": 35.96667,
    "longitude": 138.36667,
    "category": "Mountain",
    "subcategory": "Mountain",
    "featured": false,
    "priority": 50
  },
  {
    "geonameId": 1865557,
    "name": "Aka-jima",
    "latitude": 26.66667,
    "longitude": 128.03333,
    "category": "Island",
    "subcategory": "Island",
    "featured": false,
    "priority": 50
  },
  {
    "geonameId": 2113131,
    "name": "Aka-shima",
    "latitude": 39.46483,
    "longitude": 142.06041,
    "category": "Island",
    "subcategory": "Island",
    "featured": false,
    "priority": 50
  },
  {
    "geonameId": 1865599,
    "name": "Akabane San",
    "latitude": 37.53426,
    "longitude": 139.64416,
    "category": "Mountain",
    "subcategory": "Mountain",
    "featured": false,
    "priority": 50
  },
  {
    "geonameId": 2130705,
    "name": "Akabira",
    "latitude": 43.55139,
    "longitude": 142.05306,
    "category": "City",
    "subcategory": "County Seat",
    "featured": false,
    "priority": 50
  },
  {
    "geonameId": 11274110,
    "name": "Akada Ike",
    "latitude": 32.95584,
    "longitude": 130.49391,
    "category": "Lake",
    "subcategory": "Reservoir",
    "featured": false,
    "priority": 50
  },
  {
    "geonameId": 8601008,
    "name": "Akadani Yama",
    "latitude": 34.51503,
    "longitude": 132.029,
    "category": "Mountain",
    "subcategory": "Mountain",
    "featured": false,
    "priority": 50
  },
  {
    "geonameId": 2130701,
    "name": "Akagami-yama",
    "latitude": 41.48333,
    "longitude": 140.05,
    "category": "Mountain",
    "subcategory": "Mountain",
    "featured": false,
    "priority": 50
  },
  {
    "geonameId": 8628974,
    "name": "Akagi Komagatake",
    "latitude": 36.5516,
    "longitude": 139.1939,
    "category": "Mountain",
    "subcategory": "Mountain",
    "featured": false,
    "priority": 50
  },
  {
    "geonameId": 10310109,
    "name": "Akagi Tōge",
    "latitude": 33.77719,
    "longitude": 130.61172,
    "category": "Mountain",
    "subcategory": "Mountain Pass",
    "featured": false,
    "priority": 50
  },
  {
    "geonameId": 11402727,
    "name": "Akagi Yama",
    "latitude": 32.16319,
    "longitude": 131.04921,
    "category": "Mountain",
    "subcategory": "Mountain",
    "featured": false,
    "priority": 50
  },
  {
    "geonameId": 8631768,
    "name": "Akagio Yama",
    "latitude": 33.73509,
    "longitude": 134.06183,
    "category": "Mountain",
    "subcategory": "Mountain",
    "featured": false,
    "priority": 50
  },
  {
    "geonameId": 1865585,
    "name": "Akaguna Yama",
    "latitude": 36.14391,
    "longitude": 138.84358,
    "category": "Mountain",
    "subcategory": "Mountain",
    "featured": false,
    "priority": 50
  },
  {
    "geonameId": 8610408,
    "name": "Akagure",
    "latitude": 31.69685,
    "longitude": 130.58068,
    "category": "Mountain",
    "subcategory": "Mountain",
    "featured": false,
    "priority": 50
  },
  {
    "geonameId": 8649843,
    "name": "Akahage Yama",
    "latitude": 36.02097,
    "longitude": 133.01468,
    "category": "Mountain",
    "subcategory": "Mountain",
    "featured": false,
    "priority": 50
  },
  {
    "geonameId": 8553986,
    "name": "Akahira",
    "latitude": 40.3075,
    "longitude": 141.05578,
    "category": "Mountain",
    "subcategory": "Mountain",
    "featured": false,
    "priority": 50
  },
  {
    "geonameId": 1865572,
    "name": "Akahone Shima",
    "latitude": 34.24001,
    "longitude": 133.16049,
    "category": "Island",
    "subcategory": "Island",
    "featured": false,
    "priority": 50
  },
  {
    "geonameId": 1865570,
    "name": "Akaike",
    "latitude": 33.69189,
    "longitude": 130.76531,
    "category": "City",
    "subcategory": "City",
    "featured": false,
    "priority": 50
  },
  {
    "geonameId": 1865560,
    "name": "Akaishi Yama",
    "latitude": 34.58779,
    "longitude": 131.88577,
    "category": "Mountain",
    "subcategory": "Mountain",
    "featured": false,
    "priority": 50
  },
  {
    "geonameId": 1865565,
    "name": "Akaishi-dake",
    "latitude": 35.46074,
    "longitude": 138.15728,
    "category": "Mountain",
    "subcategory": "Mountain",
    "featured": false,
    "priority": 50
  },
  {
    "geonameId": 1865559,
    "name": "Akaiwa",
    "latitude": 36.20742,
    "longitude": 139.43948,
    "category": "City",
    "subcategory": "City",
    "featured": false,
    "priority": 50
  },
  {
    "geonameId": 8675089,
    "name": "Akaiwa Dake",
    "latitude": 36.3436,
    "longitude": 137.68404,
    "category": "Mountain",
    "subcategory": "Mountain",
    "featured": false,
    "priority": 50
  },
  {
    "geonameId": 8530234,
    "name": "Akaiwa Yama",
    "latitude": 40.41496,
    "longitude": 140.90012,
    "category": "Mountain",
    "subcategory": "Mountain",
    "featured": false,
    "priority": 50
  },
  {
    "geonameId": 2130690,
    "name": "Akaiwa-yama",
    "latitude": 43.23333,
    "longitude": 140.98333,
    "category": "Mountain",
    "subcategory": "Mountain",
    "featured": false,
    "priority": 50
  },
  {
    "geonameId": 11823566,
    "name": "Akaiwano Taki",
    "latitude": 44.40662,
    "longitude": 142.84608,
    "category": "Waterfall",
    "subcategory": "Waterfall",
    "featured": false,
    "priority": 50
  },
  {
    "geonameId": 8751042,
    "name": "Akaiwataka Yama",
    "latitude": 37.03051,
    "longitude": 139.27171,
    "category": "Mountain",
    "subcategory": "Mountain",
    "featured": false,
    "priority": 50
  },
  {
    "geonameId": 2130689,
    "name": "Akakura Dake",
    "latitude": 40.97974,
    "longitude": 140.55566,
    "category": "Mountain",
    "subcategory": "Mountain",
    "featured": false,
    "priority": 50
  },
  {
    "geonameId": 2113589,
    "name": "Akakura-san",
    "latitude": 40,
    "longitude": 140.23333,
    "category": "Mountain",
    "subcategory": "Mountain",
    "featured": false,
    "priority": 50
  },
  {
    "geonameId": 2113138,
    "name": "Akakuzure Yama",
    "latitude": 38.43333,
    "longitude": 140.76667,
    "category": "Mountain",
    "subcategory": "Mountain",
    "featured": false,
    "priority": 50
  },
  {
    "geonameId": 1865543,
    "name": "Akama-yama",
    "latitude": 26.2,
    "longitude": 127.36667,
    "category": "Mountain",
    "subcategory": "Mountain",
    "featured": false,
    "priority": 50
  },
  {
    "geonameId": 10211145,
    "name": "Akamatsu Tarō Tōge",
    "latitude": 32.37886,
    "longitude": 130.52886,
    "category": "Mountain",
    "subcategory": "Mountain Pass",
    "featured": false,
    "priority": 50
  },
  {
    "geonameId": 10209051,
    "name": "Akamatsu Tōge",
    "latitude": 32.3273,
    "longitude": 130.66224,
    "category": "Mountain",
    "subcategory": "Mountain Pass",
    "featured": false,
    "priority": 50
  },
  {
    "geonameId": 1865541,
    "name": "Akamidō Dake",
    "latitude": 38.44806,
    "longitude": 139.9332,
    "category": "Mountain",
    "subcategory": "Mountain",
    "featured": false,
    "priority": 50
  },
  {
    "geonameId": 2130685,
    "name": "Akan Ko",
    "latitude": 43.45348,
    "longitude": 144.10218,
    "category": "Lake",
    "subcategory": "Lake",
    "featured": false,
    "priority": 50
  },
  {
    "geonameId": 11238448,
    "name": "Akan National Park",
    "latitude": 43.56795,
    "longitude": 144.40224,
    "category": "Park",
    "subcategory": "Park",
    "featured": false,
    "priority": 50
  },
  {
    "geonameId": 1865530,
    "name": "Akano Jima",
    "latitude": 34.16873,
    "longitude": 136.32067,
    "category": "Island",
    "subcategory": "Island",
    "featured": false,
    "priority": 50
  },
  {
    "geonameId": 8672645,
    "name": "Akaotoko Yama",
    "latitude": 36.81216,
    "longitude": 137.74526,
    "category": "Mountain",
    "subcategory": "Mountain",
    "featured": false,
    "priority": 50
  },
  {
    "geonameId": 1865526,
    "name": "Akaren",
    "latitude": 28.31667,
    "longitude": 129.93333,
    "category": "City",
    "subcategory": "City",
    "featured": false,
    "priority": 50
  },
  {
    "geonameId": 1865525,
    "name": "Akaru San",
    "latitude": 36.26889,
    "longitude": 138.53556,
    "category": "Mountain",
    "subcategory": "Mountain",
    "featured": false,
    "priority": 50
  },
  {
    "geonameId": 8750276,
    "name": "Akasaki Yama",
    "latitude": 37.69821,
    "longitude": 139.46589,
    "category": "Mountain",
    "subcategory": "Mountain",
    "featured": false,
    "priority": 50
  },
  {
    "geonameId": 10179195,
    "name": "Akasegawa Taki",
    "latitude": 31.18889,
    "longitude": 130.81196,
    "category": "Waterfall",
    "subcategory": "Waterfall",
    "featured": false,
    "priority": 50
  },
  {
    "geonameId": 1847966,
    "name": "Akashi",
    "latitude": 34.65524,
    "longitude": 135.00687,
    "category": "City",
    "subcategory": "County Seat",
    "featured": false,
    "priority": 50
  },
  {
    "geonameId": 8664057,
    "name": "Akasobu Yama",
    "latitude": 36.50488,
    "longitude": 136.96213,
    "category": "Mountain",
    "subcategory": "Mountain",
    "featured": false,
    "priority": 50
  },
  {
    "geonameId": 2130682,
    "name": "Akasuke-yama",
    "latitude": 41.91667,
    "longitude": 140.93333,
    "category": "Mountain",
    "subcategory": "Mountain",
    "featured": false,
    "priority": 50
  },
  {
    "geonameId": 8667953,
    "name": "Akatan Yama",
    "latitude": 36.66031,
    "longitude": 137.61091,
    "category": "Mountain",
    "subcategory": "Mountain",
    "featured": false,
    "priority": 50
  },
  {
    "geonameId": 8997941,
    "name": "Akatsu Yama",
    "latitude": 37.86374,
    "longitude": 139.55575,
    "category": "Mountain",
    "subcategory": "Mountain",
    "featured": false,
    "priority": 50
  },
  {
    "geonameId": 11010206,
    "name": "Akatsuka Kōen",
    "latitude": 35.78493,
    "longitude": 139.65645,
    "category": "Park",
    "subcategory": "Park",
    "featured": false,
    "priority": 50
  },
  {
    "geonameId": 1865463,
    "name": "Akaura Gata",
    "latitude": 37.0603,
    "longitude": 136.93992,
    "category": "Lake",
    "subcategory": "Lake",
    "featured": false,
    "priority": 50
  },
  {
    "geonameId": 6697545,
    "name": "Akausagi-yama",
    "latitude": 36.06742,
    "longitude": 136.66211,
    "category": "Mountain",
    "subcategory": "Mountain",
    "featured": false,
    "priority": 50
  },
  {
    "geonameId": 8664526,
    "name": "Akaushi Dake",
    "latitude": 36.46128,
    "longitude": 137.60376,
    "category": "Mountain",
    "subcategory": "Mountain",
    "featured": false,
    "priority": 50
  },
  {
    "geonameId": 9190643,
    "name": "Akayuki Yama",
    "latitude": 36.44128,
    "longitude": 139.42565,
    "category": "Mountain",
    "subcategory": "Mountain",
    "featured": false,
    "priority": 50
  },
  {
    "geonameId": 9124650,
    "name": "Akazawa Yama",
    "latitude": 36.71855,
    "longitude": 138.80299,
    "category": "Mountain",
    "subcategory": "Mountain",
    "featured": false,
    "priority": 50
  },
  {
    "geonameId": 1865456,
    "name": "Akazawa-dake",
    "latitude": 36.56205,
    "longitude": 137.68736,
    "category": "Mountain",
    "subcategory": "Mountain",
    "featured": false,
    "priority": 50
  },
  {
    "geonameId": 1865454,
    "name": "Akegatao San",
    "latitude": 34.89012,
    "longitude": 135.47763,
    "category": "Mountain",
    "subcategory": "Mountain",
    "featured": false,
    "priority": 50
  },
  {
    "geonameId": 11559457,
    "name": "Akenogaoka Kōen",
    "latitude": 42.89472,
    "longitude": 143.36999,
    "category": "Park",
    "subcategory": "Park",
    "featured": false,
    "priority": 50
  },
  {
    "geonameId": 1865449,
    "name": "Aki",
    "latitude": 33.5,
    "longitude": 133.9,
    "category": "City",
    "subcategory": "County Seat",
    "featured": false,
    "priority": 50
  },
  {
    "geonameId": 11612331,
    "name": "Aki-takata",
    "latitude": 34.67416,
    "longitude": 132.68188,
    "category": "City",
    "subcategory": "County Seat",
    "featured": false,
    "priority": 50
  },
  {
    "geonameId": 2131598,
    "name": "Aki-yama",
    "latitude": 41.23333,
    "longitude": 140.91667,
    "category": "Mountain",
    "subcategory": "Mountain",
    "featured": false,
    "priority": 50
  },
  {
    "geonameId": 8637580,
    "name": "Akiba San",
    "latitude": 33.60592,
    "longitude": 133.75806,
    "category": "Mountain",
    "subcategory": "Mountain",
    "featured": false,
    "priority": 50
  },
  {
    "geonameId": 1865448,
    "name": "Akiba Yama",
    "latitude": 34.88687,
    "longitude": 133.59799,
    "category": "Mountain",
    "subcategory": "Mountain",
    "featured": false,
    "priority": 50
  },
  {
    "geonameId": 1865447,
    "name": "Akiba-yama",
    "latitude": 35.5,
    "longitude": 135.21667,
    "category": "Mountain",
    "subcategory": "Mountain",
    "featured": false,
    "priority": 50
  },
  {
    "geonameId": 11020468,
    "name": "Akibanomori Kōen",
    "latitude": 35.93651,
    "longitude": 139.56544,
    "category": "Park",
    "subcategory": "Park",
    "featured": false,
    "priority": 50
  },
  {
    "geonameId": 10209052,
    "name": "Akibarai Yama",
    "latitude": 32.32068,
    "longitude": 130.66931,
    "category": "Mountain",
    "subcategory": "Mountain",
    "featured": false,
    "priority": 50
  },
  {
    "geonameId": 11028126,
    "name": "Akigase Kōen",
    "latitude": 35.85073,
    "longitude": 139.60095,
    "category": "Park",
    "subcategory": "Park",
    "featured": false,
    "priority": 50
  },
  {
    "geonameId": 1865440,
    "name": "Akiha-san",
    "latitude": 34.98333,
    "longitude": 137.86667,
    "category": "Mountain",
    "subcategory": "Mountain",
    "featured": false,
    "priority": 50
  },
  {
    "geonameId": 2113127,
    "name": "Akimoto Ko",
    "latitude": 37.65636,
    "longitude": 140.12864,
    "category": "Lake",
    "subcategory": "Lake",
    "featured": false,
    "priority": 50
  },
  {
    "geonameId": 11612343,
    "name": "Akiruno",
    "latitude": 35.72854,
    "longitude": 139.2318,
    "category": "City",
    "subcategory": "County Seat",
    "featured": false,
    "priority": 50
  },
  {
    "geonameId": 6822132,
    "name": "Akishima",
    "latitude": 35.72085,
    "longitude": 139.37999,
    "category": "City",
    "subcategory": "County Seat",
    "featured": false,
    "priority": 50
  },
  {
    "geonameId": 2113126,
    "name": "Akita",
    "latitude": 39.71667,
    "longitude": 140.11667,
    "category": "City",
    "subcategory": "Regional Capital",
    "featured": false,
    "priority": 50
  },
  {
    "geonameId": 2130678,
    "name": "Akkamori",
    "latitude": 40.03333,
    "longitude": 141.53333,
    "category": "Mountain",
    "subcategory": "Mountain",
    "featured": false,
    "priority": 50
  },
  {
    "geonameId": 2130677,
    "name": "Akkeshi",
    "latitude": 43.03556,
    "longitude": 144.8525,
    "category": "City",
    "subcategory": "City",
    "featured": false,
    "priority": 50
  },
  {
    "geonameId": 11611945,
    "name": "Ako",
    "latitude": 34.75967,
    "longitude": 134.37035,
    "category": "City",
    "subcategory": "County Seat",
    "featured": false,
    "priority": 50
  },
  {
    "geonameId": 11402765,
    "name": "Akō Jima",
    "latitude": 32.2533,
    "longitude": 130.42952,
    "category": "Island",
    "subcategory": "Island",
    "featured": false,
    "priority": 50
  },
  {
    "geonameId": 9116945,
    "name": "Akuba San",
    "latitude": 36.62879,
    "longitude": 138.40823,
    "category": "Mountain",
    "subcategory": "Mountain",
    "featured": false,
    "priority": 50
  },
  {
    "geonameId": 1865401,
    "name": "Akune",
    "latitude": 32.01667,
    "longitude": 130.2,
    "category": "City",
    "subcategory": "County Seat",
    "featured": false,
    "priority": 50
  },
  {
    "geonameId": 1865395,
    "name": "Akuseki-shima",
    "latitude": 29.46074,
    "longitude": 129.60283,
    "category": "Island",
    "subcategory": "Island",
    "featured": false,
    "priority": 50
  },
  {
    "geonameId": 11402738,
    "name": "Akuso Yama",
    "latitude": 32.20953,
    "longitude": 131.05398,
    "category": "Mountain",
    "subcategory": "Mountain",
    "featured": false,
    "priority": 50
  },
  {
    "geonameId": 11611659,
    "name": "Ama",
    "latitude": 35.18307,
    "longitude": 136.7997,
    "category": "City",
    "subcategory": "County Seat",
    "featured": false,
    "priority": 50
  },
  {
    "geonameId": 9638642,
    "name": "Amaga Take",
    "latitude": 34.5577,
    "longitude": 136.2197,
    "category": "Mountain",
    "subcategory": "Mountain",
    "featured": false,
    "priority": 50
  },
  {
    "geonameId": 1865379,
    "name": "Amaga-take",
    "latitude": 35.43396,
    "longitude": 138.55914,
    "category": "Mountain",
    "subcategory": "Mountain",
    "featured": false,
    "priority": 50
  },
  {
    "geonameId": 9124666,
    "name": "Amagahage Yama",
    "latitude": 36.78272,
    "longitude": 139.04498,
    "category": "Mountain",
    "subcategory": "Mountain",
    "featured": false,
    "priority": 50
  },
  {
    "geonameId": 1865387,
    "name": "Amagasaki",
    "latitude": 34.71667,
    "longitude": 135.41667,
    "category": "City",
    "subcategory": "County Seat",
    "featured": false,
    "priority": 50
  },
  {
    "geonameId": 1865375,
    "name": "Amagi",
    "latitude": 33.41804,
    "longitude": 130.65413,
    "category": "City",
    "subcategory": "City",
    "featured": false,
    "priority": 50
  },
  {
    "geonameId": 1865373,
    "name": "Amagi Dake",
    "latitude": 27.86995,
    "longitude": 128.9264,
    "category": "Mountain",
    "subcategory": "Mountain",
    "featured": false,
    "priority": 50
  },
  {
    "geonameId": 1861146,
    "name": "Amagiri Yama",
    "latitude": 34.23566,
    "longitude": 133.73553,
    "category": "Mountain",
    "subcategory": "Mountain",
    "featured": false,
    "priority": 50
  },
  {
    "geonameId": 1898949,
    "name": "Amagoe-zan",
    "latitude": 34.4,
    "longitude": 131.06667,
    "category": "Mountain",
    "subcategory": "Mountain",
    "featured": false,
    "priority": 50
  },
  {
    "geonameId": 1865368,
    "name": "Amagoi Dake",
    "latitude": 35.02295,
    "longitude": 136.38754,
    "category": "Mountain",
    "subcategory": "Mountain",
    "featured": false,
    "priority": 50
  },
  {
    "geonameId": 9127234,
    "name": "Amagoi Yama",
    "latitude": 36.68684,
    "longitude": 139.14418,
    "category": "Mountain",
    "subcategory": "Mountain",
    "featured": false,
    "priority": 50
  },
  {
    "geonameId": 1865367,
    "name": "Amagoi-yama",
    "latitude": 35.45813,
    "longitude": 137.20442,
    "category": "Mountain",
    "subcategory": "Mountain",
    "featured": false,
    "priority": 50
  },
  {
    "geonameId": 6415295,
    "name": "Amagoze-yama",
    "latitude": 35.80814,
    "longitude": 136.0873,
    "category": "Mountain",
    "subcategory": "Mountain",
    "featured": false,
    "priority": 50
  },
  {
    "geonameId": 1865364,
    "name": "Amagusuku",
    "latitude": 26.93646,
    "longitude": 127.93566,
    "category": "Mountain",
    "subcategory": "Mountain",
    "featured": false,
    "priority": 50
  },
  {
    "geonameId": 11777305,
    "name": "Amaji",
    "latitude": 34.99147,
    "longitude": 134.75852,
    "category": "City",
    "subcategory": "City",
    "featured": false,
    "priority": 50
  },
  {
    "geonameId": 1865362,
    "name": "Amakazari Yama",
    "latitude": 36.90214,
    "longitude": 137.96226,
    "category": "Mountain",
    "subcategory": "Mountain",
    "featured": false,
    "priority": 50
  },
  {
    "geonameId": 1865361,
    "name": "Amakoidana Yama",
    "latitude": 35.67409,
    "longitude": 137.46608,
    "category": "Mountain",
    "subcategory": "Mountain",
    "featured": false,
    "priority": 50
  },
  {
    "geonameId": 7424125,
    "name": "Amakusa",
    "latitude": 32.45861,
    "longitude": 130.19306,
    "category": "City",
    "subcategory": "County Seat",
    "featured": false,
    "priority": 50
  },
  {
    "geonameId": 11266752,
    "name": "Amakusa-matsu Shima",
    "latitude": 32.53034,
    "longitude": 130.41538,
    "category": "Island",
    "subcategory": "Island Group",
    "featured": false,
    "priority": 50
  },
  {
    "geonameId": 1865355,
    "name": "Amakusa-shotō",
    "latitude": 32.33333,
    "longitude": 130.25,
    "category": "Island",
    "subcategory": "Island Group",
    "featured": false,
    "priority": 50
  },
  {
    "geonameId": 7303145,
    "name": "Amami",
    "latitude": 28.3769,
    "longitude": 129.49379,
    "category": "City",
    "subcategory": "County Seat",
    "featured": false,
    "priority": 50
  },
  {
    "geonameId": 1865354,
    "name": "Amami Ōshima",
    "latitude": 28.25,
    "longitude": 129.33333,
    "category": "Island",
    "subcategory": "Island",
    "featured": false,
    "priority": 50
  },
  {
    "geonameId": 1865353,
    "name": "Amami Oshima group",
    "latitude": 28.26667,
    "longitude": 129.35,
    "category": "Island",
    "subcategory": "Island Group",
    "featured": false,
    "priority": 50
  },
  {
    "geonameId": 1865352,
    "name": "Amamizu Yama",
    "latitude": 37.02252,
    "longitude": 138.55543,
    "category": "Mountain",
    "subcategory": "Mountain",
    "featured": false,
    "priority": 50
  },
  {
    "geonameId": 1865344,
    "name": "Amata-jima",
    "latitude": 33.77459,
    "longitude": 132.05193,
    "category": "Island",
    "subcategory": "Island",
    "featured": false,
    "priority": 50
  },
  {
    "geonameId": 2113116,
    "name": "Amatsuka Yama",
    "latitude": 37.93296,
    "longitude": 140.56786,
    "category": "Mountain",
    "subcategory": "Mountain",
    "featured": false,
    "priority": 50
  },
  {
    "geonameId": 2113117,
    "name": "Amayobari Yama",
    "latitude": 38.33917,
    "longitude": 140.44778,
    "category": "Mountain",
    "subcategory": "Mountain",
    "featured": false,
    "priority": 50
  },
  {
    "geonameId": 1865335,
    "name": "Ame Yama",
    "latitude": 34.12589,
    "longitude": 135.47777,
    "category": "Mountain",
    "subcategory": "Mountain",
    "featured": false,
    "priority": 50
  },
  {
    "geonameId": 8428700,
    "name": "Ameike Mori",
    "latitude": 40.45009,
    "longitude": 140.68752,
    "category": "Mountain",
    "subcategory": "Mountain",
    "featured": false,
    "priority": 50
  },
  {
    "geonameId": 2130670,
    "name": "Amemasu-dake",
    "latitude": 43.03333,
    "longitude": 140.93333,
    "category": "Mountain",
    "subcategory": "Mountain",
    "featured": false,
    "priority": 50
  },
  {
    "geonameId": 2113115,
    "name": "Ami",
    "latitude": 36.03333,
    "longitude": 140.2,
    "category": "City",
    "subcategory": "City",
    "featured": false,
    "priority": 50
  },
  {
    "geonameId": 8743900,
    "name": "Amihari Yama",
    "latitude": 37.43172,
    "longitude": 139.12139,
    "category": "Mountain",
    "subcategory": "Mountain",
    "featured": false,
    "priority": 50
  },
  {
    "geonameId": 1865322,
    "name": "Ampeiji-yama",
    "latitude": 35.63333,
    "longitude": 137.76667,
    "category": "Mountain",
    "subcategory": "Mountain",
    "featured": false,
    "priority": 50
  },
  {
    "geonameId": 1865319,
    "name": "Amuro Jima",
    "latitude": 26.20444,
    "longitude": 127.31222,
    "category": "Island",
    "subcategory": "Island",
    "featured": false,
    "priority": 50
  },
  {
    "geonameId": 8202991,
    "name": "Anaaki Jima",
    "latitude": 38.98092,
    "longitude": 141.62745,
    "category": "Island",
    "subcategory": "Island",
    "featured": false,
    "priority": 50
  },
  {
    "geonameId": 11229256,
    "name": "Anagawa Tōge",
    "latitude": 33.0907,
    "longitude": 130.86852,
    "category": "Mountain",
    "subcategory": "Mountain Pass",
    "featured": false,
    "priority": 50
  },
  {
    "geonameId": 9291067,
    "name": "Anaguchi Yama",
    "latitude": 34.96053,
    "longitude": 135.16114,
    "category": "Mountain",
    "subcategory": "Mountain",
    "featured": false,
    "priority": 50
  },
  {
    "geonameId": 8430127,
    "name": "Anakura Yama",
    "latitude": 40.42857,
    "longitude": 140.52992,
    "category": "Mountain",
    "subcategory": "Mountain",
    "featured": false,
    "priority": 50
  },
  {
    "geonameId": 8464123,
    "name": "Anama Yama",
    "latitude": 41.38176,
    "longitude": 140.83985,
    "category": "Mountain",
    "subcategory": "Mountain",
    "featured": false,
    "priority": 50
  },
  {
    "geonameId": 2113113,
    "name": "Anamega-dake",
    "latitude": 39.93333,
    "longitude": 141.63333,
    "category": "Mountain",
    "subcategory": "Mountain",
    "featured": false,
    "priority": 50
  },
  {
    "geonameId": 1865312,
    "name": "Anamizu",
    "latitude": 37.23333,
    "longitude": 136.9,
    "category": "City",
    "subcategory": "City",
    "featured": false,
    "priority": 50
  },
  {
    "geonameId": 1865309,
    "name": "Anan",
    "latitude": 33.91667,
    "longitude": 134.65,
    "category": "City",
    "subcategory": "County Seat",
    "featured": false,
    "priority": 50
  },
  {
    "geonameId": 8675684,
    "name": "Anbō San",
    "latitude": 36.25062,
    "longitude": 137.21316,
    "category": "Mountain",
    "subcategory": "Mountain",
    "featured": false,
    "priority": 50
  },
  {
    "geonameId": 1865300,
    "name": "Ando-yama",
    "latitude": 33.9,
    "longitude": 135.61667,
    "category": "Mountain",
    "subcategory": "Mountain",
    "featured": false,
    "priority": 50
  },
  {
    "geonameId": 2113109,
    "name": "Ane Jima",
    "latitude": 26.5545,
    "longitude": 142.15702,
    "category": "Island",
    "subcategory": "Island",
    "featured": false,
    "priority": 50
  },
  {
    "geonameId": 2113664,
    "name": "Anega-shima",
    "latitude": 39.68749,
    "longitude": 141.9879,
    "category": "Island",
    "subcategory": "Island",
    "featured": false,
    "priority": 50
  },
  {
    "geonameId": 2113104,
    "name": "Ani Jima",
    "latitude": 27.12467,
    "longitude": 142.20708,
    "category": "Island",
    "subcategory": "Island",
    "featured": false,
    "priority": 50
  },
  {
    "geonameId": 1865297,
    "name": "Anja-shima",
    "latitude": 35.56491,
    "longitude": 135.39851,
    "category": "Island",
    "subcategory": "Island",
    "featured": false,
    "priority": 50
  },
  {
    "geonameId": 1865294,
    "name": "Anjō",
    "latitude": 34.95828,
    "longitude": 137.08054,
    "category": "City",
    "subcategory": "County Seat",
    "featured": false,
    "priority": 50
  },
  {
    "geonameId": 10798388,
    "name": "Anmo Yama",
    "latitude": 35.27959,
    "longitude": 138.63066,
    "category": "Mountain",
    "subcategory": "Mountain",
    "featured": false,
    "priority": 50
  },
  {
    "geonameId": 1865290,
    "name": "Annaka",
    "latitude": 36.33011,
    "longitude": 138.89585,
    "category": "City",
    "subcategory": "County Seat",
    "featured": false,
    "priority": 50
  },
  {
    "geonameId": 13132761,
    "name": "Anpachi",
    "latitude": 35.33539,
    "longitude": 136.66541,
    "category": "City",
    "subcategory": "City",
    "featured": false,
    "priority": 50
  },
  {
    "geonameId": 2130659,
    "name": "Antaro-yama",
    "latitude": 43.77952,
    "longitude": 142.70142,
    "category": "Mountain",
    "subcategory": "Mountain",
    "featured": false,
    "priority": 50
  },
  {
    "geonameId": 1865239,
    "name": "Ao Shima",
    "latitude": 33.92455,
    "longitude": 134.72146,
    "category": "Island",
    "subcategory": "Island",
    "featured": false,
    "priority": 50
  },
  {
    "geonameId": 1865237,
    "name": "Ao-shima",
    "latitude": 35.66646,
    "longitude": 135.28362,
    "category": "Island",
    "subcategory": "Island",
    "featured": false,
    "priority": 50
  },
  {
    "geonameId": 8563457,
    "name": "Aoba Ko",
    "latitude": 40.38371,
    "longitude": 141.47445,
    "category": "Lake",
    "subcategory": "Lake",
    "featured": false,
    "priority": 50
  },
  {
    "geonameId": 12625896,
    "name": "Aoba Park",
    "latitude": 33.64843,
    "longitude": 130.46222,
    "category": "Park",
    "subcategory": "Park",
    "featured": false,
    "priority": 50
  },
  {
    "geonameId": 1865270,
    "name": "Aoba-yama",
    "latitude": 35.50519,
    "longitude": 135.48348,
    "category": "Mountain",
    "subcategory": "Mountain",
    "featured": false,
    "priority": 50
  },
  {
    "geonameId": 1865269,
    "name": "Aoga Shima",
    "latitude": 32.45879,
    "longitude": 139.76615,
    "category": "Island",
    "subcategory": "Island",
    "featured": false,
    "priority": 50
  },
  {
    "geonameId": 10987894,
    "name": "Aoi",
    "latitude": 35.77432,
    "longitude": 139.81654,
    "category": "City",
    "subcategory": "City",
    "featured": false,
    "priority": 50
  },
  {
    "geonameId": 1865263,
    "name": "Aoi-dake",
    "latitude": 31.85,
    "longitude": 131.2,
    "category": "Mountain",
    "subcategory": "Mountain",
    "featured": false,
    "priority": 50
  },
  {
    "geonameId": 8530475,
    "name": "Aoiwa Yama",
    "latitude": 40.36581,
    "longitude": 140.90041,
    "category": "Mountain",
    "subcategory": "Mountain",
    "featured": false,
    "priority": 50
  },
  {
    "geonameId": 10283874,
    "name": "Aokageyama",
    "latitude": 34.31172,
    "longitude": 133.16717,
    "category": "Mountain",
    "subcategory": "Mountain",
    "featured": false,
    "priority": 50
  },
  {
    "geonameId": 1865253,
    "name": "Aoki-ko",
    "latitude": 36.61015,
    "longitude": 137.84958,
    "category": "Lake",
    "subcategory": "Lake",
    "featured": false,
    "priority": 50
  },
  {
    "geonameId": 6415048,
    "name": "Aoki-shima",
    "latitude": 33.98528,
    "longitude": 136.27222,
    "category": "Island",
    "subcategory": "Island",
    "featured": false,
    "priority": 50
  },
  {
    "geonameId": 11033480,
    "name": "Aokimachi Kōen",
    "latitude": 35.82215,
    "longitude": 139.7117,
    "category": "Park",
    "subcategory": "Park",
    "featured": false,
    "priority": 50
  },
  {
    "geonameId": 2113100,
    "name": "Aomatsu Shima",
    "latitude": 38.93848,
    "longitude": 141.71034,
    "category": "Island",
    "subcategory": "Island",
    "featured": false,
    "priority": 50
  },
  {
    "geonameId": 2113615,
    "name": "Aomatsu-yama",
    "latitude": 39.51667,
    "longitude": 141.96667,
    "category": "Mountain",
    "subcategory": "Mountain",
    "featured": false,
    "priority": 50
  },
  {
    "geonameId": 2113101,
    "name": "Aomatsuba-yama",
    "latitude": 39.7,
    "longitude": 141.48333,
    "category": "Mountain",
    "subcategory": "Mountain",
    "featured": false,
    "priority": 50
  },
  {
    "geonameId": 1865250,
    "name": "Aomine-yama",
    "latitude": 34.4,
    "longitude": 136.81667,
    "category": "Mountain",
    "subcategory": "Mountain",
    "featured": false,
    "priority": 50
  },
  {
    "geonameId": 2130658,
    "name": "Aomori",
    "latitude": 40.81667,
    "longitude": 140.73333,
    "category": "City",
    "subcategory": "Regional Capital",
    "featured": false,
    "priority": 50
  },
  {
    "geonameId": 8182983,
    "name": "Aonagi Jima",
    "latitude": 38.36419,
    "longitude": 141.08003,
    "category": "Island",
    "subcategory": "Island",
    "featured": false,
    "priority": 50
  },
  {
    "geonameId": 1865249,
    "name": "Aonagi-yama",
    "latitude": 35.36667,
    "longitude": 138.23333,
    "category": "Mountain",
    "subcategory": "Mountain",
    "featured": false,
    "priority": 50
  },
  {
    "geonameId": 1865244,
    "name": "Aono Yama",
    "latitude": 34.46428,
    "longitude": 131.79748,
    "category": "Mountain",
    "subcategory": "Mountain",
    "featured": false,
    "priority": 50
  },
  {
    "geonameId": 8530486,
    "name": "Aosaba Yama",
    "latitude": 40.38256,
    "longitude": 140.84796,
    "category": "Mountain",
    "subcategory": "Mountain",
    "featured": false,
    "priority": 50
  },
  {
    "geonameId": 9820088,
    "name": "Aoshika Dake",
    "latitude": 40.45143,
    "longitude": 140.18412,
    "category": "Mountain",
    "subcategory": "Mountain",
    "featured": false,
    "priority": 50
  },
  {
    "geonameId": 9819663,
    "name": "Aoshika Yama",
    "latitude": 40.65458,
    "longitude": 140.09895,
    "category": "Mountain",
    "subcategory": "Mountain",
    "featured": false,
    "priority": 50
  },
  {
    "geonameId": 1865235,
    "name": "Aoshio Dake",
    "latitude": 31.68517,
    "longitude": 129.72279,
    "category": "Mountain",
    "subcategory": "Mountain",
    "featured": false,
    "priority": 50
  },
  {
    "geonameId": 2113099,
    "name": "Aoso Yama",
    "latitude": 38.085,
    "longitude": 140.60667,
    "category": "Mountain",
    "subcategory": "Mountain",
    "featured": false,
    "priority": 50
  },
  {
    "geonameId": 1865234,
    "name": "Aota-nanba Yama",
    "latitude": 37.06086,
    "longitude": 138.17732,
    "category": "Mountain",
    "subcategory": "Mountain",
    "featured": false,
    "priority": 50
  },
  {
    "geonameId": 1865227,
    "name": "Aoya San",
    "latitude": 33.24227,
    "longitude": 131.20522,
    "category": "Mountain",
    "subcategory": "Mountain",
    "featured": false,
    "priority": 50
  },
  {
    "geonameId": 8504830,
    "name": "Aoyama park",
    "latitude": 35.66354,
    "longitude": 139.72468,
    "category": "Park",
    "subcategory": "Park",
    "featured": false,
    "priority": 50
  },
  {
    "geonameId": 9638518,
    "name": "Aoyama-hane",
    "latitude": 34.66161,
    "longitude": 136.17042,
    "category": "City",
    "subcategory": "City",
    "featured": false,
    "priority": 50
  },
  {
    "geonameId": 2130652,
    "name": "Apoi Dake",
    "latitude": 42.1078,
    "longitude": 143.02562,
    "category": "Mountain",
    "subcategory": "Mountain",
    "featured": false,
    "priority": 50
  },
  {
    "geonameId": 11526834,
    "name": "Apoi Sanroku Shizen Kōen",
    "latitude": 42.11368,
    "longitude": 142.99067,
    "category": "Park",
    "subcategory": "Park",
    "featured": false,
    "priority": 50
  },
  {
    "geonameId": 1865143,
    "name": "Āra Dake",
    "latitude": 26.31248,
    "longitude": 126.78299,
    "category": "Mountain",
    "subcategory": "Mountain",
    "featured": false,
    "priority": 50
  },
  {
    "geonameId": 11171595,
    "name": "Ara Shima",
    "latitude": 35.09289,
    "longitude": 140.10967,
    "category": "Island",
    "subcategory": "Island",
    "featured": false,
    "priority": 50
  },
  {
    "geonameId": 8743456,
    "name": "Ara Yama",
    "latitude": 37.09565,
    "longitude": 139.04195,
    "category": "Mountain",
    "subcategory": "Mountain",
    "featured": false,
    "priority": 50
  },
  {
    "geonameId": 1865142,
    "name": "Ara-take",
    "latitude": 31.35,
    "longitude": 130.48333,
    "category": "Mountain",
    "subcategory": "Mountain",
    "featured": false,
    "priority": 50
  },
  {
    "geonameId": 1865218,
    "name": "Arafune Yama",
    "latitude": 36.20344,
    "longitude": 138.6384,
    "category": "Mountain",
    "subcategory": "Mountain",
    "featured": false,
    "priority": 50
  },
  {
    "geonameId": 2113628,
    "name": "Aragane-yama",
    "latitude": 39.16667,
    "longitude": 141.81667,
    "category": "Mountain",
    "subcategory": "Mountain",
    "featured": false,
    "priority": 50
  },
  {
    "geonameId": 1865214,
    "name": "Aragusuku Jima",
    "latitude": 24.22372,
    "longitude": 123.93535,
    "category": "Island",
    "subcategory": "Island Group",
    "featured": false,
    "priority": 50
  },
  {
    "geonameId": 11325345,
    "name": "Arahira Tōge",
    "latitude": 33.08753,
    "longitude": 130.74625,
    "category": "Mountain",
    "subcategory": "Mountain Pass",
    "featured": false,
    "priority": 50
  },
  {
    "geonameId": 1865210,
    "name": "Arahira Yama",
    "latitude": 31.81667,
    "longitude": 131.33333,
    "category": "Mountain",
    "subcategory": "Mountain",
    "featured": false,
    "priority": 50
  },
  {
    "geonameId": 1865207,
    "name": "Arai",
    "latitude": 37.00059,
    "longitude": 138.2259,
    "category": "City",
    "subcategory": "City",
    "featured": false,
    "priority": 50
  },
  {
    "geonameId": 8611982,
    "name": "Araiso Dake",
    "latitude": 31.70062,
    "longitude": 130.88194,
    "category": "Mountain",
    "subcategory": "Mountain",
    "featured": false,
    "priority": 50
  },
  {
    "geonameId": 1865198,
    "name": "Arakai San",
    "latitude": 37.03611,
    "longitude": 139.64407,
    "category": "Mountain",
    "subcategory": "Mountain",
    "featured": false,
    "priority": 50
  },
  {
    "geonameId": 11011114,
    "name": "Arakawa Chosuichi",
    "latitude": 35.82004,
    "longitude": 139.62722,
    "category": "Lake",
    "subcategory": "Reservoir",
    "featured": false,
    "priority": 50
  },
  {
    "geonameId": 8504675,
    "name": "Arakawa-Naka-dake",
    "latitude": 35.49611,
    "longitude": 138.16715,
    "category": "Mountain",
    "subcategory": "Mountain",
    "featured": false,
    "priority": 50
  },
  {
    "geonameId": 2113092,
    "name": "Arakine Yama",
    "latitude": 35.23963,
    "longitude": 140.29131,
    "category": "Mountain",
    "subcategory": "Mountain",
    "featured": false,
    "priority": 50
  },
  {
    "geonameId": 8662090,
    "name": "Arakura Dake",
    "latitude": 36.27787,
    "longitude": 136.59553,
    "category": "Mountain",
    "subcategory": "Mountain",
    "featured": false,
    "priority": 50
  },
  {
    "geonameId": 1865172,
    "name": "Aramiko Jima",
    "latitude": 37.58852,
    "longitude": 136.87665,
    "category": "Island",
    "subcategory": "Island",
    "featured": false,
    "priority": 50
  },
  {
    "geonameId": 1865170,
    "name": "Aranji-shima",
    "latitude": 26.65,
    "longitude": 128.05,
    "category": "Island",
    "subcategory": "Island",
    "featured": false,
    "priority": 50
  },
  {
    "geonameId": 11274040,
    "name": "Arao",
    "latitude": 32.97888,
    "longitude": 130.44572,
    "category": "City",
    "subcategory": "County Seat",
    "featured": false,
    "priority": 50
  },
  {
    "geonameId": 1865169,
    "name": "Arao Dake",
    "latitude": 32.3549,
    "longitude": 129.98399,
    "category": "Mountain",
    "subcategory": "Mountain",
    "featured": false,
    "priority": 50
  },
  {
    "geonameId": 8313049,
    "name": "Arao Ko",
    "latitude": 38.77018,
    "longitude": 140.70905,
    "category": "Lake",
    "subcategory": "Lake",
    "featured": false,
    "priority": 50
  },
  {
    "geonameId": 8313661,
    "name": "Arao Kohan Kōen",
    "latitude": 38.79224,
    "longitude": 140.66859,
    "category": "Park",
    "subcategory": "Park",
    "featured": false,
    "priority": 50
  },
  {
    "geonameId": 11209541,
    "name": "Arao Yama",
    "latitude": 32.8194,
    "longitude": 130.66486,
    "category": "Mountain",
    "subcategory": "Mountain",
    "featured": false,
    "priority": 50
  },
  {
    "geonameId": 2113088,
    "name": "Arao-dake",
    "latitude": 38.84528,
    "longitude": 140.68722,
    "category": "Mountain",
    "subcategory": "Mountain",
    "featured": false,
    "priority": 50
  },
  {
    "geonameId": 1865166,
    "name": "Ararega-sen",
    "latitude": 35.19019,
    "longitude": 133.78159,
    "category": "Mountain",
    "subcategory": "Mountain",
    "featured": false,
    "priority": 50
  },
  {
    "geonameId": 1865152,
    "name": "Arasawa Dake",
    "latitude": 37.10106,
    "longitude": 139.15084,
    "category": "Mountain",
    "subcategory": "Mountain",
    "featured": false,
    "priority": 50
  },
  {
    "geonameId": 2130645,
    "name": "Arasawa Yama",
    "latitude": 41.37367,
    "longitude": 140.91135,
    "category": "Mountain",
    "subcategory": "Mountain",
    "featured": false,
    "priority": 50
  },
  {
    "geonameId": 1865150,
    "name": "Arase Yama",
    "latitude": 31.20052,
    "longitude": 130.91081,
    "category": "Mountain",
    "subcategory": "Mountain",
    "featured": false,
    "priority": 50
  },
  {
    "geonameId": 1865148,
    "name": "Arase-yama",
    "latitude": 32.91667,
    "longitude": 132.73333,
    "category": "Mountain",
    "subcategory": "Mountain",
    "featured": false,
    "priority": 50
  },
  {
    "geonameId": 10479133,
    "name": "Arashi Yama",
    "latitude": 35.15893,
    "longitude": 138.59611,
    "category": "Mountain",
    "subcategory": "Mountain",
    "featured": false,
    "priority": 50
  },
  {
    "geonameId": 6697502,
    "name": "Arashima-dake",
    "latitude": 35.93424,
    "longitude": 136.60126,
    "category": "Mountain",
    "subcategory": "Mountain",
    "featured": false,
    "priority": 50
  },
  {
    "geonameId": 7303471,
    "name": "Arashiyama",
    "latitude": 35.01481,
    "longitude": 135.67755,
    "category": "City",
    "subcategory": "City",
    "featured": false,
    "priority": 50
  },
  {
    "geonameId": 8624958,
    "name": "Arato Yama",
    "latitude": 34.93185,
    "longitude": 133.37372,
    "category": "Mountain",
    "subcategory": "Mountain",
    "featured": false,
    "priority": 50
  },
  {
    "geonameId": 2113084,
    "name": "Aratokō",
    "latitude": 38.18444,
    "longitude": 140.09306,
    "category": "City",
    "subcategory": "City",
    "featured": false,
    "priority": 50
  },
  {
    "geonameId": 12557946,
    "name": "Aratsu Park",
    "latitude": 33.59964,
    "longitude": 130.37639,
    "category": "Park",
    "subcategory": "Park",
    "featured": false,
    "priority": 50
  },
  {
    "geonameId": 1865002,
    "name": "Ari Shima",
    "latitude": 33.9488,
    "longitude": 135.0747,
    "category": "Island",
    "subcategory": "Island",
    "featured": false,
    "priority": 50
  },
  {
    "geonameId": 10962321,
    "name": "Ariake Tennis no Mori Kōen",
    "latitude": 35.63531,
    "longitude": 139.78817,
    "category": "Park",
    "subcategory": "Park",
    "featured": false,
    "priority": 50
  },
  {
    "geonameId": 8674919,
    "name": "Ariake Yama",
    "latitude": 36.39124,
    "longitude": 137.77096,
    "category": "Mountain",
    "subcategory": "Mountain",
    "featured": false,
    "priority": 50
  },
  {
    "geonameId": 1865127,
    "name": "Ariake-yama",
    "latitude": 34.2,
    "longitude": 129.26667,
    "category": "Mountain",
    "subcategory": "Mountain",
    "featured": false,
    "priority": 50
  },
  {
    "geonameId": 12000595,
    "name": "Ariakeno Taki",
    "latitude": 42.92702,
    "longitude": 141.41003,
    "category": "Waterfall",
    "subcategory": "Waterfall",
    "featured": false,
    "priority": 50
  },
  {
    "geonameId": 11611643,
    "name": "Arida",
    "latitude": 34.08089,
    "longitude": 135.11905,
    "category": "City",
    "subcategory": "County Seat",
    "featured": false,
    "priority": 50
  },
  {
    "geonameId": 1865117,
    "name": "Arifuku Jima",
    "latitude": 32.91601,
    "longitude": 128.94422,
    "category": "Island",
    "subcategory": "Island",
    "featured": false,
    "priority": 50
  },
  {
    "geonameId": 8662084,
    "name": "Arigata Yama",
    "latitude": 36.15093,
    "longitude": 136.6557,
    "category": "Mountain",
    "subcategory": "Mountain",
    "featured": false,
    "priority": 50
  },
  {
    "geonameId": 9181201,
    "name": "Arikawa Dake",
    "latitude": 36.63296,
    "longitude": 138.85194,
    "category": "Mountain",
    "subcategory": "Mountain",
    "featured": false,
    "priority": 50
  },
  {
    "geonameId": 8743225,
    "name": "Arikura Yama",
    "latitude": 37.06545,
    "longitude": 138.66746,
    "category": "Mountain",
    "subcategory": "Mountain",
    "featured": false,
    "priority": 50
  },
  {
    "geonameId": 8310248,
    "name": "Arimatsu Shima",
    "latitude": 38.95891,
    "longitude": 141.7265,
    "category": "Island",
    "subcategory": "Island",
    "featured": false,
    "priority": 50
  },
  {
    "geonameId": 8664575,
    "name": "Arimine Ko",
    "latitude": 36.47163,
    "longitude": 137.43874,
    "category": "Lake",
    "subcategory": "Reservoir",
    "featured": false,
    "priority": 50
  },
  {
    "geonameId": 2113995,
    "name": "Arisawa Yama",
    "latitude": 39.00167,
    "longitude": 140.22,
    "category": "Mountain",
    "subcategory": "Mountain",
    "featured": false,
    "priority": 50
  },
  {
    "geonameId": 8504829,
    "name": "Arisugawa park",
    "latitude": 35.65201,
    "longitude": 139.72562,
    "category": "Park",
    "subcategory": "Park",
    "featured": false,
    "priority": 50
  },
  {
    "geonameId": 1865103,
    "name": "Arita",
    "latitude": 33.18333,
    "longitude": 129.9,
    "category": "City",
    "subcategory": "City",
    "featured": false,
    "priority": 50
  },
  {
    "geonameId": 12572224,
    "name": "Arita higashi Park",
    "latitude": 33.5642,
    "longitude": 130.33661,
    "category": "Park",
    "subcategory": "Park",
    "featured": false,
    "priority": 50
  },
  {
    "geonameId": 9640353,
    "name": "Arochi San",
    "latitude": 34.26633,
    "longitude": 136.42525,
    "category": "Mountain",
    "subcategory": "Mountain",
    "featured": false,
    "priority": 50
  },
  {
    "geonameId": 1865031,
    "name": "Asa Shima",
    "latitude": 33.22354,
    "longitude": 129.54971,
    "category": "Island",
    "subcategory": "Island Group",
    "featured": false,
    "priority": 50
  },
  {
    "geonameId": 1865024,
    "name": "Asa Yama",
    "latitude": 34.78539,
    "longitude": 132.38251,
    "category": "Mountain",
    "subcategory": "Mountain",
    "featured": false,
    "priority": 50
  },
  {
    "geonameId": 1865090,
    "name": "Asagaya-minami",
    "latitude": 35.70206,
    "longitude": 139.63745,
    "category": "City",
    "subcategory": "City",
    "featured": false,
    "priority": 50
  },
  {
    "geonameId": 11612477,
    "name": "Asago",
    "latitude": 35.25908,
    "longitude": 134.81392,
    "category": "City",
    "subcategory": "County Seat",
    "featured": false,
    "priority": 50
  },
  {
    "geonameId": 2113077,
    "name": "Asahi",
    "latitude": 35.71667,
    "longitude": 140.65,
    "category": "City",
    "subcategory": "County Seat",
    "featured": false,
    "priority": 50
  },
  {
    "geonameId": 8675725,
    "name": "Asahi Chosuichi",
    "latitude": 36.07523,
    "longitude": 137.42105,
    "category": "Lake",
    "subcategory": "Reservoir",
    "featured": false,
    "priority": 50
  },
  {
    "geonameId": 8579260,
    "name": "Asahi Dake",
    "latitude": 39.61001,
    "longitude": 140.7763,
    "category": "Mountain",
    "subcategory": "Mountain",
    "featured": false,
    "priority": 50
  },
  {
    "geonameId": 10370656,
    "name": "Asahi Daki",
    "latitude": 35.21115,
    "longitude": 139.0603,
    "category": "Waterfall",
    "subcategory": "Waterfall",
    "featured": false,
    "priority": 50
  },
  {
    "geonameId": 11672385,
    "name": "Asahi Kōen",
    "latitude": 43.77554,
    "longitude": 143.61238,
    "category": "Park",
    "subcategory": "Park",
    "featured": false,
    "priority": 50
  },
  {
    "geonameId": 11672639,
    "name": "Asahi Tōge",
    "latitude": 43.79669,
    "longitude": 143.39053,
    "category": "Mountain",
    "subcategory": "Mountain Pass",
    "featured": false,
    "priority": 50
  },
  {
    "geonameId": 2113072,
    "name": "Asahi Yama",
    "latitude": 30.48595,
    "longitude": 140.30777,
    "category": "Mountain",
    "subcategory": "Mountain",
    "featured": false,
    "priority": 50
  },
  {
    "geonameId": 1865083,
    "name": "Asahi-dake",
    "latitude": 36.82681,
    "longitude": 137.72993,
    "category": "Mountain",
    "subcategory": "Mountain",
    "featured": false,
    "priority": 50
  },
  {
    "geonameId": 1865061,
    "name": "Asahi-yama",
    "latitude": 35.5,
    "longitude": 132.98333,
    "category": "Mountain",
    "subcategory": "Mountain",
    "featured": false,
    "priority": 50
  },
  {
    "geonameId": 8635391,
    "name": "Asahiga Maru",
    "latitude": 33.95062,
    "longitude": 134.40126,
    "category": "Mountain",
    "subcategory": "Mountain",
    "featured": false,
    "priority": 50
  },
  {
    "geonameId": 11618332,
    "name": "Asahigaoka Kōen",
    "latitude": 43.90867,
    "longitude": 144.21528,
    "category": "Park",
    "subcategory": "Park",
    "featured": false,
    "priority": 50
  },
  {
    "geonameId": 2130629,
    "name": "Asahikawa",
    "latitude": 43.77063,
    "longitude": 142.36489,
    "category": "City",
    "subcategory": "County Seat",
    "featured": false,
    "priority": 50
  },
  {
    "geonameId": 2130626,
    "name": "Asahina Dake",
    "latitude": 40.32462,
    "longitude": 141.04806,
    "category": "Mountain",
    "subcategory": "Mountain",
    "featured": false,
    "priority": 50
  },
  {
    "geonameId": 2130625,
    "name": "Asahina-dake",
    "latitude": 41.31667,
    "longitude": 141.03333,
    "category": "Mountain",
    "subcategory": "Mountain",
    "featured": false,
    "priority": 50
  },
  {
    "geonameId": 11999168,
    "name": "Asahiyama Kinen Kōen",
    "latitude": 43.0393,
    "longitude": 141.31418,
    "category": "Park",
    "subcategory": "Park",
    "featured": false,
    "priority": 50
  },
  {
    "geonameId": 8610920,
    "name": "Asajinnno",
    "latitude": 31.78067,
    "longitude": 131.30882,
    "category": "Mountain",
    "subcategory": "Mountain",
    "featured": false,
    "priority": 50
  },
  {
    "geonameId": 1907299,
    "name": "Asaka",
    "latitude": 35.80472,
    "longitude": 139.60194,
    "category": "City",
    "subcategory": "County Seat",
    "featured": false,
    "priority": 50
  },
  {
    "geonameId": 2113068,
    "name": "Asakawa",
    "latitude": 37.08276,
    "longitude": 140.41365,
    "category": "City",
    "subcategory": "City",
    "featured": false,
    "priority": 50
  },
  {
    "geonameId": 8674922,
    "name": "Asakawa Yama",
    "latitude": 36.33915,
    "longitude": 137.78764,
    "category": "Mountain",
    "subcategory": "Mountain",
    "featured": false,
    "priority": 50
  },
  {
    "geonameId": 11612694,
    "name": "Asakuchi",
    "latitude": 34.53484,
    "longitude": 133.60302,
    "category": "City",
    "subcategory": "County Seat",
    "featured": false,
    "priority": 50
  },
  {
    "geonameId": 8743747,
    "name": "Asakuksa Dake",
    "latitude": 37.3434,
    "longitude": 139.23355,
    "category": "Mountain",
    "subcategory": "Mountain",
    "featured": false,
    "priority": 50
  },
  {
    "geonameId": 11612701,
    "name": "Asakura",
    "latitude": 33.41439,
    "longitude": 130.71877,
    "category": "City",
    "subcategory": "County Seat",
    "featured": false,
    "priority": 50
  },
  {
    "geonameId": 9115528,
    "name": "Asakura Yama",
    "latitude": 36.04253,
    "longitude": 138.21087,
    "category": "Mountain",
    "subcategory": "Mountain",
    "featured": false,
    "priority": 50
  },
  {
    "geonameId": 1865041,
    "name": "Asama Yama",
    "latitude": 34.36194,
    "longitude": 136.46059,
    "category": "Mountain",
    "subcategory": "Mountain",
    "featured": false,
    "priority": 50
  },
  {
    "geonameId": 1865042,
    "name": "Asama-take",
    "latitude": 34.46667,
    "longitude": 136.78333,
    "category": "Mountain",
    "subcategory": "Mountain",
    "featured": false,
    "priority": 50
  },
  {
    "geonameId": 1865040,
    "name": "Asama-yama",
    "latitude": 36.40643,
    "longitude": 138.52005,
    "category": "Mountain",
    "subcategory": "Mountain",
    "featured": false,
    "priority": 50
  },
  {
    "geonameId": 1865044,
    "name": "Asamakakushi Yama",
    "latitude": 36.45385,
    "longitude": 138.65212,
    "category": "Mountain",
    "subcategory": "Mountain",
    "featured": false,
    "priority": 50
  },
  {
    "geonameId": 2130618,
    "name": "Asanai Numa",
    "latitude": 40.14898,
    "longitude": 140.00855,
    "category": "Lake",
    "subcategory": "Lake",
    "featured": false,
    "priority": 50
  },
  {
    "geonameId": 2113064,
    "name": "Asashima-yama",
    "latitude": 39.63333,
    "longitude": 141.23333,
    "category": "Mountain",
    "subcategory": "Mountain",
    "featured": false,
    "priority": 50
  },
  {
    "geonameId": 9637351,
    "name": "Asebo Tōge",
    "latitude": 34.95356,
    "longitude": 136.09774,
    "category": "Mountain",
    "subcategory": "Mountain Pass",
    "featured": false,
    "priority": 50
  },
  {
    "geonameId": 2113063,
    "name": "Ashi Jima",
    "latitude": 38.38785,
    "longitude": 141.6036,
    "category": "Island",
    "subcategory": "Island",
    "featured": false,
    "priority": 50
  },
  {
    "geonameId": 2130612,
    "name": "Ashibetsu",
    "latitude": 43.50972,
    "longitude": 142.18556,
    "category": "City",
    "subcategory": "County Seat",
    "featured": false,
    "priority": 50
  },
  {
    "geonameId": 2130611,
    "name": "Ashibetsu-dake",
    "latitude": 43.23333,
    "longitude": 142.28333,
    "category": "Mountain",
    "subcategory": "Mountain",
    "featured": false,
    "priority": 50
  },
  {
    "geonameId": 1864992,
    "name": "Ashida",
    "latitude": 36.26983,
    "longitude": 138.31763,
    "category": "City",
    "subcategory": "City",
    "featured": false,
    "priority": 50
  },
  {
    "geonameId": 1865013,
    "name": "Ashida Yama",
    "latitude": 38.17657,
    "longitude": 139.84289,
    "category": "Mountain",
    "subcategory": "Mountain",
    "featured": false,
    "priority": 50
  },
  {
    "geonameId": 1865008,
    "name": "Ashigara Tōge",
    "latitude": 35.31975,
    "longitude": 139.0122,
    "category": "Mountain",
    "subcategory": "Mountain Pass",
    "featured": false,
    "priority": 50
  },
  {
    "geonameId": 1865005,
    "name": "Ashikaga",
    "latitude": 36.33333,
    "longitude": 139.45,
    "category": "City",
    "subcategory": "County Seat",
    "featured": false,
    "priority": 50
  },
  {
    "geonameId": 2113061,
    "name": "Ashikura Yama",
    "latitude": 39.02674,
    "longitude": 140.70292,
    "category": "Mountain",
    "subcategory": "Mountain",
    "featured": false,
    "priority": 50
  },
  {
    "geonameId": 2113059,
    "name": "Ashio-san",
    "latitude": 36.2797,
    "longitude": 140.14774,
    "category": "Mountain",
    "subcategory": "Mountain",
    "featured": false,
    "priority": 50
  },
  {
    "geonameId": 1864989,
    "name": "Ashitaka Yama",
    "latitude": 35.19846,
    "longitude": 138.80772,
    "category": "Mountain",
    "subcategory": "Mountain",
    "featured": false,
    "priority": 50
  },
  {
    "geonameId": 10799596,
    "name": "Ashiwada Yama",
    "latitude": 35.49419,
    "longitude": 138.70741,
    "category": "Mountain",
    "subcategory": "Mountain",
    "featured": false,
    "priority": 50
  },
  {
    "geonameId": 1864985,
    "name": "Ashiya",
    "latitude": 34.72807,
    "longitude": 135.30264,
    "category": "City",
    "subcategory": "County Seat",
    "featured": false,
    "priority": 50
  },
  {
    "geonameId": 10310807,
    "name": "Ashiya Kaihin Kōen",
    "latitude": 33.8929,
    "longitude": 130.65469,
    "category": "Park",
    "subcategory": "Park",
    "featured": false,
    "priority": 50
  },
  {
    "geonameId": 8743761,
    "name": "Ashizawa Yama",
    "latitude": 37.28887,
    "longitude": 139.15184,
    "category": "Mountain",
    "subcategory": "Mountain",
    "featured": false,
    "priority": 50
  },
  {
    "geonameId": 1864980,
    "name": "Ashizuri-kokuteikōen",
    "latitude": 32.7,
    "longitude": 132.75,
    "category": "Park",
    "subcategory": "Park",
    "featured": false,
    "priority": 50
  },
  {
    "geonameId": 2130603,
    "name": "Ashoro",
    "latitude": 43.23722,
    "longitude": 143.54278,
    "category": "City",
    "subcategory": "City",
    "featured": false,
    "priority": 50
  },
  {
    "geonameId": 11450721,
    "name": "Ashoro Tōge",
    "latitude": 43.43679,
    "longitude": 144.00334,
    "category": "Mountain",
    "subcategory": "Mountain Pass",
    "featured": false,
    "priority": 50
  },
  {
    "geonameId": 6324583,
    "name": "Aso",
    "latitude": 32.93726,
    "longitude": 131.08008,
    "category": "City",
    "subcategory": "County Seat",
    "featured": false,
    "priority": 50
  },
  {
    "geonameId": 11149546,
    "name": "Aso Farm Land",
    "latitude": 32.89903,
    "longitude": 131.00422,
    "category": "Park",
    "subcategory": "Park",
    "featured": false,
    "priority": 50
  },
  {
    "geonameId": 8514924,
    "name": "Asoga Dake",
    "latitude": 40.53577,
    "longitude": 140.63059,
    "category": "Mountain",
    "subcategory": "Mountain",
    "featured": false,
    "priority": 50
  },
  {
    "geonameId": 2130599,
    "name": "Asoiwa-yama",
    "latitude": 43.3,
    "longitude": 141.51667,
    "category": "Mountain",
    "subcategory": "Mountain",
    "featured": false,
    "priority": 50
  },
  {
    "geonameId": 1864968,
    "name": "Asso",
    "latitude": 33.7,
    "longitude": 135.41667,
    "category": "City",
    "subcategory": "City",
    "featured": false,
    "priority": 50
  },
  {
    "geonameId": 1864967,
    "name": "Asuka",
    "latitude": 34.48085,
    "longitude": 135.82039,
    "category": "City",
    "subcategory": "City",
    "featured": false,
    "priority": 50
  },
  {
    "geonameId": 11010170,
    "name": "Asukayama Kōen",
    "latitude": 35.75074,
    "longitude": 139.73848,
    "category": "Park",
    "subcategory": "Park",
    "featured": false,
    "priority": 50
  },
  {
    "geonameId": 11828270,
    "name": "Asunaro Ko",
    "latitude": 41.80078,
    "longitude": 140.18673,
    "category": "Lake",
    "subcategory": "Reservoir",
    "featured": false,
    "priority": 50
  },
  {
    "geonameId": 6697517,
    "name": "Asuwa-yama",
    "latitude": 36.0508,
    "longitude": 136.20043,
    "category": "Mountain",
    "subcategory": "Mountain",
    "featured": false,
    "priority": 50
  },
  {
    "geonameId": 1864950,
    "name": "Atago Yama",
    "latitude": 35.11501,
    "longitude": 139.98685,
    "category": "Mountain",
    "subcategory": "Mountain",
    "featured": false,
    "priority": 50
  },
  {
    "geonameId": 1864951,
    "name": "Atago-yama",
    "latitude": 35.06667,
    "longitude": 135.63333,
    "category": "Mountain",
    "subcategory": "Mountain",
    "featured": false,
    "priority": 50
  },
  {
    "geonameId": 1864946,
    "name": "Ataku-jima",
    "latitude": 26.51667,
    "longitude": 128.06667,
    "category": "Island",
    "subcategory": "Island",
    "featured": false,
    "priority": 50
  },
  {
    "geonameId": 1864945,
    "name": "Atami",
    "latitude": 35.08834,
    "longitude": 139.05325,
    "category": "City",
    "subcategory": "County Seat",
    "featured": false,
    "priority": 50
  },
  {
    "geonameId": 10367244,
    "name": "Atami Tōge",
    "latitude": 35.12024,
    "longitude": 139.03976,
    "category": "Mountain",
    "subcategory": "Mountain Pass",
    "featured": false,
    "priority": 50
  },
  {
    "geonameId": 1864957,
    "name": "Atata Jima",
    "latitude": 34.19128,
    "longitude": 132.30651,
    "category": "Island",
    "subcategory": "Island",
    "featured": false,
    "priority": 50
  },
  {
    "geonameId": 6417209,
    "name": "Ategi Shima",
    "latitude": 34.33097,
    "longitude": 133.25663,
    "category": "Island",
    "subcategory": "Island",
    "featured": false,
    "priority": 50
  },
  {
    "geonameId": 1864937,
    "name": "Ateki-jima",
    "latitude": 32.91187,
    "longitude": 132.56018,
    "category": "Island",
    "subcategory": "Island",
    "featured": false,
    "priority": 50
  },
  {
    "geonameId": 1864936,
    "name": "Atema Yama",
    "latitude": 37,
    "longitude": 138.76667,
    "category": "Mountain",
    "subcategory": "Mountain",
    "featured": false,
    "priority": 50
  },
  {
    "geonameId": 2113053,
    "name": "Aterazawa",
    "latitude": 38.38431,
    "longitude": 140.21189,
    "category": "City",
    "subcategory": "City",
    "featured": false,
    "priority": 50
  },
  {
    "geonameId": 10286470,
    "name": "Atodo san",
    "latitude": 36.09585,
    "longitude": 133.07174,
    "category": "Mountain",
    "subcategory": "Mountain",
    "featured": false,
    "priority": 50
  },
  {
    "geonameId": 2130596,
    "name": "Atosanupuri",
    "latitude": 43.61034,
    "longitude": 144.43846,
    "category": "Mountain",
    "subcategory": "Mountain",
    "featured": false,
    "priority": 50
  },
  {
    "geonameId": 1847963,
    "name": "Atsugi",
    "latitude": 35.44272,
    "longitude": 139.36931,
    "category": "City",
    "subcategory": "County Seat",
    "featured": false,
    "priority": 50
  },
  {
    "geonameId": 11247310,
    "name": "Atsuki Tōge",
    "latitude": 32.32418,
    "longitude": 130.12872,
    "category": "Mountain",
    "subcategory": "Mountain Pass",
    "featured": false,
    "priority": 50
  },
  {
    "geonameId": 1864925,
    "name": "Atsumi Dake",
    "latitude": 38.62079,
    "longitude": 139.63124,
    "category": "Mountain",
    "subcategory": "Mountain",
    "featured": false,
    "priority": 50
  },
  {
    "geonameId": 9290305,
    "name": "Auga Yama",
    "latitude": 34.78317,
    "longitude": 135.22905,
    "category": "Mountain",
    "subcategory": "Mountain",
    "featured": false,
    "priority": 50
  },
  {
    "geonameId": 11612333,
    "name": "Awa",
    "latitude": 34.09205,
    "longitude": 134.28452,
    "category": "City",
    "subcategory": "County Seat",
    "featured": false,
    "priority": 50
  },
  {
    "geonameId": 1864885,
    "name": "Awa Shima",
    "latitude": 38.46378,
    "longitude": 139.24208,
    "category": "Island",
    "subcategory": "Island",
    "featured": false,
    "priority": 50
  },
  {
    "geonameId": 1864905,
    "name": "Awa-dake",
    "latitude": 27.01667,
    "longitude": 127.93333,
    "category": "Mountain",
    "subcategory": "Mountain",
    "featured": false,
    "priority": 50
  },
  {
    "geonameId": 1864886,
    "name": "Awa-shima",
    "latitude": 35.03284,
    "longitude": 138.88834,
    "category": "Island",
    "subcategory": "Island",
    "featured": false,
    "priority": 50
  },
  {
    "geonameId": 1864904,
    "name": "Awaga Dake",
    "latitude": 34.8419,
    "longitude": 138.06863,
    "category": "Mountain",
    "subcategory": "Mountain",
    "featured": false,
    "priority": 50
  },
  {
    "geonameId": 11612338,
    "name": "Awaji",
    "latitude": 34.47769,
    "longitude": 134.93065,
    "category": "City",
    "subcategory": "County Seat",
    "featured": false,
    "priority": 50
  },
  {
    "geonameId": 1864898,
    "name": "Awaji Shima",
    "latitude": 34.3884,
    "longitude": 134.8288,
    "category": "Island",
    "subcategory": "Island",
    "featured": false,
    "priority": 50
  },
  {
    "geonameId": 11171776,
    "name": "Awamatano Taki",
    "latitude": 35.21903,
    "longitude": 140.18259,
    "category": "Waterfall",
    "subcategory": "Waterfall",
    "featured": false,
    "priority": 50
  },
  {
    "geonameId": 1864894,
    "name": "Awara",
    "latitude": 36.22309,
    "longitude": 136.19236,
    "category": "City",
    "subcategory": "County Seat",
    "featured": false,
    "priority": 50
  },
  {
    "geonameId": 1864874,
    "name": "Aya",
    "latitude": 31.98333,
    "longitude": 131.26667,
    "category": "City",
    "subcategory": "City",
    "featured": false,
    "priority": 50
  },
  {
    "geonameId": 1864873,
    "name": "Ayabe",
    "latitude": 35.3,
    "longitude": 135.25,
    "category": "City",
    "subcategory": "County Seat",
    "featured": false,
    "priority": 50
  },
  {
    "geonameId": 11241734,
    "name": "Ayaorino Taki",
    "latitude": 32.68737,
    "longitude": 130.95893,
    "category": "Waterfall",
    "subcategory": "Waterfall",
    "featured": false,
    "priority": 50
  },
  {
    "geonameId": 11611642,
    "name": "Ayase",
    "latitude": 35.43515,
    "longitude": 139.4256,
    "category": "City",
    "subcategory": "County Seat",
    "featured": false,
    "priority": 50
  },
  {
    "geonameId": 11151177,
    "name": "Ayugaerino Taki",
    "latitude": 32.86904,
    "longitude": 130.99184,
    "category": "Waterfall",
    "subcategory": "Waterfall",
    "featured": false,
    "priority": 50
  },
  {
    "geonameId": 10865290,
    "name": "Azabu-jūban",
    "latitude": 35.65597,
    "longitude": 139.73534,
    "category": "City",
    "subcategory": "City",
    "featured": false,
    "priority": 50
  },
  {
    "geonameId": 9629451,
    "name": "Azami Dake",
    "latitude": 34.36046,
    "longitude": 136.06552,
    "category": "Mountain",
    "subcategory": "Mountain",
    "featured": false,
    "priority": 50
  },
  {
    "geonameId": 1864855,
    "name": "Azamiga Dake",
    "latitude": 34.33264,
    "longitude": 131.77755,
    "category": "Mountain",
    "subcategory": "Mountain",
    "featured": false,
    "priority": 50
  },
  {
    "geonameId": 10862483,
    "name": "Azamino",
    "latitude": 35.5699,
    "longitude": 139.54482,
    "category": "City",
    "subcategory": "City",
    "featured": false,
    "priority": 50
  },
  {
    "geonameId": 9936488,
    "name": "Aze Shima",
    "latitude": 33.81674,
    "longitude": 129.65959,
    "category": "Island",
    "subcategory": "Island Group",
    "featured": false,
    "priority": 50
  },
  {
    "geonameId": 1864851,
    "name": "Azegamaru Yama",
    "latitude": 35.47797,
    "longitude": 139.0322,
    "category": "Mountain",
    "subcategory": "Mountain",
    "featured": false,
    "priority": 50
  },
  {
    "geonameId": 1864848,
    "name": "Azōji San",
    "latitude": 34.47531,
    "longitude": 131.96717,
    "category": "Mountain",
    "subcategory": "Mountain",
    "featured": false,
    "priority": 50
  },
  {
    "geonameId": 1864916,
    "name": "Azu-shima",
    "latitude": 34.17556,
    "longitude": 130.89,
    "category": "Island",
    "subcategory": "Island Group",
    "featured": false,
    "priority": 50
  },
  {
    "geonameId": 1853779,
    "name": "Azuchi Ōshima",
    "latitude": 33.48389,
    "longitude": 129.54694,
    "category": "Island",
    "subcategory": "Island",
    "featured": false,
    "priority": 50
  },
  {
    "geonameId": 6415031,
    "name": "Azukimochi-yama",
    "latitude": 33.92,
    "longitude": 136.17944,
    "category": "Mountain",
    "subcategory": "Mountain",
    "featured": false,
    "priority": 50
  },
  {
    "geonameId": 2130581,
    "name": "Azuma Dake",
    "latitude": 40.83697,
    "longitude": 140.89149,
    "category": "Mountain",
    "subcategory": "Mountain",
    "featured": false,
    "priority": 50
  },
  {
    "geonameId": 1864840,
    "name": "Azuma Shima",
    "latitude": 35.30089,
    "longitude": 139.65007,
    "category": "Island",
    "subcategory": "Island",
    "featured": false,
    "priority": 50
  },
  {
    "geonameId": 9189088,
    "name": "Azuma Yama",
    "latitude": 36.43103,
    "longitude": 139.33084,
    "category": "Mountain",
    "subcategory": "Mountain",
    "featured": false,
    "priority": 50
  },
  {
    "geonameId": 2113042,
    "name": "Azuma-kofuji",
    "latitude": 37.72194,
    "longitude": 140.26685,
    "category": "Mountain",
    "subcategory": "Mountain",
    "featured": false,
    "priority": 50
  },
  {
    "geonameId": 2113039,
    "name": "Azumane Yama",
    "latitude": 39.58741,
    "longitude": 141.06033,
    "category": "Mountain",
    "subcategory": "Mountain",
    "featured": false,
    "priority": 50
  },
  {
    "geonameId": 1864839,
    "name": "Azumaya San",
    "latitude": 36.5426,
    "longitude": 138.41547,
    "category": "Mountain",
    "subcategory": "Mountain",
    "featured": false,
    "priority": 50
  },
  {
    "geonameId": 6822111,
    "name": "Azumino",
    "latitude": 36.28815,
    "longitude": 137.88705,
    "category": "City",
    "subcategory": "County Seat",
    "featured": false,
    "priority": 50
  },
  {
    "geonameId": 2113596,
    "name": "Babame Dake",
    "latitude": 39.83504,
    "longitude": 140.28176,
    "category": "Mountain",
    "subcategory": "Mountain",
    "featured": false,
    "priority": 50
  },
  {
    "geonameId": 8428549,
    "name": "Bafunmori Yama",
    "latitude": 40.4221,
    "longitude": 140.71735,
    "category": "Mountain",
    "subcategory": "Mountain",
    "featured": false,
    "priority": 50
  },
  {
    "geonameId": 12534361,
    "name": "Baikōen Greenway",
    "latitude": 33.57168,
    "longitude": 130.37867,
    "category": "Park",
    "subcategory": "Park",
    "featured": false,
    "priority": 50
  },
  {
    "geonameId": 11244025,
    "name": "Bairin Ko",
    "latitude": 33.1839,
    "longitude": 130.99357,
    "category": "Lake",
    "subcategory": "Reservoir",
    "featured": false,
    "priority": 50
  },
  {
    "geonameId": 1864822,
    "name": "Bakuhae-shima",
    "latitude": 32.96667,
    "longitude": 129.63333,
    "category": "Island",
    "subcategory": "Island",
    "featured": false,
    "priority": 50
  },
  {
    "geonameId": 1896105,
    "name": "Ban Dake",
    "latitude": 33.01444,
    "longitude": 129.08276,
    "category": "Mountain",
    "subcategory": "Mountain",
    "featured": false,
    "priority": 50
  },
  {
    "geonameId": 1864789,
    "name": "Ban’ya Dake",
    "latitude": 32.81078,
    "longitude": 128.84886,
    "category": "Mountain",
    "subcategory": "Mountain",
    "featured": false,
    "priority": 50
  },
  {
    "geonameId": 1864812,
    "name": "Banda-mori",
    "latitude": 33.43333,
    "longitude": 133.26667,
    "category": "Mountain",
    "subcategory": "Mountain",
    "featured": false,
    "priority": 50
  },
  {
    "geonameId": 2113034,
    "name": "Bandai San",
    "latitude": 37.60079,
    "longitude": 140.07181,
    "category": "Mountain",
    "subcategory": "Mountain",
    "featured": false,
    "priority": 50
  },
  {
    "geonameId": 6822106,
    "name": "Bandō",
    "latitude": 36.06997,
    "longitude": 139.86705,
    "category": "City",
    "subcategory": "County Seat",
    "featured": false,
    "priority": 50
  },
  {
    "geonameId": 8580536,
    "name": "Bandori Mori",
    "latitude": 39.78644,
    "longitude": 140.46683,
    "category": "Mountain",
    "subcategory": "Mountain",
    "featured": false,
    "priority": 50
  },
  {
    "geonameId": 1864808,
    "name": "Bange",
    "latitude": 37.56444,
    "longitude": 139.82178,
    "category": "City",
    "subcategory": "City",
    "featured": false,
    "priority": 50
  },
  {
    "geonameId": 1864806,
    "name": "Banjirō Dake",
    "latitude": 34.86004,
    "longitude": 139.02085,
    "category": "Mountain",
    "subcategory": "Mountain",
    "featured": false,
    "priority": 50
  },
  {
    "geonameId": 2114170,
    "name": "Banjō San",
    "latitude": 38.05745,
    "longitude": 140.37505,
    "category": "Mountain",
    "subcategory": "Mountain",
    "featured": false,
    "priority": 50
  },
  {
    "geonameId": 1864804,
    "name": "Banjō-dake",
    "latitude": 35.60114,
    "longitude": 135.86861,
    "category": "Mountain",
    "subcategory": "Mountain",
    "featured": false,
    "priority": 50
  },
  {
    "geonameId": 11999180,
    "name": "Bankei Shimin no Mori",
    "latitude": 43.02126,
    "longitude": 141.27688,
    "category": "Park",
    "subcategory": "Park",
    "featured": false,
    "priority": 50
  },
  {
    "geonameId": 1864802,
    "name": "Banna Dake",
    "latitude": 24.37177,
    "longitude": 124.16206,
    "category": "Mountain",
    "subcategory": "Mountain",
    "featured": false,
    "priority": 50
  },
  {
    "geonameId": 1864798,
    "name": "Banoki-san",
    "latitude": 31.93333,
    "longitude": 130.26667,
    "category": "Mountain",
    "subcategory": "Mountain",
    "featured": false,
    "priority": 50
  },
  {
    "geonameId": 6697564,
    "name": "Banpaku Memorial Park",
    "latitude": 34.81063,
    "longitude": 135.527,
    "category": "Park",
    "subcategory": "Park",
    "featured": false,
    "priority": 50
  },
  {
    "geonameId": 8601068,
    "name": "Banryū Ko",
    "latitude": 34.68157,
    "longitude": 131.80497,
    "category": "Lake",
    "subcategory": "Lake",
    "featured": false,
    "priority": 50
  },
  {
    "geonameId": 1864797,
    "name": "Banshō",
    "latitude": 36,
    "longitude": 139.3,
    "category": "City",
    "subcategory": "City",
    "featured": false,
    "priority": 50
  },
  {
    "geonameId": 1864793,
    "name": "Bansho-yama",
    "latitude": 26.23333,
    "longitude": 127.3,
    "category": "Mountain",
    "subcategory": "Mountain",
    "featured": false,
    "priority": 50
  },
  {
    "geonameId": 1864791,
    "name": "Banta",
    "latitude": 26.28333,
    "longitude": 126.8,
    "category": "Mountain",
    "subcategory": "Mountain",
    "featured": false,
    "priority": 50
  },
  {
    "geonameId": 10214809,
    "name": "Bantate Tōge",
    "latitude": 32.43481,
    "longitude": 130.72776,
    "category": "Mountain",
    "subcategory": "Mountain Pass",
    "featured": false,
    "priority": 50
  },
  {
    "geonameId": 1864786,
    "name": "Banzaburō Dake",
    "latitude": 34.86299,
    "longitude": 139.00182,
    "category": "Mountain",
    "subcategory": "Mountain",
    "featured": false,
    "priority": 50
  },
  {
    "geonameId": 1864784,
    "name": "Banzō Zan",
    "latitude": 34.8566,
    "longitude": 132.66278,
    "category": "Mountain",
    "subcategory": "Mountain",
    "featured": false,
    "priority": 50
  },
  {
    "geonameId": 8995908,
    "name": "Bara Yama",
    "latitude": 37.3557,
    "longitude": 139.66619,
    "category": "Mountain",
    "subcategory": "Mountain",
    "featured": false,
    "priority": 50
  },
  {
    "geonameId": 10913431,
    "name": "Baraki",
    "latitude": 35.69798,
    "longitude": 139.95117,
    "category": "City",
    "subcategory": "City",
    "featured": false,
    "priority": 50
  },
  {
    "geonameId": 1864782,
    "name": "Basara Yama",
    "latitude": 34.73767,
    "longitude": 138.85914,
    "category": "Mountain",
    "subcategory": "Mountain",
    "featured": false,
    "priority": 50
  },
  {
    "geonameId": 8528746,
    "name": "Basen Kyō",
    "latitude": 40.25241,
    "longitude": 141.29079,
    "category": "Mountain",
    "subcategory": "Canyon",
    "featured": false,
    "priority": 50
  },
  {
    "geonameId": 11241435,
    "name": "Batei Zan",
    "latitude": 32.76257,
    "longitude": 130.97242,
    "category": "Mountain",
    "subcategory": "Mountain",
    "featured": false,
    "priority": 50
  },
  {
    "geonameId": 1852703,
    "name": "Bei Xiaodao",
    "latitude": 25.73063,
    "longitude": 123.54195,
    "category": "Island",
    "subcategory": "Island",
    "featured": false,
    "priority": 50
  },
  {
    "geonameId": 1857166,
    "name": "Bei Yu",
    "latitude": 25.78088,
    "longitude": 123.54401,
    "category": "Island",
    "subcategory": "Island",
    "featured": false,
    "priority": 50
  },
  {
    "geonameId": 2130564,
    "name": "Bekkari-dake",
    "latitude": 43.46667,
    "longitude": 141.55,
    "category": "Mountain",
    "subcategory": "Mountain",
    "featured": false,
    "priority": 50
  },
  {
    "geonameId": 1864775,
    "name": "Benkei Jima",
    "latitude": 31.77306,
    "longitude": 129.83233,
    "category": "Island",
    "subcategory": "Island",
    "featured": false,
    "priority": 50
  },
  {
    "geonameId": 2113029,
    "name": "Benkei Yama",
    "latitude": 38.92159,
    "longitude": 140.12388,
    "category": "Mountain",
    "subcategory": "Mountain",
    "featured": false,
    "priority": 50
  },
  {
    "geonameId": 9291955,
    "name": "Benten Dake",
    "latitude": 34.22047,
    "longitude": 135.57217,
    "category": "Mountain",
    "subcategory": "Mountain",
    "featured": false,
    "priority": 50
  },
  {
    "geonameId": 1864758,
    "name": "Benten Jima",
    "latitude": 31.70229,
    "longitude": 130.71815,
    "category": "Island",
    "subcategory": "Island",
    "featured": false,
    "priority": 50
  },
  {
    "geonameId": 2130545,
    "name": "Benten Numa",
    "latitude": 42.64586,
    "longitude": 141.76382,
    "category": "Lake",
    "subcategory": "Lake",
    "featured": false,
    "priority": 50
  },
  {
    "geonameId": 6417756,
    "name": "Benten Shima",
    "latitude": 34.46584,
    "longitude": 134.22976,
    "category": "Island",
    "subcategory": "Island",
    "featured": false,
    "priority": 50
  },
  {
    "geonameId": 1864767,
    "name": "Benten-jima",
    "latitude": 33.48549,
    "longitude": 135.79587,
    "category": "Island",
    "subcategory": "Island",
    "featured": false,
    "priority": 50
  },
  {
    "geonameId": 1864756,
    "name": "Benten-shima",
    "latitude": 33.15,
    "longitude": 129.71667,
    "category": "Island",
    "subcategory": "Island",
    "featured": false,
    "priority": 50
  },
  {
    "geonameId": 6415134,
    "name": "Benzai-shima",
    "latitude": 34.06556,
    "longitude": 136.50056,
    "category": "Island",
    "subcategory": "Island",
    "featured": false,
    "priority": 50
  },
  {
    "geonameId": 11264950,
    "name": "Benzaiten",
    "latitude": 32.40686,
    "longitude": 130.27636,
    "category": "Island",
    "subcategory": "Island",
    "featured": false,
    "priority": 50
  },
  {
    "geonameId": 12070454,
    "name": "Benzaiten Island (historical)",
    "latitude": 34.47033,
    "longitude": 134.31227,
    "category": "Island",
    "subcategory": "Island",
    "featured": false,
    "priority": 50
  },
  {
    "geonameId": 11246055,
    "name": "Benzaiten Jima",
    "latitude": 32.28095,
    "longitude": 130.03212,
    "category": "Island",
    "subcategory": "Island",
    "featured": false,
    "priority": 50
  },
  {
    "geonameId": 1864733,
    "name": "Benzaiten Yama",
    "latitude": 31.78333,
    "longitude": 130.23333,
    "category": "Mountain",
    "subcategory": "Mountain",
    "featured": false,
    "priority": 50
  },
  {
    "geonameId": 1899155,
    "name": "Benzaiten-yama",
    "latitude": 31.8,
    "longitude": 130.25,
    "category": "Mountain",
    "subcategory": "Mountain",
    "featured": false,
    "priority": 50
  },
  {
    "geonameId": 11473999,
    "name": "Beppo Kōen",
    "latitude": 42.99418,
    "longitude": 144.45901,
    "category": "Park",
    "subcategory": "Park",
    "featured": false,
    "priority": 50
  },
  {
    "geonameId": 1864750,
    "name": "Beppu",
    "latitude": 33.27945,
    "longitude": 131.49751,
    "category": "City",
    "subcategory": "County Seat",
    "featured": false,
    "priority": 50
  },
  {
    "geonameId": 1864736,
    "name": "Bessho Dake",
    "latitude": 37.19033,
    "longitude": 136.85118,
    "category": "Mountain",
    "subcategory": "Mountain",
    "featured": false,
    "priority": 50
  },
  {
    "geonameId": 1864735,
    "name": "Betsu-zan",
    "latitude": 36.10543,
    "longitude": 136.76579,
    "category": "Mountain",
    "subcategory": "Mountain",
    "featured": false,
    "priority": 50
  },
  {
    "geonameId": 2130534,
    "name": "Bibai",
    "latitude": 43.32472,
    "longitude": 141.85861,
    "category": "City",
    "subcategory": "County Seat",
    "featured": false,
    "priority": 50
  },
  {
    "geonameId": 2130532,
    "name": "Bibai-yama",
    "latitude": 43.4,
    "longitude": 142.05,
    "category": "Mountain",
    "subcategory": "Mountain",
    "featured": false,
    "priority": 50
  },
  {
    "geonameId": 2130531,
    "name": "Biei",
    "latitude": 43.58444,
    "longitude": 142.45972,
    "category": "City",
    "subcategory": "City",
    "featured": false,
    "priority": 50
  },
  {
    "geonameId": 2130530,
    "name": "Biei-dake",
    "latitude": 43.43333,
    "longitude": 142.71667,
    "category": "Mountain",
    "subcategory": "Mountain",
    "featured": false,
    "priority": 50
  },
  {
    "geonameId": 11823730,
    "name": "Bifuka Island",
    "latitude": 44.55922,
    "longitude": 142.32591,
    "category": "Park",
    "subcategory": "Park",
    "featured": false,
    "priority": 50
  },
  {
    "geonameId": 11823713,
    "name": "Bifuka Tōge",
    "latitude": 44.53153,
    "longitude": 142.64593,
    "category": "Mountain",
    "subcategory": "Mountain Pass",
    "featured": false,
    "priority": 50
  },
  {
    "geonameId": 11618230,
    "name": "Bihoro Onsui Tameike",
    "latitude": 43.78508,
    "longitude": 144.16363,
    "category": "Lake",
    "subcategory": "Reservoir",
    "featured": false,
    "priority": 50
  },
  {
    "geonameId": 2130525,
    "name": "Bihoro Tōge",
    "latitude": 43.6487,
    "longitude": 144.24815,
    "category": "Mountain",
    "subcategory": "Mountain Pass",
    "featured": false,
    "priority": 50
  },
  {
    "geonameId": 1864727,
    "name": "Bin-shima",
    "latitude": 32.95168,
    "longitude": 129.59134,
    "category": "Island",
    "subcategory": "Island",
    "featured": false,
    "priority": 50
  },
  {
    "geonameId": 11864435,
    "name": "Binbō Yama",
    "latitude": 41.96752,
    "longitude": 140.73162,
    "category": "Mountain",
    "subcategory": "Mountain",
    "featured": false,
    "priority": 50
  },
  {
    "geonameId": 1864730,
    "name": "Bindare Jima",
    "latitude": 31.42791,
    "longitude": 131.21655,
    "category": "Island",
    "subcategory": "Island Group",
    "featured": false,
    "priority": 50
  },
  {
    "geonameId": 2128500,
    "name": "Binneshiri Dake",
    "latitude": 44.88813,
    "longitude": 142.24001,
    "category": "Mountain",
    "subcategory": "Mountain",
    "featured": false,
    "priority": 50
  },
  {
    "geonameId": 11247644,
    "name": "Binnomizu Yama",
    "latitude": 32.39618,
    "longitude": 130.04407,
    "category": "Mountain",
    "subcategory": "Mountain",
    "featured": false,
    "priority": 50
  },
  {
    "geonameId": 6415164,
    "name": "Binshi Yama",
    "latitude": 34.09583,
    "longitude": 136.18389,
    "category": "Mountain",
    "subcategory": "Mountain",
    "featured": false,
    "priority": 50
  },
  {
    "geonameId": 1862482,
    "name": "Bira Shima",
    "latitude": 26.51611,
    "longitude": 128.05833,
    "category": "Island",
    "subcategory": "Island",
    "featured": false,
    "priority": 50
  },
  {
    "geonameId": 2130519,
    "name": "Birao Zan",
    "latitude": 43.50068,
    "longitude": 144.40404,
    "category": "Mountain",
    "subcategory": "Mountain",
    "featured": false,
    "priority": 50
  },
  {
    "geonameId": 2130518,
    "name": "Biratori",
    "latitude": 42.58333,
    "longitude": 142.13333,
    "category": "City",
    "subcategory": "City",
    "featured": false,
    "priority": 50
  },
  {
    "geonameId": 11615813,
    "name": "Biribetsu Taki",
    "latitude": 43.53064,
    "longitude": 143.31995,
    "category": "Waterfall",
    "subcategory": "Waterfall",
    "featured": false,
    "priority": 50
  },
  {
    "geonameId": 1864722,
    "name": "Birō Jima",
    "latitude": 32.7458,
    "longitude": 132.60189,
    "category": "Island",
    "subcategory": "Island",
    "featured": false,
    "priority": 50
  },
  {
    "geonameId": 1857026,
    "name": "Birō Tō",
    "latitude": 32.58794,
    "longitude": 128.66017,
    "category": "Island",
    "subcategory": "Island",
    "featured": false,
    "priority": 50
  },
  {
    "geonameId": 1864723,
    "name": "Birō-jima",
    "latitude": 32.46489,
    "longitude": 131.73084,
    "category": "Island",
    "subcategory": "Island",
    "featured": false,
    "priority": 50
  },
  {
    "geonameId": 1895893,
    "name": "Birō-tō",
    "latitude": 32.58333,
    "longitude": 128.66667,
    "category": "Island",
    "subcategory": "Island",
    "featured": false,
    "priority": 50
  },
  {
    "geonameId": 11762767,
    "name": "Biruwa Yama",
    "latitude": 43.54259,
    "longitude": 144.44537,
    "category": "Mountain",
    "subcategory": "Mountain",
    "featured": false,
    "priority": 50
  },
  {
    "geonameId": 1857027,
    "name": "Biryō Jima",
    "latitude": 33.16954,
    "longitude": 128.90103,
    "category": "Island",
    "subcategory": "Island",
    "featured": false,
    "priority": 50
  },
  {
    "geonameId": 1896133,
    "name": "Biryō-jima",
    "latitude": 33.16667,
    "longitude": 128.90833,
    "category": "Island",
    "subcategory": "Island",
    "featured": false,
    "priority": 50
  },
  {
    "geonameId": 1864714,
    "name": "Bishago Dake",
    "latitude": 31.54615,
    "longitude": 130.78747,
    "category": "Mountain",
    "subcategory": "Mountain",
    "featured": false,
    "priority": 50
  },