[
  {
    "geonameId": 201330,
    "name": "Aberdare National Park",
    "latitude": -0.51454,
    "longitude": 36.70824,
    "category": "Park",
    "subcategory": "Park",
    "featured": false,
    "priority": 50
  },
  {
    "geonameId": 201229,
    "name": "Ahero",
    "latitude": -0.17359,
    "longitude": 34.9189,
    "category": "City",
    "subcategory": "City",
    "featured": false,
    "priority": 50
  },
  {
    "geonameId": 11228401,
    "name": "Akalae Pass",
    "latitude": 2.10757,
    "longitude": 35.6913,
    "category": "Mountain",
    "subcategory": "Mountain Pass",
    "featured": false,
    "priority": 50
  },
  {
    "geonameId": 11670824,
    "name": "Aldera",
    "latitude": 1.7089,
    "longitude": 37.27436,
    "category": "Mountain",
    "subcategory": "Mountain",
    "featured": false,
    "priority": 50
  },
  {
    "geonameId": 13442322,
    "name": "Alia",
    "latitude": -3.593,
    "longitude": 38.28162,
    "category": "Mountain",
    "subcategory": "Mountain",
    "featured": false,
    "priority": 50
  },
  {
    "geonameId": 201080,
    "name": "Alkakor Pass",
    "latitude": 3.2,
    "longitude": 34.95,
    "category": "Mountain",
    "subcategory": "Mountain Pass",
    "featured": false,
    "priority": 50
  },
  {
    "geonameId": 201079,
    "name": "Allen‘s Waterfall",
    "latitude": -0.14468,
    "longitude": 37.9744,
    "category": "Waterfall",
    "subcategory": "Waterfall",
    "featured": false,
    "priority": 50
  },
  {
    "geonameId": 11227930,
    "name": "Alokiderr Pass",
    "latitude": 2.13471,
    "longitude": 35.91875,
    "category": "Mountain",
    "subcategory": "Mountain Pass",
    "featured": false,
    "priority": 50
  },
  {
    "geonameId": 11227872,
    "name": "Alumong Pass",
    "latitude": 2.27778,
    "longitude": 35.85117,
    "category": "Mountain",
    "subcategory": "Mountain Pass",
    "featured": false,
    "priority": 50
  },
  {
    "geonameId": 10227171,
    "name": "Amboseli National Park",
    "latitude": -2.65306,
    "longitude": 37.26036,
    "category": "Park",
    "subcategory": "Park",
    "featured": false,
    "priority": 50
  },
  {
    "geonameId": 11227931,
    "name": "Anasyonon Pass",
    "latitude": 2.14132,
    "longitude": 35.90621,
    "category": "Mountain",
    "subcategory": "Mountain Pass",
    "featured": false,
    "priority": 50
  },
  {
    "geonameId": 201005,
    "name": "Andingo",
    "latitude": -0.36546,
    "longitude": 34.8461,
    "category": "Mountain",
    "subcategory": "Mountain",
    "featured": false,
    "priority": 50
  },
  {
    "geonameId": 11227943,
    "name": "Angatoosa Pass",
    "latitude": 2.15151,
    "longitude": 35.88484,
    "category": "Mountain",
    "subcategory": "Mountain Pass",
    "featured": false,
    "priority": 50
  },
  {
    "geonameId": 200955,
    "name": "Ankishi",
    "latitude": -2.0104,
    "longitude": 40.8828,
    "category": "Island",
    "subcategory": "Island",
    "featured": false,
    "priority": 50
  },
  {
    "geonameId": 11228411,
    "name": "Apakangitol Pass",
    "latitude": 2.06337,
    "longitude": 35.77098,
    "category": "Mountain",
    "subcategory": "Mountain Pass",
    "featured": false,
    "priority": 50
  },
  {
    "geonameId": 200879,
    "name": "Arkut Pass",
    "latitude": 1.66682,
    "longitude": 35.22229,
    "category": "Mountain",
    "subcategory": "Mountain Pass",
    "featured": false,
    "priority": 50
  },
  {
    "geonameId": 200854,
    "name": "Arthurs Seat",
    "latitude": -0.15,
    "longitude": 37.3,
    "category": "Mountain",
    "subcategory": "Peak",
    "featured": false,
    "priority": 50
  },
  {
    "geonameId": 200849,
    "name": "Aruba Dam",
    "latitude": -3.35364,
    "longitude": 38.82323,
    "category": "Lake",
    "subcategory": "Reservoir",
    "featured": false,
    "priority": 50
  },
  {
    "geonameId": 11817204,
    "name": "Aryan",
    "latitude": 1.82393,
    "longitude": 35.23356,
    "category": "Mountain",
    "subcategory": "Mountain",
    "featured": false,
    "priority": 50
  },
  {
    "geonameId": 200817,
    "name": "Aspen",
    "latitude": -2.47134,
    "longitude": 37.00744,
    "category": "Mountain",
    "subcategory": "Mountain",
    "featured": false,
    "priority": 50
  },
  {
    "geonameId": 200787,
    "name": "Athi River",
    "latitude": -1.4563,
    "longitude": 36.97826,
    "category": "City",
    "subcategory": "City",
    "featured": false,
    "priority": 50
  },
  {
    "geonameId": 200758,
    "name": "Awasi",
    "latitude": -0.16769,
    "longitude": 35.08239,
    "category": "City",
    "subcategory": "City",
    "featured": false,
    "priority": 50
  },
  {
    "geonameId": 200755,
    "name": "Awendo",
    "latitude": -0.90711,
    "longitude": 34.52895,
    "category": "City",
    "subcategory": "City",
    "featured": false,
    "priority": 50
  },
  {
    "geonameId": 200703,
    "name": "Baio",
    "latitude": 1.76615,
    "longitude": 37.54161,
    "category": "Mountain",
    "subcategory": "Mountain",
    "featured": false,
    "priority": 50
  },
  {
    "geonameId": 200652,
    "name": "Banana Ridge",
    "latitude": 0.44373,
    "longitude": 37.85536,
    "category": "Mountain",
    "subcategory": "Mountain",
    "featured": false,
    "priority": 50
  },
  {
    "geonameId": 10230091,
    "name": "Banissa",
    "latitude": 3.94102,
    "longitude": 40.34248,
    "category": "City",
    "subcategory": "City",
    "featured": false,
    "priority": 50
  },
  {
    "geonameId": 200575,
    "name": "Baringo",
    "latitude": 0.46667,
    "longitude": 35.96667,
    "category": "City",
    "subcategory": "City",
    "featured": false,
    "priority": 50
  },
  {
    "geonameId": 200519,
    "name": "Batian",
    "latitude": -0.15074,
    "longitude": 37.30797,
    "category": "Mountain",
    "subcategory": "Peak",
    "featured": false,
    "priority": 50
  },
  {
    "geonameId": 200496,
    "name": "Bele Bele",
    "latitude": -2.17194,
    "longitude": 40.82917,
    "category": "Lake",
    "subcategory": "Lake",
    "featured": false,
    "priority": 50
  },
  {
    "geonameId": 200445,
    "name": "Bihiri Island",
    "latitude": -0.73393,
    "longitude": 34.03284,
    "category": "Island",
    "subcategory": "Island",
    "featured": false,
    "priority": 50
  },
  {
    "geonameId": 200434,
    "name": "Biliakara",
    "latitude": 0.65861,
    "longitude": 38.09429,
    "category": "Mountain",
    "subcategory": "Mountain",
    "featured": false,
    "priority": 50
  },
  {
    "geonameId": 200430,
    "name": "Bilikidera",
    "latitude": 0.64283,
    "longitude": 38.14244,
    "category": "Mountain",
    "subcategory": "Mountain",
    "featured": false,
    "priority": 50
  },
  {
    "geonameId": 200425,
    "name": "Bird Rock",
    "latitude": -1.98636,
    "longitude": 36.25188,
    "category": "Island",
    "subcategory": "Island",
    "featured": false,
    "priority": 50
  },
  {
    "geonameId": 200424,
    "name": "Bird Rock Lagoon",
    "latitude": -1.98333,
    "longitude": 36.25,
    "category": "Lake",
    "subcategory": "Lake",
    "featured": false,
    "priority": 50
  },
  {
    "geonameId": 200376,
    "name": "Bodich",
    "latitude": 0.70565,
    "longitude": 37.77743,
    "category": "Mountain",
    "subcategory": "Mountain",
    "featured": false,
    "priority": 50
  },
  {
    "geonameId": 200346,
    "name": "Boji",
    "latitude": 0.74475,
    "longitude": 37.99359,
    "category": "Mountain",
    "subcategory": "Mountain",
    "featured": false,
    "priority": 50
  },
  {
    "geonameId": 200327,
    "name": "Bollo",
    "latitude": 4.006,
    "longitude": 36.95629,
    "category": "Mountain",
    "subcategory": "Mountain",
    "featured": false,
    "priority": 50
  },
  {
    "geonameId": 200308,
    "name": "Bomet",
    "latitude": -0.78129,
    "longitude": 35.34156,
    "category": "City",
    "subcategory": "Regional Capital",
    "featured": false,
    "priority": 50
  },
  {
    "geonameId": 200304,
    "name": "Bondo",
    "latitude": 0.23522,
    "longitude": 34.28086,
    "category": "City",
    "subcategory": "City",
    "featured": false,
    "priority": 50
  },
  {
    "geonameId": 11981346,
    "name": "Boomerang",
    "latitude": -1.16279,
    "longitude": 35.28915,
    "category": "Mountain",
    "subcategory": "Mountain",
    "featured": false,
    "priority": 50
  },
  {
    "geonameId": 200235,
    "name": "Bridge Islands",
    "latitude": -0.34229,
    "longitude": 34.1207,
    "category": "Island",
    "subcategory": "Island Group",
    "featured": false,
    "priority": 50
  },
  {
    "geonameId": 178203,
    "name": "Broderick Falls",
    "latitude": 0.59922,
    "longitude": 34.80173,
    "category": "Waterfall",
    "subcategory": "Waterfall",
    "featured": false,
    "priority": 50
  },
  {
    "geonameId": 12718645,
    "name": "Brooke",
    "latitude": -0.33408,
    "longitude": 35.32537,
    "category": "City",
    "subcategory": "City",
    "featured": false,
    "priority": 50
  },
  {
    "geonameId": 11881473,
    "name": "Bube",
    "latitude": 0.69697,
    "longitude": 38.10065,
    "category": "Mountain",
    "subcategory": "Mountain",
    "featured": false,
    "priority": 50
  },
  {
    "geonameId": 200067,
    "name": "Bungoma",
    "latitude": 0.5635,
    "longitude": 34.56055,
    "category": "City",
    "subcategory": "Regional Capital",
    "featured": false,
    "priority": 50
  },
  {
    "geonameId": 58869,
    "name": "Bur Gause",
    "latitude": 3.77299,
    "longitude": 41.75744,
    "category": "Mountain",
    "subcategory": "Mountain",
    "featured": false,
    "priority": 50
  },
  {
    "geonameId": 200049,
    "name": "Bura",
    "latitude": -1.09431,
    "longitude": 39.94185,
    "category": "City",
    "subcategory": "City",
    "featured": false,
    "priority": 50
  },
  {
    "geonameId": 12718628,
    "name": "Bura Tana",
    "latitude": -1.19326,
    "longitude": 39.84049,
    "category": "City",
    "subcategory": "City",
    "featured": false,
    "priority": 50
  },
  {
    "geonameId": 200257,
    "name": "Burole",
    "latitude": 3.5541,
    "longitude": 38.62655,
    "category": "Mountain",
    "subcategory": "Mountain",
    "featured": false,
    "priority": 50
  },
  {
    "geonameId": 200005,
    "name": "Buruji",
    "latitude": -2.23336,
    "longitude": 40.93227,
    "category": "Island",
    "subcategory": "Island",
    "featured": false,
    "priority": 50
  },
  {
    "geonameId": 199989,
    "name": "Busia",
    "latitude": 0.46005,
    "longitude": 34.11169,
    "category": "City",
    "subcategory": "Regional Capital",
    "featured": false,
    "priority": 50
  },
  {
    "geonameId": 12718632,
    "name": "Bute",
    "latitude": 3.35875,
    "longitude": 39.41968,
    "category": "City",
    "subcategory": "City",
    "featured": false,
    "priority": 50
  },
  {
    "geonameId": 199971,
    "name": "Butere",
    "latitude": 0.20694,
    "longitude": 34.49006,
    "category": "City",
    "subcategory": "City",
    "featured": false,
    "priority": 50
  },
  {
    "geonameId": 199931,
    "name": "Castle Hill",
    "latitude": -0.18333,
    "longitude": 37.3,
    "category": "Mountain",
    "subcategory": "Peak",
    "featured": false,
    "priority": 50
  },
  {
    "geonameId": 199923,
    "name": "Central Island",
    "latitude": 3.49538,
    "longitude": 36.03797,
    "category": "Island",
    "subcategory": "Island",
    "featured": false,
    "priority": 50
  },
  {
    "geonameId": 8477776,
    "name": "Central Park",
    "latitude": -1.2849,
    "longitude": 36.81494,
    "category": "Park",
    "subcategory": "Park",
    "featured": false,
    "priority": 50
  },
  {
    "geonameId": 11817222,
    "name": "Chaichai",
    "latitude": 1.70966,
    "longitude": 35.40782,
    "category": "Mountain",
    "subcategory": "Mountain",
    "featured": false,
    "priority": 50
  },
  {
    "geonameId": 12718625,
    "name": "Chaka",
    "latitude": -0.35973,
    "longitude": 37.00002,
    "category": "City",
    "subcategory": "City",
    "featured": false,
    "priority": 50
  },
  {
    "geonameId": 199895,
    "name": "Chakiakak",
    "latitude": 0.23333,
    "longitude": 34.98333,
    "category": "Mountain",
    "subcategory": "Peak",
    "featured": false,
    "priority": 50
  },
  {
    "geonameId": 199880,
    "name": "Chalbi Desert",
    "latitude": 2.91471,
    "longitude": 37.36661,
    "category": "Desert",
    "subcategory": "Desert",
    "featured": false,
    "priority": 50
  },
  {
    "geonameId": 199879,
    "name": "Chale Island",
    "latitude": -4.44467,
    "longitude": 39.53455,
    "category": "Island",
    "subcategory": "Island",
    "featured": false,
    "priority": 50
  },
  {
    "geonameId": 199870,
    "name": "Chamarung Island",
    "latitude": -0.42601,
    "longitude": 34.23268,
    "category": "Island",
    "subcategory": "Island",
    "featured": false,
    "priority": 50
  },
  {
    "geonameId": 199857,
    "name": "Chana",
    "latitude": -1.32041,
    "longitude": 37.34984,
    "category": "Mountain",
    "subcategory": "Mountain",
    "featured": false,
    "priority": 50
  },
  {
    "geonameId": 199829,
    "name": "Chania Falls",
    "latitude": -1.03333,
    "longitude": 37.06667,
    "category": "Waterfall",
    "subcategory": "Waterfall",
    "featured": false,
    "priority": 50
  },
  {
    "geonameId": 199827,
    "name": "Chanler’s Falls",
    "latitude": 0.78075,
    "longitude": 38.08211,
    "category": "Waterfall",
    "subcategory": "Waterfall",
    "featured": false,
    "priority": 50
  },
  {
    "geonameId": 11817206,
    "name": "Chapot",
    "latitude": 1.80815,
    "longitude": 35.26137,
    "category": "Mountain",
    "subcategory": "Mountain",
    "featured": false,
    "priority": 50
  },
  {
    "geonameId": 199810,
    "name": "Charakuno",
    "latitude": 3.31773,
    "longitude": 35.54403,
    "category": "Mountain",
    "subcategory": "Mountain",
    "featured": false,
    "priority": 50
  },
  {
    "geonameId": 199796,
    "name": "Chavakali",
    "latitude": 0.11768,
    "longitude": 34.73339,
    "category": "City",
    "subcategory": "City",
    "featured": false,
    "priority": 50
  },
  {
    "geonameId": 199778,
    "name": "Chebchuk",
    "latitude": 0.82893,
    "longitude": 36.20652,
    "category": "Mountain",
    "subcategory": "Mountain",
    "featured": false,
    "priority": 50
  },
  {
    "geonameId": 199538,
    "name": "Chebelel",
    "latitude": -0.26661,
    "longitude": 35.23202,
    "category": "Mountain",
    "subcategory": "Mountain",
    "featured": false,
    "priority": 50
  },
  {
    "geonameId": 11817315,
    "name": "Chebon",
    "latitude": 1.27739,
    "longitude": 35.43604,
    "category": "Mountain",
    "subcategory": "Mountain",
    "featured": false,
    "priority": 50
  },
  {
    "geonameId": 199718,
    "name": "Chebuswa",
    "latitude": -0.23013,
    "longitude": 36.57612,
    "category": "Mountain",
    "subcategory": "Mountain",
    "featured": false,
    "priority": 50
  },
  {
    "geonameId": 11871701,
    "name": "Chemoingon",
    "latitude": 0.14142,
    "longitude": 35.64242,
    "category": "Mountain",
    "subcategory": "Mountain",
    "featured": false,
    "priority": 50
  },
  {
    "geonameId": 199626,
    "name": "Chemurokoi Hill",
    "latitude": 0.96852,
    "longitude": 35.41638,
    "category": "Mountain",
    "subcategory": "Mountain",
    "featured": false,
    "priority": 50
  },
  {
    "geonameId": 199543,
    "name": "Chepkutin",
    "latitude": 0.9,
    "longitude": 35.61667,
    "category": "Lake",
    "subcategory": "Reservoir",
    "featured": false,
    "priority": 50
  },
  {
    "geonameId": 199443,
    "name": "Chesauilmet",
    "latitude": 0.28578,
    "longitude": 36.13823,
    "category": "Mountain",
    "subcategory": "Mountain",
    "featured": false,
    "priority": 50
  },
  {
    "geonameId": 199334,
    "name": "Chogoria",
    "latitude": -0.22954,
    "longitude": 37.62732,
    "category": "City",
    "subcategory": "City",
    "featured": false,
    "priority": 50
  },
  {
    "geonameId": 11267998,
    "name": "Chola Island",
    "latitude": -1.89355,
    "longitude": 41.37729,
    "category": "Island",
    "subcategory": "Island",
    "featured": false,
    "priority": 50
  },
  {
    "geonameId": 199319,
    "name": "Chomong Falls",
    "latitude": -0.43182,
    "longitude": 35.33292,
    "category": "Waterfall",
    "subcategory": "Waterfall",
    "featured": false,
    "priority": 50
  },
  {
    "geonameId": 199305,
    "name": "Choro",
    "latitude": 0.51448,
    "longitude": 38.08033,
    "category": "Mountain",
    "subcategory": "Mountain",
    "featured": false,
    "priority": 50
  },
  {
    "geonameId": 11817215,
    "name": "Choto",
    "latitude": 1.83067,
    "longitude": 35.34282,
    "category": "Mountain",
    "subcategory": "Mountain",
    "featured": false,
    "priority": 50
  },
  {
    "geonameId": 199295,
    "name": "Christmas Falls",
    "latitude": -0.45704,
    "longitude": 35.40825,
    "category": "Waterfall",
    "subcategory": "Waterfall",
    "featured": false,
    "priority": 50
  },
  {
    "geonameId": 199284,
    "name": "Chuka",
    "latitude": -0.33316,
    "longitude": 37.64587,
    "category": "City",
    "subcategory": "County Seat",
    "featured": false,
    "priority": 50
  },
  {
    "geonameId": 199282,
    "name": "Chukia",
    "latitude": -3.50005,
    "longitude": 38.60101,
    "category": "Mountain",
    "subcategory": "Mountain",
    "featured": false,
    "priority": 50
  },
  {
    "geonameId": 199263,
    "name": "Chwele",
    "latitude": 0.76239,
    "longitude": 34.54852,
    "category": "City",
    "subcategory": "City",
    "featured": false,
    "priority": 50
  },
  {
    "geonameId": 11871308,
    "name": "Chwele Dam",
    "latitude": 0.74986,
    "longitude": 34.5723,
    "category": "Lake",
    "subcategory": "Reservoir",
    "featured": false,
    "priority": 50
  },
  {
    "geonameId": 199256,
    "name": "Chyulu",
    "latitude": -2.3556,
    "longitude": 37.83161,
    "category": "Lake",
    "subcategory": "Reservoir",
    "featured": false,
    "priority": 50
  },
  {
    "geonameId": 8477772,
    "name": "City Park",
    "latitude": -1.26345,
    "longitude": 36.83055,
    "category": "Park",
    "subcategory": "Park",
    "featured": false,
    "priority": 50
  },
  {
    "geonameId": 199244,
    "name": "Coryndon Falls",
    "latitude": -0.48209,
    "longitude": 35.3595,
    "category": "Waterfall",
    "subcategory": "Waterfall",
    "featured": false,
    "priority": 50
  },
  {
    "geonameId": 199242,
    "name": "Coryndon Peak",
    "latitude": -0.16667,
    "longitude": 37.33333,
    "category": "Mountain",
    "subcategory": "Peak",
    "featured": false,
    "priority": 50
  },
  {
    "geonameId": 199235,
    "name": "Crescent Island",
    "latitude": -0.76689,
    "longitude": 36.39972,
    "category": "Island",
    "subcategory": "Island",
    "featured": false,
    "priority": 50
  },
  {
    "geonameId": 199231,
    "name": "Curling Pond",
    "latitude": -0.15,
    "longitude": 37.31667,
    "category": "Lake",
    "subcategory": "Lake",
    "featured": false,
    "priority": 50
  },
  {
    "geonameId": 199209,
    "name": "Dadaab",
    "latitude": 0.05244,
    "longitude": 40.30855,
    "category": "City",
    "subcategory": "City",
    "featured": false,
    "priority": 50
  },
  {
    "geonameId": 199048,
    "name": "Delamere Peak",
    "latitude": -0.16667,
    "longitude": 37.33333,
    "category": "Mountain",
    "subcategory": "Peak",
    "featured": false,
    "priority": 50
  },
  {
    "geonameId": 200245,
    "name": "Dhahabu Islands",
    "latitude": -2.03977,
    "longitude": 41.24433,
    "category": "Island",
    "subcategory": "Island Group",
    "featured": false,
    "priority": 50
  },
  {
    "geonameId": 198988,
    "name": "Dida Galgalla",
    "latitude": 3.07535,
    "longitude": 38.12595,
    "category": "Desert",
    "subcategory": "Desert",
    "featured": false,
    "priority": 50
  },
  {
    "geonameId": 11870825,
    "name": "Dorobo",
    "latitude": -2.04019,
    "longitude": 36.93784,
    "category": "Mountain",
    "subcategory": "Mountain",
    "featured": false,
    "priority": 50
  },
  {
    "geonameId": 11881486,
    "name": "Drig",
    "latitude": 0.57959,
    "longitude": 37.52676,
    "category": "Mountain",
    "subcategory": "Mountain",
    "featured": false,
    "priority": 50
  },
  {
    "geonameId": 198851,
    "name": "Dudubata",
    "latitude": 0.65809,
    "longitude": 37.81421,
    "category": "Mountain",
    "subcategory": "Mountain",
    "featured": false,
    "priority": 50
  },
  {
    "geonameId": 198817,
    "name": "Dundori",
    "latitude": -0.2519,
    "longitude": 36.23641,
    "category": "City",
    "subcategory": "City",
    "featured": false,
    "priority": 50
  },
  {
    "geonameId": 198681,
    "name": "Ekinyang",
    "latitude": 2.69806,
    "longitude": 36.58722,
    "category": "Island",
    "subcategory": "Island",
    "featured": false,
    "priority": 50
  },
  {
    "geonameId": 198669,
    "name": "Ekulu",
    "latitude": -1.5449,
    "longitude": 38.18601,
    "category": "Mountain",
    "subcategory": "Mountain",
    "featured": false,
    "priority": 50
  },
  {
    "geonameId": 198547,
    "name": "El Wak",
    "latitude": 2.80922,
    "longitude": 40.92885,
    "category": "City",
    "subcategory": "City",
    "featured": false,
    "priority": 50
  },
  {
    "geonameId": 198644,
    "name": "Elburgon",
    "latitude": -0.30037,
    "longitude": 35.80935,
    "category": "City",
    "subcategory": "City",
    "featured": false,
    "priority": 50
  },
  {
    "geonameId": 198640,
    "name": "Eldalat",
    "latitude": -0.05741,
    "longitude": 35.83017,
    "category": "Mountain",
    "subcategory": "Mountain",
    "featured": false,
    "priority": 50
  },
  {
    "geonameId": 198636,
    "name": "Eldama Ravine",
    "latitude": 0.05196,
    "longitude": 35.72734,
    "category": "City",
    "subcategory": "City",
    "featured": false,
    "priority": 50
  },
  {
    "geonameId": 12718631,
    "name": "Eldas",
    "latitude": 2.49184,
    "longitude": 39.56653,
    "category": "City",
    "subcategory": "City",
    "featured": false,
    "priority": 50
  },
  {
    "geonameId": 198629,
    "name": "Eldoret",
    "latitude": 0.52036,
    "longitude": 35.26993,
    "category": "City",
    "subcategory": "Regional Capital",
    "featured": false,
    "priority": 50
  },
  {
    "geonameId": 11881498,
    "name": "Elebug",
    "latitude": 0.21427,
    "longitude": 37.6633,
    "category": "Mountain",
    "subcategory": "Mountain",
    "featured": false,
    "priority": 50
  },
  {
    "geonameId": 198614,
    "name": "Elephant Island",
    "latitude": -2.61898,
    "longitude": 40.30198,
    "category": "Island",
    "subcategory": "Island",
    "featured": false,
    "priority": 50
  },
  {
    "geonameId": 198537,
    "name": "Emali",
    "latitude": -2.08033,
    "longitude": 37.47202,
    "category": "City",
    "subcategory": "City",
    "featured": false,
    "priority": 50
  },
  {
    "geonameId": 198476,
    "name": "Embu",
    "latitude": -0.53987,
    "longitude": 37.45743,
    "category": "City",
    "subcategory": "Regional Capital",
    "featured": false,
    "priority": 50
  },
  {
    "geonameId": 198462,
    "name": "Emerald Tarn",
    "latitude": -0.15,
    "longitude": 37.3,
    "category": "Lake",
    "subcategory": "Lake",
    "featured": false,
    "priority": 50
  },
  {
    "geonameId": 183638,
    "name": "Emerua-Kiring West",
    "latitude": 1.5048,
    "longitude": 36.3571,
    "category": "Mountain",
    "subcategory": "Mountain",
    "featured": false,
    "priority": 50
  },
  {
    "geonameId": 198377,
    "name": "Enchanted Lake",
    "latitude": -1.16667,
    "longitude": 37.33333,
    "category": "Lake",
    "subcategory": "Lake",
    "featured": false,
    "priority": 50
  },
  {
    "geonameId": 184377,
    "name": "Endoinyo Narok",
    "latitude": -1.77321,
    "longitude": 36.74489,
    "category": "Mountain",
    "subcategory": "Mountain",
    "featured": false,
    "priority": 50
  },
  {
    "geonameId": 198316,
    "name": "Engamba",
    "latitude": -1.09663,
    "longitude": 38.67516,
    "category": "Mountain",
    "subcategory": "Mountain",
    "featured": false,
    "priority": 50
  },
  {
    "geonameId": 12718624,
    "name": "Engineer",
    "latitude": -0.60538,
    "longitude": 36.57629,
    "category": "City",
    "subcategory": "City",
    "featured": false,
    "priority": 50
  },
  {
    "geonameId": 198292,
    "name": "Enguani",
    "latitude": -1.7,
    "longitude": 37.51667,
    "category": "Mountain",
    "subcategory": "Mountain",
    "featured": false,
    "priority": 50
  },
  {
    "geonameId": 198246,
    "name": "Enkunoni Pass",
    "latitude": -2.14426,
    "longitude": 36.78635,
    "category": "Mountain",
    "subcategory": "Mountain Pass",
    "featured": false,
    "priority": 50
  },
  {
    "geonameId": 198221,
    "name": "Enwoiti",
    "latitude": 2.63627,
    "longitude": 36.62165,
    "category": "Island",
    "subcategory": "Island",
    "featured": false,
    "priority": 50
  },
  {
    "geonameId": 11886597,
    "name": "Epiya Chapeyu",
    "latitude": -3.04207,
    "longitude": 38.78668,
    "category": "Mountain",
    "subcategory": "Mountain",
    "featured": false,
    "priority": 50
  },
  {
    "geonameId": 198199,
    "name": "Eregero",
    "latitude": -1.15936,
    "longitude": 35.40246,
    "category": "Mountain",
    "subcategory": "Mountain",
    "featured": false,
    "priority": 50
  },
  {
    "geonameId": 11844234,
    "name": "Erumai",
    "latitude": -1.65998,
    "longitude": 36.03151,
    "category": "Mountain",
    "subcategory": "Mountain",
    "featured": false,
    "priority": 50
  },
  {
    "geonameId": 198724,
    "name": "Evwa",
    "latitude": -1.84515,
    "longitude": 38.40744,
    "category": "Mountain",
    "subcategory": "Mountain",
    "featured": false,
    "priority": 50
  },
  {
    "geonameId": 11886501,
    "name": "Fetha Hill",
    "latitude": -3.01863,
    "longitude": 38.08302,
    "category": "Mountain",
    "subcategory": "Mountain",
    "featured": false,
    "priority": 50
  },
  {
    "geonameId": 192669,
    "name": "Feys Peak",
    "latitude": -0.65471,
    "longitude": 36.67514,
    "category": "Mountain",
    "subcategory": "Peak",
    "featured": false,
    "priority": 50
  },
  {
    "geonameId": 198042,
    "name": "Fish Springs Lagoon",
    "latitude": -1.86667,
    "longitude": 36.3,
    "category": "Lake",
    "subcategory": "Lake",
    "featured": false,
    "priority": 50
  },
  {
    "geonameId": 198039,
    "name": "Foaker Falls",
    "latitude": 0.64979,
    "longitude": 34.86765,
    "category": "Waterfall",
    "subcategory": "Waterfall",
    "featured": false,
    "priority": 50
  },
  {
    "geonameId": 198027,
    "name": "Fourteen Falls",
    "latitude": -1.07737,
    "longitude": 37.25317,
    "category": "Waterfall",
    "subcategory": "Waterfall",
    "featured": false,
    "priority": 50
  },
  {
    "geonameId": 198012,
    "name": "Fundisa Kijandoni Island",
    "latitude": -2.96552,
    "longitude": 40.1739,
    "category": "Island",
    "subcategory": "Island",
    "featured": false,
    "priority": 50
  },
  {
    "geonameId": 197999,
    "name": "Funzi Island",
    "latitude": -4.56508,
    "longitude": 39.44776,
    "category": "Island",
    "subcategory": "Island",
    "featured": false,
    "priority": 50
  },
  {
    "geonameId": 197993,
    "name": "Fusilier Kopje",
    "latitude": -3.23693,
    "longitude": 38.12333,
    "category": "Mountain",
    "subcategory": "Mountain",
    "featured": false,
    "priority": 50
  },
  {
    "geonameId": 197919,
    "name": "Gai",
    "latitude": -0.61667,
    "longitude": 38.18333,
    "category": "Lake",
    "subcategory": "Reservoir",
    "featured": false,
    "priority": 50
  },
  {
    "geonameId": 197839,
    "name": "Gallery Tarn",
    "latitude": -0.16667,
    "longitude": 37.31667,
    "category": "Lake",
    "subcategory": "Lake",
    "featured": false,
    "priority": 50
  },
  {
    "geonameId": 197935,
    "name": "Gar Gadamsa",
    "latitude": 2.29494,
    "longitude": 37.93446,
    "category": "Mountain",
    "subcategory": "Mountain",
    "featured": false,
    "priority": 50
  },
  {
    "geonameId": 11885238,
    "name": "Garba Buti",
    "latitude": 4.31601,
    "longitude": 37.06212,
    "category": "Mountain",
    "subcategory": "Mountain",
    "featured": false,
    "priority": 50
  },
  {
    "geonameId": 197768,
    "name": "Garba Tula",
    "latitude": 0.53392,
    "longitude": 38.51878,
    "category": "City",
    "subcategory": "City",
    "featured": false,
    "priority": 50
  },
  {
    "geonameId": 197748,
    "name": "Garisa",
    "latitude": 0.6471,
    "longitude": 38.20052,
    "category": "Mountain",
    "subcategory": "Mountain",
    "featured": false,
    "priority": 50
  },
  {
    "geonameId": 197745,
    "name": "Garissa",
    "latitude": -0.45275,
    "longitude": 39.64601,
    "category": "City",
    "subcategory": "Regional Capital",
    "featured": false,
    "priority": 50
  },
  {
    "geonameId": 197729,
    "name": "Garsen",
    "latitude": -2.26645,
    "longitude": 40.10975,
    "category": "City",
    "subcategory": "City",
    "featured": false,
    "priority": 50
  },
  {
    "geonameId": 12510763,
    "name": "Gatamaiyo Forest Nature Reserve",
    "latitude": -0.92776,
    "longitude": 36.67897,
    "category": "Park",
    "subcategory": "Nature Reserve",
    "featured": false,
    "priority": 50
  },
  {
    "geonameId": 180783,
    "name": "Gates Of Samburu",
    "latitude": 1.79173,
    "longitude": 36.50053,
    "category": "Mountain",
    "subcategory": "Mountain Pass",
    "featured": false,
    "priority": 50
  },
  {
    "geonameId": 197580,
    "name": "Gato",
    "latitude": 1.65,
    "longitude": 35.4,
    "category": "Mountain",
    "subcategory": "Mountain",
    "featured": false,
    "priority": 50
  },
  {
    "geonameId": 197542,
    "name": "Gatou Pass",
    "latitude": 1.64454,
    "longitude": 35.38968,
    "category": "Mountain",
    "subcategory": "Mountain Pass",
    "featured": false,
    "priority": 50
  },
  {
    "geonameId": 197557,
    "name": "Gatundu",
    "latitude": -1.05,
    "longitude": 36.9,
    "category": "City",
    "subcategory": "City",
    "featured": false,
    "priority": 50
  },
  {
    "geonameId": 197514,
    "name": "Gazi",
    "latitude": -4.42402,
    "longitude": 39.50588,
    "category": "City",
    "subcategory": "City",
    "featured": false,
    "priority": 50
  },
  {
    "geonameId": 179752,
    "name": "Gebel Sul-Sul Mudde",
    "latitude": 4.36795,
    "longitude": 36.95477,
    "category": "Mountain",
    "subcategory": "Mountain",
    "featured": false,
    "priority": 50
  },
  {
    "geonameId": 197502,
    "name": "Gedi National Monument",
    "latitude": -3.30801,
    "longitude": 40.0177,
    "category": "Park",
    "subcategory": "Park",
    "featured": false,
    "priority": 50
  },
  {
    "geonameId": 197483,
    "name": "Gelai",
    "latitude": -2.08387,
    "longitude": 37.40816,
    "category": "Mountain",
    "subcategory": "Mountain",
    "featured": false,
    "priority": 50
  },
  {
    "geonameId": 11881737,
    "name": "Giaki",
    "latitude": 0.01696,
    "longitude": 37.71295,
    "category": "Mountain",
    "subcategory": "Mountain",
    "featured": false,
    "priority": 50
  },
  {
    "geonameId": 197412,
    "name": "Giant’s Billiard Table",
    "latitude": -0.12085,
    "longitude": 37.44043,
    "category": "Mountain",
    "subcategory": "Peak",
    "featured": false,
    "priority": 50
  },
  {
    "geonameId": 197334,
    "name": "Gilgil",
    "latitude": -0.50397,
    "longitude": 36.31845,
    "category": "City",
    "subcategory": "City",
    "featured": false,
    "priority": 50
  },
  {
    "geonameId": 197470,
    "name": "Gingra Island",
    "latitude": -0.34883,
    "longitude": 34.44821,
    "category": "Island",
    "subcategory": "Island",
    "featured": false,
    "priority": 50
  },
  {
    "geonameId": 197311,
    "name": "Giriftu",
    "latitude": 2.00039,
    "longitude": 39.75191,
    "category": "City",
    "subcategory": "City",
    "featured": false,
    "priority": 50
  },
  {
    "geonameId": 7890257,
    "name": "Giryama Village Island",
    "latitude": -2.87628,
    "longitude": 40.16794,
    "category": "Island",
    "subcategory": "Island",
    "featured": false,
    "priority": 50
  },
  {
    "geonameId": 197264,
    "name": "Githiga A",
    "latitude": -1.08693,
    "longitude": 36.73405,
    "category": "City",
    "subcategory": "City",
    "featured": false,
    "priority": 50
  },
  {
    "geonameId": 197226,
    "name": "Githunguri",
    "latitude": -1.05754,
    "longitude": 36.77625,
    "category": "City",
    "subcategory": "City",
    "featured": false,
    "priority": 50
  },
  {
    "geonameId": 197154,
    "name": "Goat Island",
    "latitude": -0.78333,
    "longitude": 36.4,
    "category": "Island",
    "subcategory": "Island",
    "featured": false,
    "priority": 50
  },
  {
    "geonameId": 182522,
    "name": "God Odiawo",
    "latitude": -0.37412,
    "longitude": 34.5082,
    "category": "Mountain",
    "subcategory": "Mountain",
    "featured": false,
    "priority": 50
  },
  {
    "geonameId": 197124,
    "name": "Gogo Falls",
    "latitude": -0.9,
    "longitude": 34.35,
    "category": "Waterfall",
    "subcategory": "Waterfall",
    "featured": false,
    "priority": 50
  },
  {
    "geonameId": 197123,
    "name": "Goi",
    "latitude": -3.53412,
    "longitude": 38.57286,
    "category": "Mountain",
    "subcategory": "Mountain",
    "featured": false,
    "priority": 50
  },
  {
    "geonameId": 197083,
    "name": "Gongoni",
    "latitude": -3.03668,
    "longitude": 40.13748,
    "category": "City",
    "subcategory": "City",
    "featured": false,
    "priority": 50
  },
  {
    "geonameId": 197060,
    "name": "Goriga",
    "latitude": 0.09491,
    "longitude": 37.54656,
    "category": "Mountain",
    "subcategory": "Mountain",
    "featured": false,
    "priority": 50
  },
  {
    "geonameId": 11817287,
    "name": "Gorobat",
    "latitude": 1.11383,
    "longitude": 35.05511,
    "category": "Mountain",
    "subcategory": "Mountain",
    "featured": false,
    "priority": 50
  },
  {
    "geonameId": 197026,
    "name": "Grahams Lagoon",
    "latitude": -1.96667,
    "longitude": 36.26667,
    "category": "Lake",
    "subcategory": "Lake",
    "featured": false,
    "priority": 50
  },
  {
    "geonameId": 197025,
    "name": "Grand Falls",
    "latitude": -0.26783,
    "longitude": 38.00006,
    "category": "Waterfall",
    "subcategory": "Waterfall",
    "featured": false,
    "priority": 50
  },
  {
    "geonameId": 197021,
    "name": "Green Island",
    "latitude": 0.1,
    "longitude": 33.95,
    "category": "Island",
    "subcategory": "Island",
    "featured": false,
    "priority": 50
  },
  {
    "geonameId": 197016,
    "name": "Grigg Peak",
    "latitude": -0.16667,
    "longitude": 37.31667,
    "category": "Mountain",
    "subcategory": "Peak",
    "featured": false,
    "priority": 50
  },
  {
    "geonameId": 196970,
    "name": "Gura Falls",
    "latitude": -0.51667,
    "longitude": 36.76667,
    "category": "Waterfall",
    "subcategory": "Waterfall",
    "featured": false,
    "priority": 50
  },
  {
    "geonameId": 196936,
    "name": "Habaswein",
    "latitude": 1.01659,
    "longitude": 39.49122,
    "category": "City",
    "subcategory": "City",
    "featured": false,
    "priority": 50
  },
  {
    "geonameId": 196867,
    "name": "Hanging Tarn",
    "latitude": -0.15,
    "longitude": 37.33333,
    "category": "Lake",
    "subcategory": "Lake",
    "featured": false,
    "priority": 50
  },
  {
    "geonameId": 196825,
    "name": "Harris Tarn",
    "latitude": -0.15,
    "longitude": 37.31667,
    "category": "Lake",
    "subcategory": "Lake",
    "featured": false,
    "priority": 50
  },
  {
    "geonameId": 196816,
    "name": "Hausberg Tarn",
    "latitude": -0.15,
    "longitude": 37.3,
    "category": "Lake",
    "subcategory": "Lake",
    "featured": false,
    "priority": 50
  },
  {
    "geonameId": 196804,
    "name": "Haytons Falls",
    "latitude": -1.85,
    "longitude": 36.11667,
    "category": "Waterfall",
    "subcategory": "Waterfall",
    "featured": false,
    "priority": 50
  },
  {
    "geonameId": 8051313,
    "name": "Hell's Gate National Park",
    "latitude": -0.91583,
    "longitude": 36.31333,
    "category": "Park",
    "subcategory": "Park",
    "featured": false,
    "priority": 50
  },
  {
    "geonameId": 196486,
    "name": "Hemba Island",
    "latitude": -0.56097,
    "longitude": 33.92775,
    "category": "Island",
    "subcategory": "Island",
    "featured": false,
    "priority": 50
  },
  {
    "geonameId": 196786,
    "name": "Hidden Tarn",
    "latitude": -0.18333,
    "longitude": 37.31667,
    "category": "Lake",
    "subcategory": "Lake",
    "featured": false,
    "priority": 50
  },
  {
    "geonameId": 196781,
    "name": "Highland Castle",
    "latitude": -0.13333,
    "longitude": 37.25,
    "category": "Mountain",
    "subcategory": "Peak",
    "featured": false,
    "priority": 50
  },
  {
    "geonameId": 11871905,
    "name": "Hill Cave",
    "latitude": 0.93832,
    "longitude": 34.73888,
    "category": "Mountain",
    "subcategory": "Mountain",
    "featured": false,
    "priority": 50
  },
  {
    "geonameId": 11881600,
    "name": "Hinafa Bera",
    "latitude": 0.49129,
    "longitude": 38.13943,
    "category": "Mountain",
    "subcategory": "Mountain",
    "featured": false,
    "priority": 50
  },
  {
    "geonameId": 196752,
    "name": "Hola",
    "latitude": -1.48256,
    "longitude": 40.03341,
    "category": "City",
    "subcategory": "Regional Capital",
    "featured": false,
    "priority": 50
  },
  {
    "geonameId": 11816727,
    "name": "Holilugum Nder",
    "latitude": 1.70979,
    "longitude": 37.7171,
    "category": "Mountain",
    "subcategory": "Mountain",
    "featured": false,
    "priority": 50
  },
  {
    "geonameId": 196742,
    "name": "Homa Bay",
    "latitude": -0.52731,
    "longitude": 34.45714,
    "category": "City",
    "subcategory": "Regional Capital",
    "featured": false,
    "priority": 50
  },
  {
    "geonameId": 196732,
    "name": "Hongwe Island",
    "latitude": -0.99026,
    "longitude": 34.11394,
    "category": "Island",
    "subcategory": "Island",
    "featured": false,
    "priority": 50
  },
  {
    "geonameId": 196729,
    "name": "Hook Tarn",
    "latitude": -0.1,
    "longitude": 37.33333,
    "category": "Lake",
    "subcategory": "Lake",
    "featured": false,
    "priority": 50
  },
  {
    "geonameId": 196724,
    "name": "Hothori Desert",
    "latitude": 0.99288,
    "longitude": 39.59185,
    "category": "Desert",
    "subcategory": "Desert",
    "featured": false,
    "priority": 50
  },
  {
    "geonameId": 196717,
    "name": "Huka",
    "latitude": 0.90345,
    "longitude": 38.09925,
    "category": "Mountain",
    "subcategory": "Mountain",
    "featured": false,
    "priority": 50
  },
  {
    "geonameId": 196705,
    "name": "Hut Tarn",
    "latitude": -0.15,
    "longitude": 37.3,
    "category": "Lake",
    "subcategory": "Lake",
    "featured": false,
    "priority": 50
  },
  {
    "geonameId": 196699,
    "name": "Iangini Hill",
    "latitude": -1.94093,
    "longitude": 37.5025,
    "category": "Mountain",
    "subcategory": "Mountain",
    "featured": false,
    "priority": 50
  },
  {
    "geonameId": 196694,
    "name": "Ibencho",
    "latitude": -0.86544,
    "longitude": 34.68805,
    "category": "Mountain",
    "subcategory": "Mountain",
    "featured": false,
    "priority": 50
  },
  {
    "geonameId": 196618,
    "name": "Iiuni Hill",
    "latitude": -1.68327,
    "longitude": 37.35578,
    "category": "Mountain",
    "subcategory": "Mountain",
    "featured": false,
    "priority": 50
  },
  {
    "geonameId": 196612,
    "name": "Ijara",
    "latitude": -1.59517,
    "longitude": 40.51444,
    "category": "City",
    "subcategory": "City",
    "featured": false,
    "priority": 50
  },
  {
    "geonameId": 196548,
    "name": "Ikundu",
    "latitude": -1.65142,
    "longitude": 37.6431,
    "category": "Mountain",
    "subcategory": "Mountain",
    "featured": false,
    "priority": 50
  },
  {
    "geonameId": 12718644,
    "name": "Il",
    "latitude": -2.09761,
    "longitude": 36.79224,
    "category": "City",
    "subcategory": "City",
    "featured": false,
    "priority": 50
  },
  {
    "geonameId": 196492,
    "name": "Il Doigan",
    "latitude": 0.20378,
    "longitude": 37.09481,
    "category": "Mountain",
    "subcategory": "Mountain",
    "featured": false,
    "priority": 50
  },
  {
    "geonameId": 196495,
    "name": "Ildera",
    "latitude": 2.18784,
    "longitude": 36.87271,
    "category": "Mountain",
    "subcategory": "Mountain",
    "featured": false,
    "priority": 50
  },
  {
    "geonameId": 11867817,
    "name": "Ilika",
    "latitude": -1.51018,
    "longitude": 37.73208,
    "category": "Mountain",
    "subcategory": "Mountain",
    "featured": false,
    "priority": 50
  },
  {
    "geonameId": 196469,
    "name": "Illim",
    "latitude": 1.8159,
    "longitude": 37.63894,
    "category": "Mountain",
    "subcategory": "Mountain",
    "featured": false,
    "priority": 50
  },
  {
    "geonameId": 8477754,
    "name": "Imara Daima Estate",
    "latitude": -1.32323,
    "longitude": 36.88021,
    "category": "City",
    "subcategory": "City",
    "featured": false,
    "priority": 50
  },
  {
    "geonameId": 196374,
    "name": "Imba",
    "latitude": -0.8589,
    "longitude": 38.39691,
    "category": "Mountain",
    "subcategory": "Mountain",
    "featured": false,
    "priority": 50
  },
  {
    "geonameId": 183122,
    "name": "Inturumeti",
    "latitude": -1.17996,
    "longitude": 36.08208,
    "category": "Mountain",
    "subcategory": "Peak",
    "featured": false,
    "priority": 50
  },
  {
    "geonameId": 196284,
    "name": "Irima",
    "latitude": -3.28347,
    "longitude": 38.54142,
    "category": "Mountain",
    "subcategory": "Mountain",
    "featured": false,
    "priority": 50
  },
  {
    "geonameId": 196280,
    "name": "Irizi",
    "latitude": -3.32106,
    "longitude": 38.35434,
    "category": "Mountain",
    "subcategory": "Mountain",
    "featured": false,
    "priority": 50
  },
  {
    "geonameId": 196251,
    "name": "Isebania",
    "latitude": -1.22511,
    "longitude": 34.46385,
    "category": "City",
    "subcategory": "City",
    "featured": false,
    "priority": 50
  },
  {
    "geonameId": 196234,
    "name": "Isinya",
    "latitude": -1.6792,
    "longitude": 36.85056,
    "category": "City",
    "subcategory": "City",
    "featured": false,
    "priority": 50
  },
  {
    "geonameId": 196231,
    "name": "Isiolo",
    "latitude": 0.35462,
    "longitude": 37.58218,
    "category": "City",
    "subcategory": "Regional Capital",
    "featured": false,
    "priority": 50
  },
  {
    "geonameId": 196185,
    "name": "Iten",
    "latitude": 0.67028,
    "longitude": 35.50806,
    "category": "City",
    "subcategory": "Regional Capital",
    "featured": false,
    "priority": 50
  },
  {
    "geonameId": 196162,
    "name": "Ithangune",
    "latitude": -0.08297,
    "longitude": 37.47388,
    "category": "Mountain",
    "subcategory": "Peak",
    "featured": false,
    "priority": 50
  },
  {
    "geonameId": 196107,
    "name": "Itiani",
    "latitude": 0.23447,
    "longitude": 37.87604,
    "category": "Mountain",
    "subcategory": "Mountain",
    "featured": false,
    "priority": 50
  },
  {
    "geonameId": 196059,
    "name": "Iuani",
    "latitude": -1.73333,
    "longitude": 37.53333,
    "category": "Mountain",
    "subcategory": "Mountain",
    "featured": false,
    "priority": 50
  },
  {
    "geonameId": 196003,
    "name": "Jamhuri Park",
    "latitude": -1.3,
    "longitude": 38.76667,
    "category": "Park",
    "subcategory": "Park",
    "featured": false,
    "priority": 50
  },
  {
    "geonameId": 195977,
    "name": "Jebilat",
    "latitude": -0.69356,
    "longitude": 35.07132,
    "category": "City",
    "subcategory": "City",
    "featured": false,
    "priority": 50
  },
  {
    "geonameId": 8477779,
    "name": "Jeevanjee Gardens",
    "latitude": -1.28117,
    "longitude": 36.81969,
    "category": "Park",
    "subcategory": "Park",
    "featured": false,
    "priority": 50
  },
  {
    "geonameId": 195958,
    "name": "Jibisa",
    "latitude": 4.2238,
    "longitude": 37.05907,
    "category": "Mountain",
    "subcategory": "Mountain",
    "featured": false,
    "priority": 50
  },
  {
    "geonameId": 195915,
    "name": "Jomvu",
    "latitude": -3.98623,
    "longitude": 39.6082,
    "category": "City",
    "subcategory": "City",
    "featured": false,
    "priority": 50
  },
  {
    "geonameId": 8299780,
    "name": "Juja",
    "latitude": -1.10148,
    "longitude": 37.0132,
    "category": "City",
    "subcategory": "City",
    "featured": false,
    "priority": 50
  },
  {
    "geonameId": 197146,
    "name": "Kaachechok",
    "latitude": 2.17467,
    "longitude": 35.68713,
    "category": "Mountain",
    "subcategory": "Mountain",
    "featured": false,
    "priority": 50
  },
  {
    "geonameId": 11227899,
    "name": "Kaakunoit Pass",
    "latitude": 2.21917,
    "longitude": 35.59703,
    "category": "Mountain",
    "subcategory": "Mountain Pass",
    "featured": false,
    "priority": 50
  },
  {
    "geonameId": 195385,
    "name": "Kaamorok",
    "latitude": 2.13593,
    "longitude": 35.6541,
    "category": "Mountain",
    "subcategory": "Mountain",
    "featured": false,
    "priority": 50
  },
  {
    "geonameId": 11228413,
    "name": "Kaamunono Pass",
    "latitude": 2.04501,
    "longitude": 35.79043,
    "category": "Mountain",
    "subcategory": "Mountain Pass",
    "featured": false,
    "priority": 50
  },
  {
    "geonameId": 195821,
    "name": "Kabarnet",
    "latitude": 0.49194,
    "longitude": 35.74303,
    "category": "City",
    "subcategory": "Regional Capital",
    "featured": false,
    "priority": 50
  },
  {
    "geonameId": 11817297,
    "name": "Kabichbich",
    "latitude": 1.20281,
    "longitude": 35.27835,
    "category": "Mountain",
    "subcategory": "Mountain",
    "featured": false,
    "priority": 50
  },
  {
    "geonameId": 195721,
    "name": "Kabongole Pass",
    "latitude": 2.93629,
    "longitude": 34.63993,
    "category": "Mountain",
    "subcategory": "Mountain Pass",
    "featured": false,
    "priority": 50
  },
  {
    "geonameId": 190857,
    "name": "Kabothen",
    "latitude": 3.99462,
    "longitude": 35.62284,
    "category": "Mountain",
    "subcategory": "Mountain",
    "featured": false,
    "priority": 50
  },
  {
    "geonameId": 195647,
    "name": "Kachagalau",
    "latitude": 2.31347,
    "longitude": 35.05262,
    "category": "Mountain",
    "subcategory": "Mountain",
    "featured": false,
    "priority": 50
  },
  {
    "geonameId": 11209757,
    "name": "Kachepekenya",
    "latitude": 2.92222,
    "longitude": 34.87744,
    "category": "Mountain",
    "subcategory": "Mountain",
    "featured": false,
    "priority": 50
  },
  {
    "geonameId": 195585,
    "name": "Kaduro Morto",
    "latitude": 0.86795,
    "longitude": 37.58578,
    "category": "Mountain",
    "subcategory": "Mountain",
    "featured": false,
    "priority": 50
  },
  {
    "geonameId": 195539,
    "name": "Kagio",
    "latitude": -0.62482,
    "longitude": 37.25551,
    "category": "City",
    "subcategory": "City",
    "featured": false,
    "priority": 50
  },
  {
    "geonameId": 11817361,
    "name": "Kaibarod",
    "latitude": 1.46153,
    "longitude": 35.66958,
    "category": "Mountain",
    "subcategory": "Mountain",
    "featured": false,
    "priority": 50
  },
  {
    "geonameId": 195396,
    "name": "Kailere",
    "latitude": 0.4169,
    "longitude": 37.53395,
    "category": "Mountain",
    "subcategory": "Mountain",
    "featured": false,
    "priority": 50
  },
  {
    "geonameId": 195394,
    "name": "Kailongol",
    "latitude": 1.87814,
    "longitude": 35.77486,
    "category": "Mountain",
    "subcategory": "Mountain",
    "featured": false,
    "priority": 50
  },
  {
    "geonameId": 12718646,
    "name": "Kainuk",
    "latitude": 1.77442,
    "longitude": 35.50641,
    "category": "City",
    "subcategory": "City",
    "featured": false,
    "priority": 50
  },
  {
    "geonameId": 195333,
    "name": "Kaisungur",
    "latitude": 1.05096,
    "longitude": 35.41757,
    "category": "Mountain",
    "subcategory": "Peak",
    "featured": false,
    "priority": 50
  },
  {
    "geonameId": 195330,
    "name": "Kaisut Desert",
    "latitude": 1.86811,
    "longitude": 37.71494,
    "category": "Desert",
    "subcategory": "Desert",
    "featured": false,
    "priority": 50
  },
  {
    "geonameId": 11227901,
    "name": "Kaitakol Pass",
    "latitude": 2.20776,
    "longitude": 35.64204,
    "category": "Mountain",
    "subcategory": "Mountain Pass",
    "featured": false,
    "priority": 50
  },
  {
    "geonameId": 11817270,
    "name": "Kaitcut",
    "latitude": 1.13801,
    "longitude": 34.68652,
    "category": "Mountain",
    "subcategory": "Mountain",
    "featured": false,
    "priority": 50
  },
  {
    "geonameId": 195298,
    "name": "Kajiado",
    "latitude": -1.85238,
    "longitude": 36.77683,
    "category": "City",
    "subcategory": "Regional Capital",
    "featured": false,
    "priority": 50
  },
  {
    "geonameId": 195275,
    "name": "Kakalota",
    "latitude": 0.68091,
    "longitude": 38.14211,
    "category": "Mountain",
    "subcategory": "Mountain",
    "featured": false,
    "priority": 50
  },
  {
    "geonameId": 195272,
    "name": "Kakamega",
    "latitude": 0.28422,
    "longitude": 34.75229,
    "category": "City",
    "subcategory": "Regional Capital",
    "featured": false,
    "priority": 50
  },
  {
    "geonameId": 195248,
    "name": "Kakep Pass",
    "latitude": 2.54334,
    "longitude": 35.16839,
    "category": "Mountain",
    "subcategory": "Mountain Pass",
    "featured": false,
    "priority": 50
  },
  {
    "geonameId": 195232,
    "name": "Kakindu",
    "latitude": -2.0648,
    "longitude": 38.33071,
    "category": "Mountain",
    "subcategory": "Mountain",
    "featured": false,
    "priority": 50
  },
  {
    "geonameId": 195249,
    "name": "Kakipom Pass",
    "latitude": 2.19399,
    "longitude": 35.62486,
    "category": "Mountain",
    "subcategory": "Mountain Pass",
    "featured": false,
    "priority": 50
  },
  {
    "geonameId": 195215,
    "name": "Kakore Pass",
    "latitude": 1.81643,
    "longitude": 35.73493,
    "category": "Mountain",
    "subcategory": "Mountain Pass",
    "featured": false,
    "priority": 50
  },
  {
    "geonameId": 190314,
    "name": "Kaku",
    "latitude": -2.36188,
    "longitude": 36.49992,
    "category": "Mountain",
    "subcategory": "Mountain",
    "featured": false,
    "priority": 50
  },
  {
    "geonameId": 195197,
    "name": "Kakuma",
    "latitude": 3.71363,
    "longitude": 34.8572,
    "category": "City",
    "subcategory": "City",
    "featured": false,
    "priority": 50
  },
  {
    "geonameId": 11225083,
    "name": "Kakurotom Peak",
    "latitude": 2.17467,
    "longitude": 35.68713,
    "category": "Mountain",
    "subcategory": "Peak",
    "featured": false,
    "priority": 50
  },
  {
    "geonameId": 11817357,
    "name": "Kakwa Ard",
    "latitude": 1.27078,
    "longitude": 35.51959,
    "category": "Mountain",
    "subcategory": "Mountain",
    "featured": false,
    "priority": 50
  },
  {
    "geonameId": 11885234,
    "name": "Kala Jarso",
    "latitude": 4.36548,
    "longitude": 36.91239,
    "category": "Mountain",
    "subcategory": "Mountain",
    "featured": false,
    "priority": 50
  },
  {
    "geonameId": 195129,
    "name": "Kalama",
    "latitude": 0.71773,
    "longitude": 37.54431,
    "category": "Mountain",
    "subcategory": "Mountain",
    "featured": false,
    "priority": 50
  },
  {
    "geonameId": 195127,
    "name": "Kalama Hill",
    "latitude": -1.61788,
    "longitude": 37.34692,
    "category": "Mountain",
    "subcategory": "Mountain",
    "featured": false,
    "priority": 50
  },
  {
    "geonameId": 195122,
    "name": "Kalamando",
    "latitude": 0.49206,
    "longitude": 37.5665,
    "category": "Mountain",
    "subcategory": "Mountain",
    "featured": false,
    "priority": 50
  },
  {
    "geonameId": 195121,
    "name": "Kalamandorop",
    "latitude": 0.47679,
    "longitude": 37.5701,
    "category": "Mountain",
    "subcategory": "Mountain",
    "featured": false,
    "priority": 50
  },
  {
    "geonameId": 11562941,
    "name": "Kaldera",
    "latitude": 2.87498,
    "longitude": 36.60912,
    "category": "Island",
    "subcategory": "Island",
    "featured": false,
    "priority": 50
  },
  {
    "geonameId": 195082,
    "name": "Kale",
    "latitude": -3.61699,
    "longitude": 38.69414,
    "category": "Mountain",
    "subcategory": "Mountain",
    "featured": false,
    "priority": 50
  },
  {
    "geonameId": 11817331,
    "name": "Kalelalgelat",
    "latitude": 1.19476,
    "longitude": 35.43728,
    "category": "Mountain",
    "subcategory": "Mountain",
    "featured": false,
    "priority": 50
  },
  {
    "geonameId": 195026,
    "name": "Kalimani",
    "latitude": -1.60901,
    "longitude": 37.54943,
    "category": "Mountain",
    "subcategory": "Mountain",
    "featured": false,
    "priority": 50
  },
  {
    "geonameId": 195007,
    "name": "Kaliou Pass",
    "latitude": 3.53333,
    "longitude": 34.95,
    "category": "Mountain",
    "subcategory": "Mountain Pass",
    "featured": false,
    "priority": 50
  },
  {
    "geonameId": 11867851,
    "name": "Kalitini",
    "latitude": -1.02121,
    "longitude": 38.27887,
    "category": "Mountain",
    "subcategory": "Mountain",
    "featured": false,
    "priority": 50
  },
  {
    "geonameId": 194966,
    "name": "Kaloleni",
    "latitude": -3.81413,
    "longitude": 39.63144,
    "category": "City",
    "subcategory": "City",
    "featured": false,
    "priority": 50
  },
  {
    "geonameId": 194957,
    "name": "Kalolwe",
    "latitude": -1.94516,
    "longitude": 37.79834,
    "category": "Mountain",
    "subcategory": "Mountain",
    "featured": false,
    "priority": 50
  },
  {
    "geonameId": 194469,
    "name": "Kamanang",
    "latitude": 4.62462,
    "longitude": 35.59707,
    "category": "Mountain",
    "subcategory": "Mountain",
    "featured": false,
    "priority": 50
  },
  {
    "geonameId": 194862,
    "name": "Kamanga",
    "latitude": 0.77372,
    "longitude": 37.89545,
    "category": "Mountain",
    "subcategory": "Mountain",
    "featured": false,
    "priority": 50
  },
  {
    "geonameId": 194852,
    "name": "Kamaret",
    "latitude": 3.71127,
    "longitude": 35.55811,
    "category": "Mountain",
    "subcategory": "Mountain",
    "featured": false,
    "priority": 50
  },
  {
    "geonameId": 194821,
    "name": "Kambanga",
    "latitude": -3.72598,
    "longitude": 38.41784,
    "category": "Mountain",
    "subcategory": "Mountain",
    "featured": false,
    "priority": 50
  },
  {
    "geonameId": 194679,
    "name": "Kambi Ya Munyu",
    "latitude": -2.3369,
    "longitude": 37.90695,
    "category": "Lake",
    "subcategory": "Reservoir",
    "featured": false,
    "priority": 50
  },
  {
    "geonameId": 194773,
    "name": "Kameriangore",
    "latitude": 3.43279,
    "longitude": 35.02933,
    "category": "Mountain",
    "subcategory": "Mountain",
    "featured": false,
    "priority": 50
  },
  {
    "geonameId": 11981407,
    "name": "Kameube",
    "latitude": -1.84874,
    "longitude": 35.95423,
    "category": "Mountain",
    "subcategory": "Mountain",
    "featured": false,
    "priority": 50
  },
  {
    "geonameId": 194749,
    "name": "Kami Tarn",
    "latitude": -0.15,
    "longitude": 37.31667,
    "category": "Lake",
    "subcategory": "Lake",
    "featured": false,
    "priority": 50
  },
  {
    "geonameId": 11947574,
    "name": "Kamila",
    "latitude": 0.52148,
    "longitude": 36.20688,
    "category": "Mountain",
    "subcategory": "Mountain",
    "featured": false,
    "priority": 50
  },
  {
    "geonameId": 194741,
    "name": "Kamnara Island",
    "latitude": -0.21336,
    "longitude": 34.46303,
    "category": "Island",
    "subcategory": "Island",
    "featured": false,
    "priority": 50
  },
  {
    "geonameId": 11817405,
    "name": "Kamugos",
    "latitude": 1.42627,
    "longitude": 35.923,
    "category": "Mountain",
    "subcategory": "Mountain",
    "featured": false,
    "priority": 50
  },
  {
    "geonameId": 194744,
    "name": "Kamutotya",
    "latitude": -1.13595,
    "longitude": 38.0438,
    "category": "Mountain",
    "subcategory": "Mountain",
    "featured": false,
    "priority": 50
  },
  {
    "geonameId": 194578,
    "name": "Kamuwongu",
    "latitude": -0.33358,
    "longitude": 38.04917,
    "category": "Mountain",
    "subcategory": "Mountain",
    "featured": false,
    "priority": 50
  },
  {
    "geonameId": 194575,
    "name": "Kamwanda",
    "latitude": -1.56287,
    "longitude": 37.66581,
    "category": "Mountain",
    "subcategory": "Mountain",
    "featured": false,
    "priority": 50
  },
  {
    "geonameId": 194560,
    "name": "Kamwithi",
    "latitude": -1.8593,
    "longitude": 37.8119,
    "category": "Mountain",
    "subcategory": "Mountain",
    "featured": false,
    "priority": 50
  },
  {
    "geonameId": 194545,
    "name": "Kanakori Pass",
    "latitude": 4.41667,
    "longitude": 34.41667,
    "category": "Mountain",
    "subcategory": "Mountain Pass",
    "featured": false,
    "priority": 50
  },
  {
    "geonameId": 194541,
    "name": "Kanamatangop Pass",
    "latitude": 3.40482,
    "longitude": 34.96854,
    "category": "Mountain",
    "subcategory": "Mountain Pass",
    "featured": false,
    "priority": 50
  },
  {
    "geonameId": 194534,
    "name": "Kanangi",
    "latitude": -1.76541,
    "longitude": 37.90596,
    "category": "Mountain",
    "subcategory": "Mountain",
    "featured": false,
    "priority": 50
  },
  {
    "geonameId": 194470,
    "name": "Kangamaliten",
    "latitude": 3.71056,
    "longitude": 35.352,
    "category": "Mountain",
    "subcategory": "Mountain",
    "featured": false,
    "priority": 50
  },
  {
    "geonameId": 194451,
    "name": "Kangema",
    "latitude": -0.68553,
    "longitude": 36.96463,
    "category": "City",
    "subcategory": "City",
    "featured": false,
    "priority": 50
  },
  {
    "geonameId": 194438,
    "name": "Kangochwa",
    "latitude": -3.14184,
    "longitude": 38.15684,
    "category": "Mountain",
    "subcategory": "Mountain",
    "featured": false,
    "priority": 50
  },
  {
    "geonameId": 194406,
    "name": "Kangundo",
    "latitude": -1.30342,
    "longitude": 37.34813,
    "category": "City",
    "subcategory": "City",
    "featured": false,
    "priority": 50
  },
  {
    "geonameId": 194371,
    "name": "Kanjai",
    "latitude": 0.14353,
    "longitude": 37.69837,
    "category": "Mountain",
    "subcategory": "Mountain",
    "featured": false,
    "priority": 50
  },
  {
    "geonameId": 194373,
    "name": "Kanjaro",
    "latitude": -3.83509,
    "longitude": 38.26438,
    "category": "Mountain",
    "subcategory": "Mountain",
    "featured": false,
    "priority": 50
  },
  {
    "geonameId": 194365,
    "name": "Kanjiro",
    "latitude": -0.6815,
    "longitude": 37.61313,
    "category": "Mountain",
    "subcategory": "Mountain",
    "featured": false,
    "priority": 50
  },
  {
    "geonameId": 194354,
    "name": "Kanjwiri Hill",
    "latitude": -0.20362,
    "longitude": 36.62764,
    "category": "Mountain",
    "subcategory": "Mountain",
    "featured": false,
    "priority": 50
  },
  {
    "geonameId": 194256,
    "name": "Kanyunga",
    "latitude": -1.82293,
    "longitude": 38.27475,
    "category": "Mountain",
    "subcategory": "Mountain",
    "featured": false,
    "priority": 50
  },
  {
    "geonameId": 194246,
    "name": "Kanzalu",
    "latitude": -1.28638,
    "longitude": 37.38919,
    "category": "Mountain",
    "subcategory": "Mountain",
    "featured": false,
    "priority": 50
  },
  {
    "geonameId": 194233,
    "name": "Kanzokea",
    "latitude": -1.82639,
    "longitude": 38.40031,
    "category": "Mountain",
    "subcategory": "Mountain",
    "featured": false,
    "priority": 50
  },
  {
    "geonameId": 11817358,
    "name": "Kaok",
    "latitude": 1.36227,
    "longitude": 35.50994,
    "category": "Mountain",
    "subcategory": "Mountain",
    "featured": false,
    "priority": 50
  },
  {
    "geonameId": 6698752,
    "name": "Kap Joel",
    "latitude": -0.39589,
    "longitude": 35.15615,
    "category": "Park",
    "subcategory": "Park",
    "featured": false,
    "priority": 50
  },
  {
    "geonameId": 11964423,
    "name": "Kapcheptortor",
    "latitude": -0.31293,
    "longitude": 35.2978,
    "category": "Mountain",
    "subcategory": "Mountain",
    "featured": false,
    "priority": 50
  },
  {
    "geonameId": 194190,
    "name": "Kapcho Hill",
    "latitude": 0.94093,
    "longitude": 35.42402,
    "category": "Mountain",
    "subcategory": "Mountain",
    "featured": false,
    "priority": 50
  },
  {
    "geonameId": 11817189,
    "name": "Kapchoket",
    "latitude": 1.82412,
    "longitude": 35.11529,
    "category": "Mountain",
    "subcategory": "Peak",
    "featured": false,
    "priority": 50
  },
  {
    "geonameId": 194187,
    "name": "Kapcholio",
    "latitude": 2.12094,
    "longitude": 35.15966,
    "category": "Mountain",
    "subcategory": "Mountain",
    "featured": false,
    "priority": 50
  },
  {
    "geonameId": 194160,
    "name": "Kapenguria",
    "latitude": 1.23889,
    "longitude": 35.11194,
    "category": "City",
    "subcategory": "Regional Capital",
    "featured": false,
    "priority": 50
  },
  {
    "geonameId": 194057,
    "name": "Kapoiriwa Hill",
    "latitude": 0.94238,
    "longitude": 35.31596,
    "category": "Mountain",
    "subcategory": "Mountain",
    "featured": false,
    "priority": 50
  },
  {
    "geonameId": 194054,
    "name": "Kapokoringoton",
    "latitude": 3.01518,
    "longitude": 35.05676,
    "category": "Mountain",
    "subcategory": "Mountain",
    "featured": false,
    "priority": 50
  },
  {
    "geonameId": 194038,
    "name": "Kapsabet",
    "latitude": 0.20387,
    "longitude": 35.105,
    "category": "City",
    "subcategory": "Regional Capital",
    "featured": false,
    "priority": 50
  },
  {
    "geonameId": 194012,
    "name": "Kapsiliat Hill",
    "latitude": 0.85643,
    "longitude": 35.47233,
    "category": "Mountain",
    "subcategory": "Mountain",
    "featured": false,
    "priority": 50
  },
  {
    "geonameId": 10400164,
    "name": "Kapsokwony",
    "latitude": 0.85222,
    "longitude": 34.70194,
    "category": "City",
    "subcategory": "City",
    "featured": false,
    "priority": 50
  },
  {
    "geonameId": 193985,
    "name": "Kapsowar",
    "latitude": 0.9789,
    "longitude": 35.55854,
    "category": "City",
    "subcategory": "City",
    "featured": false,
    "priority": 50
  },
  {
    "geonameId": 193966,
    "name": "Kaptanguss",
    "latitude": 1.84152,
    "longitude": 35.24347,
    "category": "Mountain",
    "subcategory": "Mountain",
    "featured": false,
    "priority": 50
  },
  {
    "geonameId": 193945,
    "name": "Kapteriti",
    "latitude": 0.14927,
    "longitude": 35.77638,
    "category": "Mountain",
    "subcategory": "Mountain",
    "featured": false,
    "priority": 50
  },
  {
    "geonameId": 11871868,
    "name": "Kaptim Dam",
    "latitude": 0.38229,
    "longitude": 35.95858,
    "category": "Lake",
    "subcategory": "Reservoir",
    "featured": false,
    "priority": 50
  },
  {
    "geonameId": 193850,
    "name": "Karantin",
    "latitude": 2.3163,
    "longitude": 37.95922,
    "category": "Mountain",
    "subcategory": "Peak",
    "featured": false,
    "priority": 50
  },
  {
    "geonameId": 193843,
    "name": "Karara Dam",
    "latitude": 0.91244,
    "longitude": 35.10154,
    "category": "Lake",
    "subcategory": "Reservoir",
    "featured": false,
    "priority": 50
  },
  {
    "geonameId": 193827,
    "name": "Karatina",
    "latitude": -0.4841,
    "longitude": 37.12662,
    "category": "City",
    "subcategory": "City",
    "featured": false,
    "priority": 50
  },
  {
    "geonameId": 193817,
    "name": "Karau",
    "latitude": 0.6153,
    "longitude": 36.18744,
    "category": "Mountain",
    "subcategory": "Mountain",
    "featured": false,
    "priority": 50
  },
  {
    "geonameId": 193635,
    "name": "Karura Falls",
    "latitude": -0.5,
    "longitude": 36.76667,
    "category": "Waterfall",
    "subcategory": "Waterfall",
    "featured": false,
    "priority": 50
  },
  {
    "geonameId": 193624,
    "name": "Karuri",
    "latitude": -1.17641,
    "longitude": 36.7564,
    "category": "City",
    "subcategory": "City",
    "featured": false,
    "priority": 50
  },
  {
    "geonameId": 193621,
    "name": "Karuru",
    "latitude": -0.53333,
    "longitude": 36.71667,
    "category": "Waterfall",
    "subcategory": "Waterfall",
    "featured": false,
    "priority": 50
  },
  {
    "geonameId": 11817299,
    "name": "Kasai",
    "latitude": 1.24407,
    "longitude": 35.22537,
    "category": "Mountain",
    "subcategory": "Mountain",
    "featured": false,
    "priority": 50
  },
  {
    "geonameId": 11817335,
    "name": "Kasengo",
    "latitude": 1.43309,
    "longitude": 35.40935,
    "category": "Mountain",
    "subcategory": "Mountain",
    "featured": false,
    "priority": 50
  },
  {
    "geonameId": 11817336,
    "name": "Kasengo Pass",
    "latitude": 1.47408,
    "longitude": 35.43832,
    "category": "Mountain",
    "subcategory": "Mountain Pass",
    "featured": false,
    "priority": 50
  },
  {
    "geonameId": 193539,
    "name": "Kasindano",
    "latitude": -3.64572,
    "longitude": 38.26084,
    "category": "Mountain",
    "subcategory": "Mountain",
    "featured": false,
    "priority": 50
  },
  {
    "geonameId": 11886535,
    "name": "Kasungum",
    "latitude": -3.42204,
    "longitude": 38.36824,
    "category": "Mountain",
    "subcategory": "Mountain",
    "featured": false,
    "priority": 50
  },
  {
    "geonameId": 193436,
    "name": "Kathai",
    "latitude": -1.41904,
    "longitude": 38.41875,
    "category": "Mountain",
    "subcategory": "Mountain",
    "featured": false,
    "priority": 50
  },
  {
    "geonameId": 193378,
    "name": "Kathiliwa",
    "latitude": -1.03666,
    "longitude": 38.3123,
    "category": "Mountain",
    "subcategory": "Mountain",
    "featured": false,
    "priority": 50
  },
  {
    "geonameId": 193372,
    "name": "Kathiri",
    "latitude": 0.05044,
    "longitude": 37.80067,
    "category": "Mountain",
    "subcategory": "Mountain",
    "featured": false,
    "priority": 50
  },
  {
    "geonameId": 11764747,
    "name": "Kathwana",
    "latitude": -0.33139,
    "longitude": 37.86861,
    "category": "City",
    "subcategory": "Regional Capital",
    "featured": false,
    "priority": 50
  },
  {
    "geonameId": 11964378,
    "name": "Katito",
    "latitude": -0.26934,
    "longitude": 34.97197,
    "category": "City",
    "subcategory": "City",
    "featured": false,
    "priority": 50
  },
  {
    "geonameId": 193290,
    "name": "Katora",
    "latitude": 0.86299,
    "longitude": 37.58839,
    "category": "Mountain",
    "subcategory": "Mountain",
    "featured": false,
    "priority": 50
  },
  {
    "geonameId": 11844342,
    "name": "Katumbi",
    "latitude": -1.93276,
    "longitude": 37.31918,
    "category": "Mountain",
    "subcategory": "Mountain",
    "featured": false,
    "priority": 50
  },
  {
    "geonameId": 193251,
    "name": "Katumbua Hill",
    "latitude": -1.82829,
    "longitude": 37.80257,
    "category": "Mountain",
    "subcategory": "Mountain",
    "featured": false,
    "priority": 50
  },
  {
    "geonameId": 193220,
    "name": "Kaumoni",
    "latitude": -1.69601,
    "longitude": 37.56442,
    "category": "Mountain",
    "subcategory": "Mountain",
    "featured": false,
    "priority": 50
  },
  {
    "geonameId": 193201,
    "name": "Kausia",
    "latitude": -1.24901,
    "longitude": 38.54867,
    "category": "Mountain",
    "subcategory": "Mountain",
    "featured": false,
    "priority": 50
  },
  {
    "geonameId": 193192,
    "name": "Kauwaa",
    "latitude": -1.26419,
    "longitude": 38.58803,
    "category": "Mountain",
    "subcategory": "Mountain",
    "featured": false,
    "priority": 50
  },
  {
    "geonameId": 193164,
    "name": "Kavishoi",
    "latitude": -3.71855,
    "longitude": 38.38474,
    "category": "Mountain",
    "subcategory": "Mountain",
    "featured": false,
    "priority": 50
  },
  {
    "geonameId": 11867992,
    "name": "Kavuvoni",
    "latitude": -1.8985,
    "longitude": 38.30905,
    "category": "Mountain",
    "subcategory": "Mountain",
    "featured": false,
    "priority": 50
  },
  {
    "geonameId": 190388,
    "name": "Kawab",
    "latitude": 1.94098,
    "longitude": 36.7978,
    "category": "Mountain",
    "subcategory": "Mountain",
    "featured": false,
    "priority": 50
  },
  {
    "geonameId": 11428093,
    "name": "Kawaida",
    "latitude": -1.14639,
    "longitude": 36.7598,
    "category": "City",
    "subcategory": "City",
    "featured": false,
    "priority": 50
  },
  {
    "geonameId": 193035,
    "name": "Kedowa Pill",
    "latitude": -0.18041,
    "longitude": 35.54309,
    "category": "Mountain",
    "subcategory": "Mountain",
    "featured": false,
    "priority": 50
  },
  {
    "geonameId": 192967,
    "name": "Kendu Bay",
    "latitude": -0.3618,
    "longitude": 34.65272,
    "category": "City",
    "subcategory": "City",
    "featured": false,
    "priority": 50
  },
  {
    "geonameId": 12718626,
    "name": "Kenol",
    "latitude": -0.9373,
    "longitude": 37.12275,
    "category": "City",
    "subcategory": "City",
    "featured": false,
    "priority": 50
  },
  {
    "geonameId": 11964201,
    "name": "Kenyerere",
    "latitude": -0.76913,
    "longitude": 34.77237,
    "category": "Mountain",
    "subcategory": "Mountain",
    "featured": false,
    "priority": 50
  },
  {
    "geonameId": 192930,
    "name": "Kenze Hill",
    "latitude": -1.87255,
    "longitude": 37.33495,
    "category": "Mountain",
    "subcategory": "Mountain",
    "featured": false,
    "priority": 50
  },
  {
    "geonameId": 192900,
    "name": "Kericho",
    "latitude": -0.36774,
    "longitude": 35.28314,
    "category": "City",
    "subcategory": "Regional Capital",
    "featured": false,
    "priority": 50
  },
  {
    "geonameId": 192869,
    "name": "Keroka",
    "latitude": -0.77612,
    "longitude": 34.94678,
    "category": "City",
    "subcategory": "City",
    "featured": false,
    "priority": 50
  },
  {
    "geonameId": 192859,
    "name": "Kerugoya",
    "latitude": -0.49887,
    "longitude": 37.28031,
    "category": "City",
    "subcategory": "Regional Capital",
    "featured": false,
    "priority": 50
  },
  {
    "geonameId": 192834,
    "name": "Kevas",
    "latitude": -3.30587,
    "longitude": 37.90839,
    "category": "Mountain",
    "subcategory": "Mountain",
    "featured": false,
    "priority": 50
  },
  {
    "geonameId": 11817308,
    "name": "Keweta Pass",
    "latitude": 1.46451,
    "longitude": 35.32073,
    "category": "Mountain",
    "subcategory": "Mountain Pass",
    "featured": false,
    "priority": 50
  },
  {
    "geonameId": 192817,
    "name": "Khalaba Coffee Dam",
    "latitude": 0.69525,
    "longitude": 34.57149,
    "category": "Lake",
    "subcategory": "Reservoir",
    "featured": false,
    "priority": 50
  },
  {
    "geonameId": 192785,
    "name": "Khwisero",
    "latitude": 0.17124,
    "longitude": 34.59466,
    "category": "City",
    "subcategory": "City",
    "featured": false,
    "priority": 50
  },
  {
    "geonameId": 192768,
    "name": "Kiagu",
    "latitude": 0.0904,
    "longitude": 37.94813,
    "category": "Mountain",
    "subcategory": "Mountain",
    "featured": false,
    "priority": 50
  },
  {
    "geonameId": 192724,
    "name": "Kiambere",
    "latitude": -0.69099,
    "longitude": 37.80992,
    "category": "Mountain",
    "subcategory": "Mountain",
    "featured": false,
    "priority": 50
  },
  {
    "geonameId": 192712,
    "name": "Kiamboni Kwa Kibwana",
    "latitude": -2.30273,
    "longitude": 40.71642,
    "category": "Island",
    "subcategory": "Island",
    "featured": false,
    "priority": 50
  },
  {
    "geonameId": 192710,
    "name": "Kiambu",
    "latitude": -1.17139,
    "longitude": 36.83556,
    "category": "City",
    "subcategory": "Regional Capital",
    "featured": false,
    "priority": 50
  },
  {
    "geonameId": 11981564,
    "name": "Kiambui",
    "latitude": -0.59681,
    "longitude": 37.71582,
    "category": "Mountain",
    "subcategory": "Mountain",
    "featured": false,
    "priority": 50
  },
  {
    "geonameId": 192621,
    "name": "Kiang’ongo",
    "latitude": -0.65242,
    "longitude": 34.172,
    "category": "Mountain",
    "subcategory": "Mountain",
    "featured": false,
    "priority": 50
  },
  {
    "geonameId": 192647,
    "name": "Kianga",
    "latitude": -1.90901,
    "longitude": 37.83429,
    "category": "Mountain",
    "subcategory": "Mountain",
    "featured": false,
    "priority": 50
  },
  {
    "geonameId": 192622,
    "name": "Kiangombe",
    "latitude": -0.56459,
    "longitude": 37.70769,
    "category": "Mountain",
    "subcategory": "Mountain",
    "featured": false,
    "priority": 50
  },
  {
    "geonameId": 6657521,
    "name": "Kianoni Island",
    "latitude": -2.00802,
    "longitude": 41.20102,
    "category": "Island",
    "subcategory": "Island",
    "featured": false,
    "priority": 50
  },
  {
    "geonameId": 192579,
    "name": "Kiapurr",
    "latitude": 2.23368,
    "longitude": 36.86265,
    "category": "Mountain",
    "subcategory": "Mountain",
    "featured": false,
    "priority": 50
  },
  {
    "geonameId": 191508,
    "name": "Kiasa",
    "latitude": -2.13765,
    "longitude": 37.24972,
    "category": "Mountain",
    "subcategory": "Mountain",
    "featured": false,
    "priority": 50
  },
  {
    "geonameId": 192509,
    "name": "Kibargoi",
    "latitude": 0.45,
    "longitude": 35.56667,
    "category": "Mountain",
    "subcategory": "Peak",
    "featured": false,
    "priority": 50
  },
  {
    "geonameId": 11881511,
    "name": "Kibithe",
    "latitude": 0.13992,
    "longitude": 37.54412,
    "category": "Mountain",
    "subcategory": "Mountain",
    "featured": false,
    "priority": 50
  },
  {
    "geonameId": 191645,
    "name": "Kibkogo",
    "latitude": -0.4284,
    "longitude": 35.84087,
    "category": "Mountain",
    "subcategory": "Mountain",
    "featured": false,
    "priority": 50
  },
  {
    "geonameId": 193649,
    "name": "Kiboko Island",
    "latitude": -0.16345,
    "longitude": 34.61,
    "category": "Island",
    "subcategory": "Island",
    "featured": false,
    "priority": 50
  },
  {
    "geonameId": 192390,
    "name": "Kiburu",
    "latitude": -0.42152,
    "longitude": 37.87035,
    "category": "Mountain",
    "subcategory": "Mountain",
    "featured": false,
    "priority": 50
  },
  {
    "geonameId": 192372,
    "name": "Kibwezi",
    "latitude": -2.40935,
    "longitude": 37.96631,
    "category": "City",
    "subcategory": "City",
    "featured": false,
    "priority": 50
  },
  {
    "geonameId": 11670946,
    "name": "Kichich",
    "latitude": 1.26535,
    "longitude": 37.23548,
    "category": "Mountain",
    "subcategory": "Mountain",
    "featured": false,
    "priority": 50
  },
  {
    "geonameId": 192364,
    "name": "Kide",
    "latitude": -3.63216,
    "longitude": 38.29879,
    "category": "Mountain",
    "subcategory": "Mountain",
    "featured": false,
    "priority": 50
  },
  {
    "geonameId": 192331,
    "name": "Kieiga",
    "latitude": 0.11401,
    "longitude": 37.80122,
    "category": "Mountain",
    "subcategory": "Mountain",
    "featured": false,
    "priority": 50
  },
  {
    "geonameId": 192320,
    "name": "Kiera",
    "latitude": -0.23429,
    "longitude": 37.76891,
    "category": "Mountain",
    "subcategory": "Mountain",
    "featured": false,
    "priority": 50
  },
  {
    "geonameId": 192312,
    "name": "Kifaru",
    "latitude": -3.15778,
    "longitude": 38.42856,
    "category": "Mountain",
    "subcategory": "Mountain",
    "featured": false,
    "priority": 50
  },
  {
    "geonameId": 192305,
    "name": "Kigala",
    "latitude": -3.39243,
    "longitude": 38.47285,
    "category": "Mountain",
    "subcategory": "Mountain",
    "featured": false,
    "priority": 50
  },
  {
    "geonameId": 192275,
    "name": "Kigombo Reservoir",
    "latitude": -3.38209,
    "longitude": 38.45627,
    "category": "Lake",
    "subcategory": "Reservoir",
    "featured": false,
    "priority": 50
  },
  {
    "geonameId": 191837,
    "name": "Kihancha",
    "latitude": -1.19347,
    "longitude": 34.61967,
    "category": "City",
    "subcategory": "City",
    "featured": false,
    "priority": 50
  },
  {
    "geonameId": 191844,
    "name": "Kiima Kimwe",
    "latitude": -1.54648,
    "longitude": 37.27574,
    "category": "Mountain",
    "subcategory": "Mountain",
    "featured": false,
    "priority": 50
  },
  {
    "geonameId": 189533,
    "name": "Kijabe",
    "latitude": -0.90782,
    "longitude": 36.54606,
    "category": "Mountain",
    "subcategory": "Mountain",
    "featured": false,
    "priority": 50
  },
  {
    "geonameId": 192196,
    "name": "Kijegge",
    "latitude": -0.26394,
    "longitude": 37.95326,
    "category": "Mountain",
    "subcategory": "Mountain",
    "featured": false,
    "priority": 50
  },
  {
    "geonameId": 192126,
    "name": "Kikuyu",
    "latitude": -1.24627,
    "longitude": 36.66291,
    "category": "City",
    "subcategory": "City",
    "featured": false,
    "priority": 50
  },
  {
    "geonameId": 192108,
    "name": "Kilala",
    "latitude": -1.76667,
    "longitude": 37.53333,
    "category": "Mountain",
    "subcategory": "Mountain",
    "featured": false,
    "priority": 50
  },
  {
    "geonameId": 11867819,
    "name": "Kilalani",
    "latitude": -1.58431,
    "longitude": 37.63176,
    "category": "Mountain",
    "subcategory": "Mountain",
    "featured": false,
    "priority": 50
  },
  {
    "geonameId": 192079,
    "name": "Kilgoris",
    "latitude": -1.00819,
    "longitude": 34.87809,
    "category": "City",
    "subcategory": "City",
    "featured": false,
    "priority": 50
  },
  {
    "geonameId": 192076,
    "name": "Kilibasi",
    "latitude": -3.95995,
    "longitude": 38.9487,
    "category": "Mountain",
    "subcategory": "Mountain",
    "featured": false,
    "priority": 50
  },
  {
    "geonameId": 192067,
    "name": "Kilifi",
    "latitude": -3.63045,
    "longitude": 39.84992,
    "category": "City",
    "subcategory": "Regional Capital",
    "featured": false,
    "priority": 50
  },
  {
    "geonameId": 191498,
    "name": "Kililepwa",
    "latitude": -3.3495,
    "longitude": 39.97271,
    "category": "Island",
    "subcategory": "Island",
    "featured": false,
    "priority": 50
  },
  {
    "geonameId": 11867929,
    "name": "Kilili",
    "latitude": -1.91773,
    "longitude": 37.56286,
    "category": "Mountain",
    "subcategory": "Mountain",
    "featured": false,
    "priority": 50
  },
  {
    "geonameId": 192052,
    "name": "Kilima",
    "latitude": -1.86946,
    "longitude": 37.42988,
    "category": "Mountain",
    "subcategory": "Mountain",
    "featured": false,
    "priority": 50
  },
  {
    "geonameId": 11881546,
    "name": "Kilimakieru",
    "latitude": 0.17719,
    "longitude": 38.03069,
    "category": "Mountain",
    "subcategory": "Mountain",
    "featured": false,
    "priority": 50
  },
  {
    "geonameId": 192040,
    "name": "Kilimantiri",
    "latitude": 0.17149,
    "longitude": 37.85793,
    "category": "Mountain",
    "subcategory": "Mountain",
    "featured": false,
    "priority": 50
  },
  {
    "geonameId": 192018,
    "name": "Kilisa",
    "latitude": -1.78503,
    "longitude": 37.86104,
    "category": "Mountain",
    "subcategory": "Mountain",
    "featured": false,
    "priority": 50
  },
  {
    "geonameId": 191981,
    "name": "Kimaboni Island",
    "latitude": -0.5249,
    "longitude": 34.0901,
    "category": "Island",
    "subcategory": "Island",
    "featured": false,
    "priority": 50
  },
  {
    "geonameId": 191963,
    "name": "Kimana",
    "latitude": -2.79884,
    "longitude": 37.53708,
    "category": "City",
    "subcategory": "City",
    "featured": false,
    "priority": 50
  },
  {
    "geonameId": 11670950,
    "name": "Kimaning",
    "latitude": 1.30712,
    "longitude": 37.28745,
    "category": "Mountain",
    "subcategory": "Mountain",
    "featured": false,
    "priority": 50
  },
  {
    "geonameId": 191932,
    "name": "Kimbimbi",
    "latitude": -0.62233,
    "longitude": 37.36482,
    "category": "City",
    "subcategory": "City",
    "featured": false,
    "priority": 50
  },
  {
    "geonameId": 191919,
    "name": "Kimilili",
    "latitude": 0.78775,
    "longitude": 34.71562,
    "category": "City",
    "subcategory": "City",
    "featured": false,
    "priority": 50
  },
  {
    "geonameId": 191908,
    "name": "Kiminini",
    "latitude": 0.89284,
    "longitude": 34.92468,
    "category": "City",
    "subcategory": "City",
    "featured": false,
    "priority": 50
  },
  {
    "geonameId": 191895,
    "name": "Kimokomo",
    "latitude": -1.4537,
    "longitude": 38.15123,
    "category": "Mountain",
    "subcategory": "Mountain",
    "featured": false,
    "priority": 50
  },
  {
    "geonameId": 191833,
    "name": "Kinango",
    "latitude": -4.13723,
    "longitude": 39.31528,
    "category": "City",
    "subcategory": "City",
    "featured": false,
    "priority": 50
  },
  {
    "geonameId": 191800,
    "name": "Kinna",
    "latitude": 0.31883,
    "longitude": 38.20499,
    "category": "City",
    "subcategory": "City",
    "featured": false,
    "priority": 50
  },
  {
    "geonameId": 191797,
    "name": "Kinoi",
    "latitude": -1.6558,
    "longitude": 37.37454,
    "category": "City",
    "subcategory": "City",
    "featured": false,
    "priority": 50
  },
  {
    "geonameId": 191785,
    "name": "Kinouni Ndogo",
    "latitude": 0.05856,
    "longitude": 38.13285,
    "category": "Mountain",
    "subcategory": "Mountain",
    "featured": false,
    "priority": 50
  },
  {
    "geonameId": 191759,
    "name": "Kinyika Island",
    "latitude": -2.42987,
    "longitude": 40.84132,
    "category": "Island",
    "subcategory": "Island",
    "featured": false,
    "priority": 50
  },
  {
    "geonameId": 191702,
    "name": "Kioo Rock Tank",
    "latitude": -0.93333,
    "longitude": 37.95,
    "category": "Lake",
    "subcategory": "Reservoir",
    "featured": false,
    "priority": 50
  },
  {
    "geonameId": 11817422,
    "name": "Kipchumwa",
    "latitude": 1.26926,
    "longitude": 35.55566,
    "category": "Mountain",
    "subcategory": "Peak",
    "featured": false,
    "priority": 50
  },
  {
    "geonameId": 191674,
    "name": "Kipinikwe Falls",
    "latitude": -0.56023,
    "longitude": 35.34618,
    "category": "Waterfall",
    "subcategory": "Waterfall",
    "featured": false,
    "priority": 50
  },
  {
    "geonameId": 191669,
    "name": "Kipipiri",
    "latitude": -0.42892,
    "longitude": 36.53697,
    "category": "Mountain",
    "subcategory": "Mountain",
    "featured": false,
    "priority": 50
  },
  {
    "geonameId": 11871812,
    "name": "Kipkanyilat",
    "latitude": 0.17441,
    "longitude": 35.69604,
    "category": "Mountain",
    "subcategory": "Mountain",
    "featured": false,
    "priority": 50
  },
  {
    "geonameId": 191643,
    "name": "Kipkomolo",
    "latitude": 0.16667,
    "longitude": 35.78333,
    "category": "Mountain",
    "subcategory": "Mountain",
    "featured": false,
    "priority": 50
  },
  {
    "geonameId": 191628,
    "name": "Kipleleo",
    "latitude": -1.10951,
    "longitude": 35.26295,
    "category": "Mountain",
    "subcategory": "Mountain",
    "featured": false,
    "priority": 50
  },
  {
    "geonameId": 192402,
    "name": "Kiprok Pass",
    "latitude": 2.61278,
    "longitude": 36.80532,
    "category": "Mountain",
    "subcategory": "Mountain Pass",
    "featured": false,
    "priority": 50
  },
  {
    "geonameId": 191610,
    "name": "Kipsacho",
    "latitude": 0.41667,
    "longitude": 35.78333,
    "category": "Mountain",
    "subcategory": "Peak",
    "featured": false,
    "priority": 50
  },
  {
    "geonameId": 191581,
    "name": "Kipsing Gap",
    "latitude": 0.42949,
    "longitude": 37.50205,
    "category": "Mountain",
    "subcategory": "Mountain Pass",
    "featured": false,
    "priority": 50
  },
  {
    "geonameId": 11964246,
    "name": "Kiptoiget",
    "latitude": -0.00611,
    "longitude": 34.8455,
    "category": "Mountain",
    "subcategory": "Mountain",
    "featured": false,
    "priority": 50
  },
  {
    "geonameId": 191459,
    "name": "Kirika Island",
    "latitude": -0.15,
    "longitude": 34.56667,
    "category": "Island",
    "subcategory": "Island",
    "featured": false,
    "priority": 50
  },
  {
    "geonameId": 191458,
    "name": "Kirikinie",
    "latitude": 2.69871,
    "longitude": 34.98889,
    "category": "Mountain",
    "subcategory": "Mountain",
    "featured": false,
    "priority": 50
  },
  {
    "geonameId": 191444,
    "name": "Kirima-Kia-Mweru",
    "latitude": 0.00433,
    "longitude": 37.75677,
    "category": "Mountain",
    "subcategory": "Mountain",
    "featured": false,
    "priority": 50
  },
  {
    "geonameId": 191422,
    "name": "Kiringiti Island",
    "latitude": -0.45655,
    "longitude": 33.93254,
    "category": "Island",
    "subcategory": "Island",
    "featured": false,
    "priority": 50
  },
  {
    "geonameId": 11881525,
    "name": "Kiringo",
    "latitude": 0.06224,
    "longitude": 37.58233,
    "category": "Mountain",
    "subcategory": "Mountain",
    "featured": false,
    "priority": 50
  },
  {
    "geonameId": 191375,
    "name": "Kirui",
    "latitude": -0.08343,
    "longitude": 37.54823,
    "category": "Mountain",
    "subcategory": "Mountain",
    "featured": false,
    "priority": 50
  },
  {
    "geonameId": 191345,
    "name": "Kisameni",
    "latitude": -3.71235,
    "longitude": 38.63261,
    "category": "Mountain",
    "subcategory": "Mountain",
    "featured": false,
    "priority": 50
  },
  {
    "geonameId": 191335,
    "name": "Kisau",
    "latitude": -1.67031,
    "longitude": 37.56662,
    "category": "Mountain",
    "subcategory": "Mountain",
    "featured": false,
    "priority": 50
  },
  {
    "geonameId": 191318,
    "name": "Kiserian",
    "latitude": -1.4275,
    "longitude": 36.6865,
    "category": "City",
    "subcategory": "City",
    "featured": false,
    "priority": 50
  },
  {
    "geonameId": 191299,
    "name": "Kisii",
    "latitude": -0.68174,
    "longitude": 34.76666,
    "category": "City",
    "subcategory": "Regional Capital",
    "featured": false,
    "priority": 50
  },
  {
    "geonameId": 191268,
    "name": "Kisiwani (Mlaus Island)",
    "latitude": -4.58085,
    "longitude": 39.30558,
    "category": "Island",
    "subcategory": "Island",
    "featured": false,
    "priority": 50
  },
  {
    "geonameId": 191245,
    "name": "Kisumu",
    "latitude": -0.10221,
    "longitude": 34.76171,
    "category": "City",
    "subcategory": "Regional Capital",
    "featured": false,
    "priority": 50
  },
  {
    "geonameId": 191225,
    "name": "Kitaingo",
    "latitude": -1.83333,
    "longitude": 37.36667,
    "category": "Mountain",
    "subcategory": "Mountain",
    "featured": false,
    "priority": 50
  },
  {
    "geonameId": 191220,
    "name": "Kitale",
    "latitude": 1.01572,
    "longitude": 35.00622,
    "category": "City",
    "subcategory": "Regional Capital",
    "featured": false,
    "priority": 50
  },
  {
    "geonameId": 191198,
    "name": "Kitaru Falls",
    "latitude": -0.81667,
    "longitude": 36.76667,
    "category": "Waterfall",
    "subcategory": "Waterfall",
    "featured": false,
    "priority": 50
  },
  {
    "geonameId": 191784,
    "name": "Kitendeo",
    "latitude": -1.58907,
    "longitude": 38.20551,
    "category": "Mountain",
    "subcategory": "Mountain",
    "featured": false,
    "priority": 50
  },
  {
    "geonameId": 7931934,
    "name": "Kitengela",
    "latitude": -1.47612,
    "longitude": 36.96144,
    "category": "City",
    "subcategory": "City",
    "featured": false,
    "priority": 50
  },
  {
    "geonameId": 191141,
    "name": "Kithendu",
    "latitude": -1.63369,
    "longitude": 37.58121,
    "category": "Mountain",
    "subcategory": "Mountain",
    "featured": false,
    "priority": 50
  },
  {
    "geonameId": 191105,
    "name": "Kithumba Hill",
    "latitude": -1.73755,
    "longitude": 37.50565,
    "category": "Mountain",
    "subcategory": "Mountain",
    "featured": false,
    "priority": 50
  },
  {
    "geonameId": 191010,
    "name": "Kitimui",
    "latitude": -1.27669,
    "longitude": 38.03242,
    "category": "Mountain",
    "subcategory": "Mountain",
    "featured": false,
    "priority": 50
  },
  {
    "geonameId": 191057,
    "name": "Kito Pass",
    "latitude": 1.10369,
    "longitude": 35.86528,
    "category": "Mountain",
    "subcategory": "Mountain Pass",
    "featured": false,
    "priority": 50
  },
  {
    "geonameId": 191038,
    "name": "Kitui",
    "latitude": -1.36696,
    "longitude": 38.01055,
    "category": "City",
    "subcategory": "Regional Capital",
    "featured": false,
    "priority": 50
  },
  {
    "geonameId": 191012,
    "name": "Kitumbuuni",
    "latitude": -1.81667,
    "longitude": 37.3,
    "category": "Mountain",
    "subcategory": "Mountain",
    "featured": false,
    "priority": 50
  },
  {
    "geonameId": 191007,
    "name": "Kitundu",
    "latitude": -1.68333,
    "longitude": 37.46667,
    "category": "Mountain",
    "subcategory": "Mountain",
    "featured": false,
    "priority": 50
  },
  {
    "geonameId": 190968,
    "name": "Kiuga",
    "latitude": -0.42649,
    "longitude": 38.00787,
    "category": "Mountain",
    "subcategory": "Mountain",
    "featured": false,
    "priority": 50
  },
  {
    "geonameId": 6657038,
    "name": "Kiunga Marine National Reserve",
    "latitude": -2.02263,
    "longitude": 41.23926,
    "category": "Park",
    "subcategory": "Nature Reserve",
    "featured": false,
    "priority": 50
  },
  {
    "geonameId": 190952,
    "name": "Kiungamwina Island",
    "latitude": -1.76421,
    "longitude": 41.4979,
    "category": "Island",
    "subcategory": "Island",
    "featured": false,
    "priority": 50
  },
  {
    "geonameId": 192517,
    "name": "Kivauni",
    "latitude": -1.54811,
    "longitude": 37.64339,
    "category": "Mountain",
    "subcategory": "Mountain",
    "featured": false,
    "priority": 50
  },
  {
    "geonameId": 11867963,
    "name": "Kivyuni",
    "latitude": -1.873,
    "longitude": 38.32614,
    "category": "Mountain",
    "subcategory": "Mountain",
    "featured": false,
    "priority": 50
  },
  {
    "geonameId": 190971,
    "name": "Kiwa Island",
    "latitude": -0.75099,
    "longitude": 34.0318,
    "category": "Island",
    "subcategory": "Island",
    "featured": false,
    "priority": 50
  },
  {
    "geonameId": 190898,
    "name": "Kiwaiyu Island",
    "latitude": -2.00202,
    "longitude": 41.27821,
    "category": "Island",
    "subcategory": "Island",
    "featured": false,
    "priority": 50
  },
  {
    "geonameId": 11844179,
    "name": "Kiyhu",
    "latitude": -1.32499,
    "longitude": 37.37467,
    "category": "Mountain",
    "subcategory": "Mountain",
    "featured": false,
    "priority": 50
  },
  {
    "geonameId": 190853,
    "name": "Kobwin",
    "latitude": 3.30207,
    "longitude": 35.03069,
    "category": "Mountain",
    "subcategory": "Mountain",
    "featured": false,
    "priority": 50
  },
  {
    "geonameId": 190807,
    "name": "Koh",
    "latitude": 1.39461,
    "longitude": 35.49968,
    "category": "Mountain",
    "subcategory": "Mountain",
    "featured": false,
    "priority": 50
  },
  {
    "geonameId": 11817373,
    "name": "Koibrir",
    "latitude": 1.26212,
    "longitude": 35.65646,
    "category": "Mountain",
    "subcategory": "Mountain",
    "featured": false,
    "priority": 50
  },
  {
    "geonameId": 190800,
    "name": "Koike",
    "latitude": 0.17138,
    "longitude": 35.79428,
    "category": "Mountain",
    "subcategory": "Mountain",
    "featured": false,
    "priority": 50
  },
  {
    "geonameId": 11871788,
    "name": "Koisamo",
    "latitude": 0.1525,
    "longitude": 35.68063,
    "category": "Mountain",
    "subcategory": "Mountain",
    "featured": false,
    "priority": 50
  },
  {
    "geonameId": 190783,
    "name": "Koitab Silibwet",
    "latitude": -0.86052,
    "longitude": 35.36133,
    "category": "Mountain",
    "subcategory": "Mountain",
    "featured": false,
    "priority": 50
  },
  {
    "geonameId": 190778,
    "name": "Koitekany Peak",
    "latitude": 0.017,
    "longitude": 36.05696,
    "category": "Mountain",
    "subcategory": "Peak",
    "featured": false,
    "priority": 50
  },
  {
    "geonameId": 190764,
    "name": "Koitogoch",
    "latitude": 1.12788,
    "longitude": 34.67966,
    "category": "Mountain",
    "subcategory": "Mountain",
    "featured": false,
    "priority": 50
  },
  {
    "geonameId": 190743,
    "name": "Kokal",
    "latitude": 3.01388,
    "longitude": 34.64479,
    "category": "Mountain",
    "subcategory": "Mountain",
    "featured": false,
    "priority": 50
  },
  {
    "geonameId": 190733,
    "name": "Kokem",
    "latitude": 3.22622,
    "longitude": 35.2608,
    "category": "Mountain",
    "subcategory": "Mountain",
    "featured": false,
    "priority": 50
  },
  {
    "geonameId": 182214,
    "name": "Kokwa Island",
    "latitude": 0.61523,
    "longitude": 36.0722,
    "category": "Island",
    "subcategory": "Island",
    "featured": false,
    "priority": 50
  },
  {
    "geonameId": 11871885,
    "name": "Kokwe",
    "latitude": 0.12806,
    "longitude": 35.67851,
    "category": "Mountain",
    "subcategory": "Mountain",
    "featured": false,
    "priority": 50
  },
  {
    "geonameId": 190653,
    "name": "Komakatae",
    "latitude": 3.14687,
    "longitude": 34.58219,
    "category": "Mountain",
    "subcategory": "Mountain",
    "featured": false,
    "priority": 50
  },
  {
    "geonameId": 230672,
    "name": "Komakatae Pass",
    "latitude": 3.70855,
    "longitude": 34.39612,
    "category": "Mountain",
    "subcategory": "Mountain Pass",
    "featured": false,
    "priority": 50
  },
  {
    "geonameId": 11209753,
    "name": "Kopoi",
    "latitude": 2.84288,
    "longitude": 34.79964,
    "category": "Mountain",
    "subcategory": "Mountain",
    "featured": false,
    "priority": 50
  },
  {
    "geonameId": 6941945,
    "name": "Kora National Park",
    "latitude": -0.20861,
    "longitude": 38.73611,
    "category": "Park",
    "subcategory": "Park",
    "featured": false,
    "priority": 50
  },
  {
    "geonameId": 190506,
    "name": "Kore",
    "latitude": -3.68761,
    "longitude": 38.41032,
    "category": "Mountain",
    "subcategory": "Mountain",
    "featured": false,
    "priority": 50
  },
  {
    "geonameId": 190519,
    "name": "Kore Rapids",
    "latitude": -0.0648,
    "longitude": 38.71399,
    "category": "Waterfall",
    "subcategory": "Waterfall",
    "featured": false,
    "priority": 50
  },
  {
    "geonameId": 190473,
    "name": "Koroli Desert",
    "latitude": 2.70455,
    "longitude": 37.2632,
    "category": "Desert",
    "subcategory": "Desert",
    "featured": false,
    "priority": 50
  },
  {
    "geonameId": 190435,
    "name": "Kosaye",
    "latitude": 3.68863,
    "longitude": 39.94671,
    "category": "Lake",
    "subcategory": "Reservoir",
    "featured": false,
    "priority": 50
  },
  {
    "geonameId": 11816677,
    "name": "Kotira",
    "latitude": 1.60701,
    "longitude": 37.71281,
    "category": "Mountain",
    "subcategory": "Peak",
    "featured": false,
    "priority": 50
  },
  {
    "geonameId": 190406,
    "name": "Kotit Pass",
    "latitude": 1.63694,
    "longitude": 35.32176,
    "category": "Mountain",
    "subcategory": "Mountain Pass",
    "featured": false,
    "priority": 50
  },
  {
    "geonameId": 190381,
    "name": "Koyamo Island",
    "latitude": -0.23292,
    "longitude": 34.14688,
    "category": "Island",
    "subcategory": "Island",
    "featured": false,
    "priority": 50
  },
  {
    "geonameId": 191271,
    "name": "Ksite Island",
    "latitude": -4.71989,
    "longitude": 39.37191,
    "category": "Island",
    "subcategory": "Island",
    "featured": false,
    "priority": 50
  },
  {
    "geonameId": 200853,
    "name": "Kubi Aro",
    "latitude": 0.58739,
    "longitude": 38.23093,
    "category": "Mountain",
    "subcategory": "Mountain",
    "featured": false,
    "priority": 50
  },
  {
    "geonameId": 190356,
    "name": "Kubichafa",
    "latitude": 0.6537,
    "longitude": 37.93193,
    "category": "Mountain",
    "subcategory": "Mountain",
    "featured": false,
    "priority": 50
  },
  {
    "geonameId": 11881611,
    "name": "Kubisera",
    "latitude": 0.44359,
    "longitude": 38.17839,
    "category": "Mountain",
    "subcategory": "Mountain",
    "featured": false,
    "priority": 50
  },
  {
    "geonameId": 190332,
    "name": "Kudulem",
    "latitude": 1.89715,
    "longitude": 35.09131,
    "category": "Mountain",
    "subcategory": "Mountain",
    "featured": false,
    "priority": 50
  },
  {
    "geonameId": 190322,
    "name": "Kui Island",
    "latitude": -1.82448,
    "longitude": 41.43791,
    "category": "Island",
    "subcategory": "Island",
    "featured": false,
    "priority": 50
  },
  {
    "geonameId": 11881460,
    "name": "Kuli Turkana",
    "latitude": 0.57724,
    "longitude": 38.20198,
    "category": "Mountain",
    "subcategory": "Mountain",
    "featured": false,
    "priority": 50
  },
  {
    "geonameId": 190297,
    "name": "Kulikila",
    "latitude": -3.71469,
    "longitude": 38.67038,
    "category": "Mountain",
    "subcategory": "Mountain",
    "featured": false,
    "priority": 50
  },
  {
    "geonameId": 190293,
    "name": "Kulusasya",
    "latitude": 0.55762,
    "longitude": 37.99518,
    "category": "Mountain",
    "subcategory": "Mountain",
    "featured": false,
    "priority": 50
  },
  {
    "geonameId": 190275,
    "name": "Kumokoi Koitoboss",
    "latitude": 1.12409,
    "longitude": 34.60248,
    "category": "Mountain",
    "subcategory": "Peak",
    "featured": false,
    "priority": 50
  },