[
  {
    "geonameId": 3575551,
    "name": "Basseterre",
    "latitude": 17.2955,
    "longitude": -62.72499,
    "category": "City",
    "subcategory": "Capital",
    "featured": false,
    "priority": 50
  },
  {
    "geonameId": 3575535,
    "name": "Booby Island",
    "latitude": 17.22681,
    "longitude": -62.61053,
    "category": "Island",
    "subcategory": "Island",
    "featured": false,
    "priority": 50
  },
  {
    "geonameId": 3575487,
    "name": "Cayon",
    "latitude": 17.35,
    "longitude": -62.73333,
    "category": "City",
    "subcategory": "Regional Capital",
    "featured": false,
    "priority": 50
  },
  {
    "geonameId": 3575479,
    "name": "Charlestown",
    "latitude": 17.13333,
    "longitude": -62.61667,
    "category": "City",
    "subcategory": "Regional Capital",
    "featured": false,
    "priority": 50
  },
  {
    "geonameId": 3575458,
    "name": "Cotton Ground",
    "latitude": 17.16667,
    "longitude": -62.61667,
    "category": "City",
    "subcategory": "Regional Capital",
    "featured": false,
    "priority": 50
  },
  {
    "geonameId": 3575441,
    "name": "Dieppe Bay Town",
    "latitude": 17.41473,
    "longitude": -62.8139,
    "category": "City",
    "subcategory": "Regional Capital",
    "featured": false,
    "priority": 50
  },
  {
    "geonameId": 3575423,
    "name": "Fig Tree",
    "latitude": 17.12623,
    "longitude": -62.60265,
    "category": "City",
    "subcategory": "Regional Capital",
    "featured": false,
    "priority": 50
  },
  {
    "geonameId": 3575392,
    "name": "Great Salt Pond",
    "latitude": 17.24369,
    "longitude": -62.64833,
    "category": "Lake",
    "subcategory": "Lake",
    "featured": false,
    "priority": 50
  },
  {
    "geonameId": 3575296,
    "name": "Market Shop",
    "latitude": 17.13218,
    "longitude": -62.57267,
    "category": "City",
    "subcategory": "Regional Capital",
    "featured": false,
    "priority": 50
  },
  {
    "geonameId": 3575292,
    "name": "Middle Island",
    "latitude": 17.3259,
    "longitude": -62.81055,
    "category": "City",
    "subcategory": "Regional Capital",
    "featured": false,
    "priority": 50
  },
  {
    "geonameId": 3575284,
    "name": "Monkey Hill",
    "latitude": 17.32327,
    "longitude": -62.72914,
    "category": "City",
    "subcategory": "Regional Capital",
    "featured": false,
    "priority": 50
  },
  {
    "geonameId": 3575325,
    "name": "Mount Liamuiga",
    "latitude": 17.36846,
    "longitude": -62.80296,
    "category": "Mountain",
    "subcategory": "Mountain",
    "featured": false,
    "priority": 50
  },
  {
    "geonameId": 3575263,
    "name": "Nevis",
    "latitude": 17.15249,
    "longitude": -62.58673,
    "category": "Island",
    "subcategory": "Island",
    "featured": false,
    "priority": 50
  },
  {
    "geonameId": 3575262,
    "name": "Nevis Peak",
    "latitude": 17.15047,
    "longitude": -62.58283,
    "category": "Mountain",
    "subcategory": "Mountain",
    "featured": false,
    "priority": 50
  },
  {
    "geonameId": 3575261,
    "name": "Newcastle",
    "latitude": 17.2,
    "longitude": -62.58333,
    "category": "City",
    "subcategory": "Regional Capital",
    "featured": false,
    "priority": 50
  },
  {
    "geonameId": 3575251,
    "name": "Nicola Town",
    "latitude": 17.37956,
    "longitude": -62.75318,
    "category": "City",
    "subcategory": "Regional Capital",
    "featured": false,
    "priority": 50
  },
  {
    "geonameId": 3575237,
    "name": "Olivees Mountain",
    "latitude": 17.32626,
    "longitude": -62.75575,
    "category": "Mountain",
    "subcategory": "Mountain",
    "featured": false,
    "priority": 50
  },
  {
    "geonameId": 3575190,
    "name": "Round Hill",
    "latitude": 17.19453,
    "longitude": -62.60309,
    "category": "Mountain",
    "subcategory": "Mountain",
    "featured": false,
    "priority": 50
  },
  {
    "geonameId": 3575187,
    "name": "Saddle Hill",
    "latitude": 17.11818,
    "longitude": -62.57736,
    "category": "Mountain",
    "subcategory": "Mountain",
    "featured": false,
    "priority": 50
  },
  {
    "geonameId": 3575181,
    "name": "Saint Kitts",
    "latitude": 17.33653,
    "longitude": -62.75769,
    "category": "Island",
    "subcategory": "Island",
    "featured": false,
    "priority": 50
  },
  {
    "geonameId": 3575170,
    "name": "Saint Paul’s",
    "latitude": 17.40605,
    "longitude": -62.83562,
    "category": "City",
    "subcategory": "Regional Capital",
    "featured": false,
    "priority": 50
  },
  {
    "geonameId": 3575156,
    "name": "Sandy Point Town",
    "latitude": 17.35908,
    "longitude": -62.84858,
    "category": "City",
    "subcategory": "Regional Capital",
    "featured": false,
    "priority": 50
  },
  {
    "geonameId": 3575098,
    "name": "The Weir",
    "latitude": 17.33333,
    "longitude": -62.76667,
    "category": "Mountain",
    "subcategory": "Mountain",
    "featured": false,
    "priority": 50
  },
  {
    "geonameId": 3575115,
    "name": "Trinity",
    "latitude": 17.30037,
    "longitude": -62.77584,
    "category": "City",
    "subcategory": "Regional Capital",
    "featured": false,
    "priority": 50
  },
  {
    "geonameId": 3575104,
    "name": "Verchilds Mountain",
    "latitude": 17.35543,
    "longitude": -62.78485,
    "category": "Mountain",
    "subcategory": "Mountain",
    "featured": false,
    "priority": 50
  }
]