[
  {
    "geonameId": 2045376,
    "name": "A-bong",
    "latitude": 40.22816,
    "longitude": 125.52636,
    "category": "Mountain",
    "subcategory": "Peak",
    "featured": false,
    "priority": 50
  },
  {
    "geonameId": 1879737,
    "name": "Adal-san",
    "latitude": 38.92667,
    "longitude": 126.28484,
    "category": "Mountain",
    "subcategory": "Mountain",
    "featured": false,
    "priority": 50
  },
  {
    "geonameId": 1879731,
    "name": "Ae-do",
    "latitude": 39.52361,
    "longitude": 125.20194,
    "category": "Island",
    "subcategory": "Island",
    "featured": false,
    "priority": 50
  },
  {
    "geonameId": 1879727,
    "name": "Ae-hyŏn",
    "latitude": 39.74306,
    "longitude": 124.83361,
    "category": "Mountain",
    "subcategory": "Mountain Pass",
    "featured": false,
    "priority": 50
  },
  {
    "geonameId": 13587746,
    "name": "Aegibawi",
    "latitude": 38.08182,
    "longitude": 126.56865,
    "category": "Mountain",
    "subcategory": "Mountain",
    "featured": false,
    "priority": 50
  },
  {
    "geonameId": 2045370,
    "name": "Aemul-lyŏng",
    "latitude": 40.86472,
    "longitude": 126.67778,
    "category": "Mountain",
    "subcategory": "Mountain Pass",
    "featured": false,
    "priority": 50
  },
  {
    "geonameId": 1879716,
    "name": "Ahobi-ryŏng",
    "latitude": 39.16631,
    "longitude": 127.07029,
    "category": "Mountain",
    "subcategory": "Mountain Pass",
    "featured": false,
    "priority": 50
  },
  {
    "geonameId": 2049093,
    "name": "Ahomi-bong",
    "latitude": 40.25943,
    "longitude": 125.73335,
    "category": "Mountain",
    "subcategory": "Mountain",
    "featured": false,
    "priority": 50
  },
  {
    "geonameId": 2045369,
    "name": "Ahomi-ryŏng",
    "latitude": 40.25821,
    "longitude": 125.74465,
    "category": "Mountain",
    "subcategory": "Mountain Pass",
    "featured": false,
    "priority": 50
  },
  {
    "geonameId": 6274142,
    "name": "Ahop-kogae",
    "latitude": 38.11118,
    "longitude": 124.81547,
    "category": "Mountain",
    "subcategory": "Mountain Pass",
    "featured": false,
    "priority": 50
  },
  {
    "geonameId": 1949956,
    "name": "Ahopkol-gogae",
    "latitude": 38.86139,
    "longitude": 126.07139,
    "category": "Mountain",
    "subcategory": "Mountain Pass",
    "featured": false,
    "priority": 50
  },
  {
    "geonameId": 6398612,
    "name": "Ahopsari-gogae",
    "latitude": 41.55618,
    "longitude": 127.10211,
    "category": "Mountain",
    "subcategory": "Mountain Pass",
    "featured": false,
    "priority": 50
  },
  {
    "geonameId": 6366989,
    "name": "Ahopsari-san",
    "latitude": 39.3925,
    "longitude": 126.97444,
    "category": "Mountain",
    "subcategory": "Mountain",
    "featured": false,
    "priority": 50
  },
  {
    "geonameId": 13653775,
    "name": "Ahŭnahop-kogae",
    "latitude": 38.32351,
    "longitude": 126.27748,
    "category": "Mountain",
    "subcategory": "Mountain Pass",
    "featured": false,
    "priority": 50
  },
  {
    "geonameId": 1947688,
    "name": "Ahŭpkubul-gogae",
    "latitude": 38.14417,
    "longitude": 126.20639,
    "category": "Mountain",
    "subcategory": "Mountain Pass",
    "featured": false,
    "priority": 50
  },
  {
    "geonameId": 13519781,
    "name": "Ahyŏn-gogae",
    "latitude": 38.68615,
    "longitude": 127.6501,
    "category": "Mountain",
    "subcategory": "Mountain Pass",
    "featured": false,
    "priority": 50
  },
  {
    "geonameId": 13616840,
    "name": "Ak'i-bong",
    "latitude": 38.6597,
    "longitude": 126.10793,
    "category": "Mountain",
    "subcategory": "Peak",
    "featured": false,
    "priority": 50
  },
  {
    "geonameId": 6305272,
    "name": "Aktae-bong",
    "latitude": 42.31796,
    "longitude": 129.99134,
    "category": "Mountain",
    "subcategory": "Peak",
    "featured": false,
    "priority": 50
  },
  {
    "geonameId": 1873655,
    "name": "Al-sŏm",
    "latitude": 39.00389,
    "longitude": 128.08861,
    "category": "Island",
    "subcategory": "Island",
    "featured": false,
    "priority": 50
  },
  {
    "geonameId": 13304402,
    "name": "Alchi-bong",
    "latitude": 41.65508,
    "longitude": 126.82365,
    "category": "Mountain",
    "subcategory": "Mountain",
    "featured": false,
    "priority": 50
  },
  {
    "geonameId": 13643758,
    "name": "Almang-gogae",
    "latitude": 38.37931,
    "longitude": 126.46761,
    "category": "Mountain",
    "subcategory": "Mountain Pass",
    "featured": false,
    "priority": 50
  },
  {
    "geonameId": 6279119,
    "name": "Alp’uri-sŏm",
    "latitude": 39.87944,
    "longitude": 124.35028,
    "category": "Island",
    "subcategory": "Island",
    "featured": false,
    "priority": 50
  },
  {
    "geonameId": 6305335,
    "name": "Altong-nyŏng",
    "latitude": 42.03663,
    "longitude": 129.88539,
    "category": "Mountain",
    "subcategory": "Mountain Pass",
    "featured": false,
    "priority": 50
  },
  {
    "geonameId": 1879684,
    "name": "Am-san",
    "latitude": 39.77333,
    "longitude": 124.80861,
    "category": "Mountain",
    "subcategory": "Mountain",
    "featured": false,
    "priority": 50
  },
  {
    "geonameId": 6383841,
    "name": "Ambanggol-lyŏng",
    "latitude": 40.69846,
    "longitude": 128.34248,
    "category": "Mountain",
    "subcategory": "Mountain Pass",
    "featured": false,
    "priority": 50
  },
  {
    "geonameId": 6282652,
    "name": "Amhoe-gogae",
    "latitude": 40.96527,
    "longitude": 126.09362,
    "category": "Mountain",
    "subcategory": "Mountain Pass",
    "featured": false,
    "priority": 50
  },
  {
    "geonameId": 1948515,
    "name": "Amhoemak-pong",
    "latitude": 38.44444,
    "longitude": 127.48028,
    "category": "Mountain",
    "subcategory": "Peak",
    "featured": false,
    "priority": 50
  },
  {
    "geonameId": 2045359,
    "name": "Ami-san",
    "latitude": 40.27239,
    "longitude": 126.7624,
    "category": "Mountain",
    "subcategory": "Mountain",
    "featured": false,
    "priority": 50
  },
  {
    "geonameId": 13573357,
    "name": "Amja-gogae",
    "latitude": 38.65306,
    "longitude": 126.61352,
    "category": "Mountain",
    "subcategory": "Mountain Pass",
    "featured": false,
    "priority": 50
  },
  {
    "geonameId": 13540237,
    "name": "Amso-gogae",
    "latitude": 38.74937,
    "longitude": 127.19318,
    "category": "Mountain",
    "subcategory": "Mountain Pass",
    "featured": false,
    "priority": 50
  },
  {
    "geonameId": 13545841,
    "name": "Amu-ryŏng",
    "latitude": 41.52584,
    "longitude": 128.64039,
    "category": "Mountain",
    "subcategory": "Mountain Pass",
    "featured": false,
    "priority": 50
  },
  {
    "geonameId": 12108780,
    "name": "Amu-san",
    "latitude": 41.70655,
    "longitude": 128.52919,
    "category": "Mountain",
    "subcategory": "Mountain",
    "featured": false,
    "priority": 50
  },
  {
    "geonameId": 1879591,
    "name": "An-sŏm",
    "latitude": 39.73333,
    "longitude": 124.8,
    "category": "Island",
    "subcategory": "Island",
    "featured": false,
    "priority": 50
  },
  {
    "geonameId": 13550445,
    "name": "An'gaeul-gogae",
    "latitude": 38.55134,
    "longitude": 126.91429,
    "category": "Mountain",
    "subcategory": "Mountain Pass",
    "featured": false,
    "priority": 50
  },
  {
    "geonameId": 2045343,
    "name": "An’gal-lyŏng",
    "latitude": 40.48208,
    "longitude": 127.57108,
    "category": "Mountain",
    "subcategory": "Mountain",
    "featured": false,
    "priority": 50
  },
  {
    "geonameId": 13489132,
    "name": "An'gil-chŏsuji",
    "latitude": 42.45515,
    "longitude": 130.23454,
    "category": "Lake",
    "subcategory": "Reservoir",
    "featured": false,
    "priority": 50
  },
  {
    "geonameId": 6302586,
    "name": "An’gol-chae",
    "latitude": 40.48668,
    "longitude": 127.23964,
    "category": "Mountain",
    "subcategory": "Mountain Pass",
    "featured": false,
    "priority": 50
  },
  {
    "geonameId": 6282511,
    "name": "An’gol-lyŏng",
    "latitude": 40.452,
    "longitude": 126.24365,
    "category": "Mountain",
    "subcategory": "Mountain Pass",
    "featured": false,
    "priority": 50
  },
  {
    "geonameId": 1879682,
    "name": "Anak",
    "latitude": 38.51083,
    "longitude": 125.49417,
    "category": "City",
    "subcategory": "City",
    "featured": false,
    "priority": 50
  },
  {
    "geonameId": 1927026,
    "name": "Anbae-ryŏng",
    "latitude": 38.70778,
    "longitude": 127.09,
    "category": "Mountain",
    "subcategory": "Mountain Pass",
    "featured": false,
    "priority": 50
  },
  {
    "geonameId": 1927027,
    "name": "Anbal-lyŏng",
    "latitude": 38.68639,
    "longitude": 127.13139,
    "category": "Mountain",
    "subcategory": "Mountain Pass",
    "featured": false,
    "priority": 50
  },
  {
    "geonameId": 2049992,
    "name": "Anban-dŏk",
    "latitude": 41.01833,
    "longitude": 128.97972,
    "category": "Mountain",
    "subcategory": "Mountain",
    "featured": false,
    "priority": 50
  },
  {
    "geonameId": 13558075,
    "name": "Anbong-jŏsuji",
    "latitude": 38.30079,
    "longitude": 126.79908,
    "category": "Lake",
    "subcategory": "Reservoir",
    "featured": false,
    "priority": 50
  },
  {
    "geonameId": 1879672,
    "name": "Anbyŏn-ŭp",
    "latitude": 39.0425,
    "longitude": 127.52389,
    "category": "City",
    "subcategory": "City",
    "featured": false,
    "priority": 50
  },
  {
    "geonameId": 2045356,
    "name": "Anch’al-lyŏng",
    "latitude": 41.03132,
    "longitude": 126.1935,
    "category": "Mountain",
    "subcategory": "Mountain Pass",
    "featured": false,
    "priority": 50
  },
  {
    "geonameId": 1867111,
    "name": "Anchor Hill",
    "latitude": 38.62194,
    "longitude": 128.305,
    "category": "Mountain",
    "subcategory": "Mountain",
    "featured": false,
    "priority": 50
  },
  {
    "geonameId": 13587707,
    "name": "Andal-bong",
    "latitude": 38.06713,
    "longitude": 126.58858,
    "category": "Mountain",
    "subcategory": "Peak",
    "featured": false,
    "priority": 50
  },
  {
    "geonameId": 2055626,
    "name": "Andol-san",
    "latitude": 40.44241,
    "longitude": 126.79072,
    "category": "Mountain",
    "subcategory": "Mountain",
    "featured": false,
    "priority": 50
  },
  {
    "geonameId": 6272831,
    "name": "Andolmang-nyŏng",
    "latitude": 39.79295,
    "longitude": 126.6068,
    "category": "Mountain",
    "subcategory": "Mountain Pass",
    "featured": false,
    "priority": 50
  },
  {
    "geonameId": 13542880,
    "name": "Andori-san",
    "latitude": 38.96384,
    "longitude": 126.7673,
    "category": "Mountain",
    "subcategory": "Mountain",
    "featured": false,
    "priority": 50
  },
  {
    "geonameId": 2045344,
    "name": "Andŭkpi-ryŏng",
    "latitude": 40.58444,
    "longitude": 128.21978,
    "category": "Mountain",
    "subcategory": "Mountain Pass",
    "featured": false,
    "priority": 50
  },
  {
    "geonameId": 2055012,
    "name": "Angt’o-ryŏng",
    "latitude": 40.82512,
    "longitude": 125.89572,
    "category": "Mountain",
    "subcategory": "Mountain Pass",
    "featured": false,
    "priority": 50
  },
  {
    "geonameId": 1879630,
    "name": "Anhŭng-jŏsuji",
    "latitude": 39.72111,
    "longitude": 125.26639,
    "category": "Lake",
    "subcategory": "Reservoir",
    "featured": false,
    "priority": 50
  },
  {
    "geonameId": 6305355,
    "name": "Anhyŏng-bong",
    "latitude": 42.2632,
    "longitude": 129.58794,
    "category": "Mountain",
    "subcategory": "Mountain",
    "featured": false,
    "priority": 50
  },
  {
    "geonameId": 12512170,
    "name": "Ani-jŏsuji",
    "latitude": 38.93738,
    "longitude": 127.44097,
    "category": "Lake",
    "subcategory": "Reservoir",
    "featured": false,
    "priority": 50
  },
  {
    "geonameId": 6305336,
    "name": "Anjae-ryŏng",
    "latitude": 42.23353,
    "longitude": 129.59996,
    "category": "Mountain",
    "subcategory": "Mountain Pass",
    "featured": false,
    "priority": 50
  },
  {
    "geonameId": 13558139,
    "name": "Anjang-bong",
    "latitude": 38.27616,
    "longitude": 126.98309,
    "category": "Mountain",
    "subcategory": "Peak",
    "featured": false,
    "priority": 50
  },
  {
    "geonameId": 6281880,
    "name": "Anjang-gogae",
    "latitude": 40.30146,
    "longitude": 125.21811,
    "category": "Mountain",
    "subcategory": "Mountain Pass",
    "featured": false,
    "priority": 50
  },
  {
    "geonameId": 1931686,
    "name": "Anjang-nyŏng",
    "latitude": 38.64654,
    "longitude": 128.01411,
    "category": "Mountain",
    "subcategory": "Mountain Pass",
    "featured": false,
    "priority": 50
  },
  {
    "geonameId": 13289373,
    "name": "Anjang-san",
    "latitude": 40.55279,
    "longitude": 125.38465,
    "category": "Mountain",
    "subcategory": "Mountain",
    "featured": false,
    "priority": 50
  },
  {
    "geonameId": 1879619,
    "name": "Anjang-sŏm",
    "latitude": 39.25778,
    "longitude": 127.54694,
    "category": "Island",
    "subcategory": "Island",
    "featured": false,
    "priority": 50
  },
  {
    "geonameId": 1879613,
    "name": "Anju",
    "latitude": 39.61778,
    "longitude": 125.66472,
    "category": "City",
    "subcategory": "City",
    "featured": false,
    "priority": 50
  },
  {
    "geonameId": 13578101,
    "name": "Annŏm-gogae",
    "latitude": 38.21999,
    "longitude": 126.51032,
    "category": "Mountain",
    "subcategory": "Mountain Pass",
    "featured": false,
    "priority": 50
  },
  {
    "geonameId": 6282781,
    "name": "Anp’ung-san",
    "latitude": 41.01596,
    "longitude": 126.45923,
    "category": "Mountain",
    "subcategory": "Mountain",
    "featured": false,
    "priority": 50
  },
  {
    "geonameId": 1879594,
    "name": "Ansim-gogae",
    "latitude": 39.8421,
    "longitude": 125.46633,
    "category": "Mountain",
    "subcategory": "Mountain Pass",
    "featured": false,
    "priority": 50
  },
  {
    "geonameId": 6302443,
    "name": "Ansim-nyŏng",
    "latitude": 40.07378,
    "longitude": 127.61459,
    "category": "Mountain",
    "subcategory": "Mountain Pass",
    "featured": false,
    "priority": 50
  },
  {
    "geonameId": 13629193,
    "name": "Ansin-dŏk",
    "latitude": 40.02581,
    "longitude": 124.82399,
    "category": "Mountain",
    "subcategory": "Mountain Pass",
    "featured": false,
    "priority": 50
  },
  {
    "geonameId": 6282768,
    "name": "Ansodu-ryŏng",
    "latitude": 41.10925,
    "longitude": 126.41469,
    "category": "Mountain",
    "subcategory": "Mountain Pass",
    "featured": false,
    "priority": 50
  },
  {
    "geonameId": 1879584,
    "name": "Ant’ae-gogae",
    "latitude": 39.96103,
    "longitude": 125.46198,
    "category": "Mountain",
    "subcategory": "Mountain Pass",
    "featured": false,
    "priority": 50
  },
  {
    "geonameId": 1879574,
    "name": "Anyung-gang",
    "latitude": 39.50528,
    "longitude": 125.39722,
    "category": "Mountain",
    "subcategory": "Mountain",
    "featured": false,
    "priority": 50
  },
  {
    "geonameId": 2045311,
    "name": "Aoji-ri",
    "latitude": 42.52182,
    "longitude": 130.39572,
    "category": "City",
    "subcategory": "City",
    "featured": false,
    "priority": 50
  },
  {
    "geonameId": 13519849,
    "name": "Ap-kogae",
    "latitude": 38.63948,
    "longitude": 127.60545,
    "category": "Mountain",
    "subcategory": "Mountain Pass",
    "featured": false,
    "priority": 50
  },
  {
    "geonameId": 2045310,
    "name": "Aphae-san",
    "latitude": 40.12575,
    "longitude": 128.29563,
    "category": "Mountain",
    "subcategory": "Mountain",
    "featured": false,
    "priority": 50
  },
  {
    "geonameId": 13540159,
    "name": "Aptang-san",
    "latitude": 38.78766,
    "longitude": 127.16471,
    "category": "Mountain",
    "subcategory": "Mountain",
    "featured": false,
    "priority": 50
  },
  {
    "geonameId": 6281150,
    "name": "Apturung-bong",
    "latitude": 40.27522,
    "longitude": 126.97389,
    "category": "Mountain",
    "subcategory": "Mountain",
    "featured": false,
    "priority": 50
  },
  {
    "geonameId": 13519857,
    "name": "Arae-gogae",
    "latitude": 38.6521,
    "longitude": 127.61373,
    "category": "Mountain",
    "subcategory": "Mountain Pass",
    "featured": false,
    "priority": 50
  },
  {
    "geonameId": 13623732,
    "name": "Araegaksi-ryŏng",
    "latitude": 39.82474,
    "longitude": 124.72552,
    "category": "Mountain",
    "subcategory": "Mountain Pass",
    "featured": false,
    "priority": 50
  },
  {
    "geonameId": 1909816,
    "name": "Araegi-do",
    "latitude": 37.80917,
    "longitude": 124.95083,
    "category": "Island",
    "subcategory": "Island Group",
    "featured": false,
    "priority": 50
  },
  {
    "geonameId": 13519793,
    "name": "Araenŏmŏgol-gogae",
    "latitude": 38.65893,
    "longitude": 127.6605,
    "category": "Mountain",
    "subcategory": "Mountain Pass",
    "featured": false,
    "priority": 50
  },
  {
    "geonameId": 1879548,
    "name": "Aril-lyŏng",
    "latitude": 39.72044,
    "longitude": 126.10544,
    "category": "Mountain",
    "subcategory": "Mountain Pass",
    "featured": false,
    "priority": 50
  },
  {
    "geonameId": 6280962,
    "name": "Arong-san",
    "latitude": 40.315,
    "longitude": 126.35333,
    "category": "Mountain",
    "subcategory": "Mountain",
    "featured": false,
    "priority": 50
  },
  {
    "geonameId": 1879546,
    "name": "Asa-bong",
    "latitude": 38.45164,
    "longitude": 125.28952,
    "category": "Mountain",
    "subcategory": "Mountain",
    "featured": false,
    "priority": 50
  },
  {
    "geonameId": 13523844,
    "name": "Asan-gogae",
    "latitude": 38.96915,
    "longitude": 127.81218,
    "category": "Mountain",
    "subcategory": "Mountain Pass",
    "featured": false,
    "priority": 50
  },
  {
    "geonameId": 1879544,
    "name": "Ayang-ni",
    "latitude": 38.24719,
    "longitude": 125.79476,
    "category": "City",
    "subcategory": "City",
    "featured": false,
    "priority": 50
  },
  {
    "geonameId": 2045297,
    "name": "Ayangdŏgi-gogae",
    "latitude": 41.75092,
    "longitude": 129.55474,
    "category": "Mountain",
    "subcategory": "Mountain Pass",
    "featured": false,
    "priority": 50
  },
  {
    "geonameId": 13550429,
    "name": "Bong-san",
    "latitude": 38.53955,
    "longitude": 126.92486,
    "category": "Mountain",
    "subcategory": "Mountain",
    "featured": false,
    "priority": 50
  },
  {
    "geonameId": 13629210,
    "name": "Ch'a-bong",
    "latitude": 40.01929,
    "longitude": 124.96968,
    "category": "Mountain",
    "subcategory": "Mountain",
    "featured": false,
    "priority": 50
  },
  {
    "geonameId": 6281520,
    "name": "Ch’a-bong",
    "latitude": 40.67424,
    "longitude": 125.59242,
    "category": "Mountain",
    "subcategory": "Peak",
    "featured": false,
    "priority": 50
  },
  {
    "geonameId": 1879007,
    "name": "Ch’a-ryŏng",
    "latitude": 39.36667,
    "longitude": 126.61519,
    "category": "Mountain",
    "subcategory": "Mountain Pass",
    "featured": false,
    "priority": 50
  },
  {
    "geonameId": 13587656,
    "name": "Ch'adol-gogae",
    "latitude": 38.01591,
    "longitude": 126.64371,
    "category": "Mountain",
    "subcategory": "Mountain Pass",
    "featured": false,
    "priority": 50
  },
  {
    "geonameId": 1948994,
    "name": "Ch’adol-gogae",
    "latitude": 38.10595,
    "longitude": 126.68042,
    "category": "Mountain",
    "subcategory": "Mountain Pass",
    "featured": false,
    "priority": 50
  },
  {
    "geonameId": 6272691,
    "name": "Ch’ae-ryŏng",
    "latitude": 39.77636,
    "longitude": 127.03544,
    "category": "Mountain",
    "subcategory": "Mountain Pass",
    "featured": false,
    "priority": 50
  },
  {
    "geonameId": 13540202,
    "name": "Ch'ae-san",
    "latitude": 38.7618,
    "longitude": 127.14915,
    "category": "Mountain",
    "subcategory": "Mountain",
    "featured": false,
    "priority": 50
  },
  {
    "geonameId": 6282665,
    "name": "Ch’aebong-nyŏng",
    "latitude": 40.91683,
    "longitude": 126.11374,
    "category": "Mountain",
    "subcategory": "Mountain Pass",
    "featured": false,
    "priority": 50
  },
  {
    "geonameId": 6383750,
    "name": "Ch’aedalgol-lyŏng",
    "latitude": 40.88028,
    "longitude": 128.15278,
    "category": "Mountain",
    "subcategory": "Mountain Pass",
    "featured": false,
    "priority": 50
  },
  {
    "geonameId": 13540279,
    "name": "Ch'aegaegoltŭng",
    "latitude": 38.79773,
    "longitude": 127.24521,
    "category": "Mountain",
    "subcategory": "Peak",
    "featured": false,
    "priority": 50
  },
  {
    "geonameId": 1879518,
    "name": "Ch’aegam-san",
    "latitude": 38.11917,
    "longitude": 125.65889,
    "category": "Mountain",
    "subcategory": "Peak",
    "featured": false,
    "priority": 50
  },
  {
    "geonameId": 1879507,
    "name": "Ch’aeha-bong",
    "latitude": 38.64104,
    "longitude": 128.15086,
    "category": "Mountain",
    "subcategory": "Peak",
    "featured": false,
    "priority": 50
  },
  {
    "geonameId": 1879502,
    "name": "Ch’aek-to",
    "latitude": 39.68272,
    "longitude": 124.43905,
    "category": "Island",
    "subcategory": "Island",
    "featured": false,
    "priority": 50
  },
  {
    "geonameId": 13106664,
    "name": "Ch'aeryŏng-bong",
    "latitude": 39.76813,
    "longitude": 127.04797,
    "category": "Mountain",
    "subcategory": "Peak",
    "featured": false,
    "priority": 50
  },
  {
    "geonameId": 2045250,
    "name": "Ch’aho-ryŏng",
    "latitude": 41.26577,
    "longitude": 129.7127,
    "category": "Mountain",
    "subcategory": "Mountain Pass",
    "featured": false,
    "priority": 50
  },
  {
    "geonameId": 12545099,
    "name": "Ch'ail-bong",
    "latitude": 39.73369,
    "longitude": 126.31491,
    "category": "Mountain",
    "subcategory": "Peak",
    "featured": false,
    "priority": 50
  },
  {
    "geonameId": 1879439,
    "name": "Ch’ail-bong",
    "latitude": 38.61283,
    "longitude": 128.11585,
    "category": "Mountain",
    "subcategory": "Peak",
    "featured": false,
    "priority": 50
  },
  {
    "geonameId": 1871544,
    "name": "Ch’amch’a-do",
    "latitude": 39.41518,
    "longitude": 124.72297,
    "category": "Island",
    "subcategory": "Island",
    "featured": false,
    "priority": 50
  },
  {
    "geonameId": 1888965,
    "name": "Ch’amdol-gogae",
    "latitude": 39.25964,
    "longitude": 126.79432,
    "category": "Mountain",
    "subcategory": "Mountain Pass",
    "featured": false,
    "priority": 50
  },
  {
    "geonameId": 13587511,
    "name": "Ch'amnam-san",
    "latitude": 38.54348,
    "longitude": 126.54566,
    "category": "Mountain",
    "subcategory": "Mountain",
    "featured": false,
    "priority": 50
  },
  {
    "geonameId": 13540324,
    "name": "Ch'amnamu-gogae",
    "latitude": 38.77771,
    "longitude": 127.06873,
    "category": "Mountain",
    "subcategory": "Mountain Pass",
    "featured": false,
    "priority": 50
  },
  {
    "geonameId": 6282322,
    "name": "Ch’amnamudŏk",
    "latitude": 40.35604,
    "longitude": 125.52353,
    "category": "Mountain",
    "subcategory": "Mountain Pass",
    "featured": false,
    "priority": 50
  },
  {
    "geonameId": 13529141,
    "name": "Ch'amnamujŏng",
    "latitude": 38.51365,
    "longitude": 128.11239,
    "category": "Mountain",
    "subcategory": "Mountain",
    "featured": false,
    "priority": 50
  },
  {
    "geonameId": 13656756,
    "name": "Ch'amsae-gogae",
    "latitude": 39.81522,
    "longitude": 125.64507,
    "category": "Mountain",
    "subcategory": "Mountain Pass",
    "featured": false,
    "priority": 50
  },
  {
    "geonameId": 13587483,
    "name": "Ch'amt'ŏ-gol-gogae",
    "latitude": 38.50361,
    "longitude": 126.62711,
    "category": "Mountain",
    "subcategory": "Mountain Pass",
    "featured": false,
    "priority": 50
  },
  {
    "geonameId": 6305746,
    "name": "Ch’ang-bong",
    "latitude": 42.55387,
    "longitude": 130.26714,
    "category": "Mountain",
    "subcategory": "Mountain",
    "featured": false,
    "priority": 50
  },
  {
    "geonameId": 1879144,
    "name": "Ch’ang-gogae",
    "latitude": 39.87522,
    "longitude": 125.29303,
    "category": "Mountain",
    "subcategory": "Mountain Pass",
    "featured": false,
    "priority": 50
  },
  {
    "geonameId": 6272281,
    "name": "Ch’ang-nyŏng",
    "latitude": 40.60139,
    "longitude": 128.97389,
    "category": "Mountain",
    "subcategory": "Mountain Pass",
    "featured": false,
    "priority": 50
  },
  {
    "geonameId": 12785831,
    "name": "Ch'angam-san",
    "latitude": 40.49366,
    "longitude": 125.41577,
    "category": "Mountain",
    "subcategory": "Mountain",
    "featured": false,
    "priority": 50
  },
  {
    "geonameId": 1947436,
    "name": "Ch’angbau-san",
    "latitude": 38.09278,
    "longitude": 125.85389,
    "category": "Mountain",
    "subcategory": "Mountain",
    "featured": false,
    "priority": 50
  },
  {
    "geonameId": 13628995,
    "name": "Ch'angbawi-gogae",
    "latitude": 38.64464,
    "longitude": 125.94587,
    "category": "Mountain",
    "subcategory": "Mountain Pass",
    "featured": false,
    "priority": 50
  },
  {
    "geonameId": 6282261,
    "name": "Ch’angch’ang-bong",
    "latitude": 40.18663,
    "longitude": 125.54852,
    "category": "Mountain",
    "subcategory": "Peak",
    "featured": false,
    "priority": 50
  },
  {
    "geonameId": 2045210,
    "name": "Ch’angch’ang-san",
    "latitude": 40.19556,
    "longitude": 125.31167,
    "category": "Mountain",
    "subcategory": "Mountain",
    "featured": false,
    "priority": 50
  },
  {
    "geonameId": 13656722,
    "name": "Ch'angdŏk-chŏsuji",
    "latitude": 39.75962,
    "longitude": 125.63172,
    "category": "Lake",
    "subcategory": "Reservoir",
    "featured": false,
    "priority": 50
  },
  {
    "geonameId": 6383821,
    "name": "Ch’angdong-nyŏng",
    "latitude": 40.51562,
    "longitude": 128.2717,
    "category": "Mountain",
    "subcategory": "Mountain Pass",
    "featured": false,
    "priority": 50
  },
  {
    "geonameId": 13522949,
    "name": "Ch'angdorigup'al-lyŏng",
    "latitude": 38.49308,
    "longitude": 127.62315,
    "category": "Mountain",
    "subcategory": "Mountain Pass",
    "featured": false,
    "priority": 50
  },
  {
    "geonameId": 6305361,
    "name": "Ch’angdu-ryŏng",
    "latitude": 42.29556,
    "longitude": 129.80333,
    "category": "Mountain",
    "subcategory": "Mountain Pass",
    "featured": false,
    "priority": 50
  },
  {
    "geonameId": 2052056,
    "name": "Ch’angdwi-gogae",
    "latitude": 40.51088,
    "longitude": 128.42827,
    "category": "Mountain",
    "subcategory": "Mountain Pass",
    "featured": false,
    "priority": 50
  },
  {
    "geonameId": 2051736,
    "name": "Ch’anggol-lyŏng",
    "latitude": 41.84774,
    "longitude": 129.81356,
    "category": "Mountain",
    "subcategory": "Mountain Pass",
    "featured": false,
    "priority": 50
  },
  {
    "geonameId": 1879263,
    "name": "Ch’anggŏm-san",
    "latitude": 38.10611,
    "longitude": 125.79861,
    "category": "Mountain",
    "subcategory": "Mountain",
    "featured": false,
    "priority": 50
  },
  {
    "geonameId": 2045150,
    "name": "Ch’anghu-bong",
    "latitude": 40.52108,
    "longitude": 125.17525,
    "category": "Mountain",
    "subcategory": "Peak",
    "featured": false,
    "priority": 50
  },
  {
    "geonameId": 1948629,
    "name": "Ch’anghu-ryŏng",
    "latitude": 39.87703,
    "longitude": 126.4496,
    "category": "Mountain",
    "subcategory": "Mountain Pass",
    "featured": false,
    "priority": 50
  },
  {
    "geonameId": 1879136,
    "name": "Ch’angmok-san",
    "latitude": 39.44196,
    "longitude": 127.06231,
    "category": "Mountain",
    "subcategory": "Mountain",
    "featured": false,
    "priority": 50
  },
  {
    "geonameId": 2054566,
    "name": "Ch’angnam-san",
    "latitude": 41.29722,
    "longitude": 126.81528,
    "category": "Mountain",
    "subcategory": "Mountain",
    "featured": false,
    "priority": 50
  },
  {
    "geonameId": 1879123,
    "name": "Ch’angnin-do",
    "latitude": 37.80541,
    "longitude": 125.16575,
    "category": "Island",
    "subcategory": "Island",
    "featured": false,
    "priority": 50
  },
  {
    "geonameId": 13467307,
    "name": "Ch'angp'yŏng-gogae",
    "latitude": 42.83582,
    "longitude": 129.94112,
    "category": "Mountain",
    "subcategory": "Mountain Pass",
    "featured": false,
    "priority": 50
  },
  {
    "geonameId": 2045052,
    "name": "Ch’angp’yŏng-nyŏng",
    "latitude": 41.65938,
    "longitude": 128.70914,
    "category": "Mountain",
    "subcategory": "Mountain Pass",
    "featured": false,
    "priority": 50
  },
  {
    "geonameId": 13629124,
    "name": "Ch'angsŏng-gogae",
    "latitude": 40.10314,
    "longitude": 124.98752,
    "category": "Mountain",
    "subcategory": "Mountain Pass",
    "featured": false,
    "priority": 50
  },
  {
    "geonameId": 1952894,
    "name": "Ch’ap’a-ryŏng",
    "latitude": 39.31778,
    "longitude": 127.26139,
    "category": "Mountain",
    "subcategory": "Mountain Pass",
    "featured": false,
    "priority": 50
  },
  {
    "geonameId": 13519094,
    "name": "Ch'ap'yŏng-san",
    "latitude": 40.26645,
    "longitude": 125.83621,
    "category": "Mountain",
    "subcategory": "Mountain",
    "featured": false,
    "priority": 50
  },
  {
    "geonameId": 6366450,
    "name": "Ch’ari-san",
    "latitude": 38.60528,
    "longitude": 126.3375,
    "category": "Mountain",
    "subcategory": "Mountain",
    "featured": false,
    "priority": 50
  },
  {
    "geonameId": 1950813,
    "name": "Ch’asu-ryŏng",
    "latitude": 39.2944,
    "longitude": 125.60962,
    "category": "Mountain",
    "subcategory": "Mountain Pass",
    "featured": false,
    "priority": 50
  },
  {
    "geonameId": 1878990,
    "name": "Ch’au-ryŏng",
    "latitude": 39.96417,
    "longitude": 124.82306,
    "category": "Mountain",
    "subcategory": "Mountain Pass",
    "featured": false,
    "priority": 50
  },
  {
    "geonameId": 2045003,
    "name": "Ch’ayu-bong",
    "latitude": 42.17351,
    "longitude": 129.49291,
    "category": "Mountain",
    "subcategory": "Mountain",
    "featured": false,
    "priority": 50
  },
  {
    "geonameId": 1878980,
    "name": "Ch’ayu-ryŏng",
    "latitude": 38.43305,
    "longitude": 125.22982,
    "category": "Mountain",
    "subcategory": "Mountain Pass",
    "featured": false,
    "priority": 50
  },
  {
    "geonameId": 1950870,
    "name": "Ch’e-bong",
    "latitude": 39.38213,
    "longitude": 125.66572,
    "category": "Mountain",
    "subcategory": "Peak",
    "featured": false,
    "priority": 50
  },
  {
    "geonameId": 1878944,
    "name": "Ch’iak-san",
    "latitude": 38.00167,
    "longitude": 126.29278,
    "category": "Mountain",
    "subcategory": "Mountain",
    "featured": false,
    "priority": 50
  },
  {
    "geonameId": 2044987,
    "name": "Ch’iam-san",
    "latitude": 40.53058,
    "longitude": 125.29252,
    "category": "Mountain",
    "subcategory": "Mountain",
    "featured": false,
    "priority": 50
  },
  {
    "geonameId": 13523907,
    "name": "Ch'igung-gogae",
    "latitude": 38.97394,
    "longitude": 127.86752,
    "category": "Mountain",
    "subcategory": "Mountain Pass",
    "featured": false,
    "priority": 50
  },
  {
    "geonameId": 6269789,
    "name": "Ch’igyŏng-hyŏn",
    "latitude": 39.46745,
    "longitude": 125.80804,
    "category": "Mountain",
    "subcategory": "Mountain Pass",
    "featured": false,
    "priority": 50
  },
  {
    "geonameId": 13655243,
    "name": "Ch'iksanŏmi-gogae",
    "latitude": 38.49732,
    "longitude": 126.13135,
    "category": "Mountain",
    "subcategory": "Mountain Pass",
    "featured": false,
    "priority": 50
  },
  {
    "geonameId": 1888390,
    "name": "Ch’il-gogae",
    "latitude": 39.2125,
    "longitude": 126.31389,
    "category": "Mountain",
    "subcategory": "Mountain Pass",
    "featured": false,
    "priority": 50
  },
  {
    "geonameId": 2050674,
    "name": "Ch’ilban-san",
    "latitude": 41.15333,
    "longitude": 128.46194,
    "category": "Mountain",
    "subcategory": "Mountain",
    "featured": false,
    "priority": 50
  },
  {
    "geonameId": 1931898,
    "name": "Ch’ilbo-am",
    "latitude": 38.61585,
    "longitude": 128.14735,
    "category": "Mountain",
    "subcategory": "Peak",
    "featured": false,
    "priority": 50
  },
  {
    "geonameId": 1878880,
    "name": "Ch’ilbo-dae",
    "latitude": 38.61654,
    "longitude": 128.14109,
    "category": "Mountain",
    "subcategory": "Peak",
    "featured": false,
    "priority": 50
  },
  {
    "geonameId": 2044812,
    "name": "Ch’ilbo-san",
    "latitude": 41.04043,
    "longitude": 129.61481,
    "category": "Mountain",
    "subcategory": "Mountain",
    "featured": false,
    "priority": 50
  },
  {
    "geonameId": 1949868,
    "name": "Ch'ilbong-san",
    "latitude": 38.94753,
    "longitude": 126.25514,
    "category": "Mountain",
    "subcategory": "Mountain",
    "featured": false,
    "priority": 50
  },
  {
    "geonameId": 13515841,
    "name": "Ch'ilchŭng-am",
    "latitude": 38.71402,
    "longitude": 128.11288,
    "category": "Mountain",
    "subcategory": "Peak",
    "featured": false,
    "priority": 50
  },
  {
    "geonameId": 13587860,
    "name": "Ch'illŭng-gogae",
    "latitude": 37.98588,
    "longitude": 126.49925,
    "category": "Mountain",
    "subcategory": "Mountain Pass",
    "featured": false,
    "priority": 50
  },
  {
    "geonameId": 13515891,
    "name": "Ch'ilsŏng-bong",
    "latitude": 38.65347,
    "longitude": 128.08802,
    "category": "Mountain",
    "subcategory": "Peak",
    "featured": false,
    "priority": 50
  },
  {
    "geonameId": 2044926,
    "name": "Ch’ilsŏng-bong",
    "latitude": 40.77419,
    "longitude": 125.98154,
    "category": "Mountain",
    "subcategory": "Mountain",
    "featured": false,
    "priority": 50
  },
  {
    "geonameId": 13607364,
    "name": "Ch'ilsŏngdae-gogae",
    "latitude": 38.82532,
    "longitude": 126.42157,
    "category": "Mountain",
    "subcategory": "Mountain Pass",
    "featured": false,
    "priority": 50
  },
  {
    "geonameId": 1878856,
    "name": "Ch’iltae-bong",
    "latitude": 39.4697,
    "longitude": 127.05275,
    "category": "Mountain",
    "subcategory": "Peak",
    "featured": false,
    "priority": 50
  },
  {
    "geonameId": 2041643,
    "name": "Ch’im-bong",
    "latitude": 41.17417,
    "longitude": 128.52,
    "category": "Mountain",
    "subcategory": "Peak",
    "featured": false,
    "priority": 50
  },
  {
    "geonameId": 1952202,
    "name": "Ch’ima-dae",
    "latitude": 39.05778,
    "longitude": 126.76306,
    "category": "Mountain",
    "subcategory": "Mountain",
    "featured": false,
    "priority": 50
  },
  {
    "geonameId": 7541002,
    "name": "Ch’ima-dŏk",
    "latitude": 41.08378,
    "longitude": 128.82232,
    "category": "Mountain",
    "subcategory": "Mountain",
    "featured": false,
    "priority": 50
  },
  {
    "geonameId": 13574918,
    "name": "Ch'ima-gol-gogae",
    "latitude": 38.50917,
    "longitude": 126.69598,
    "category": "Mountain",
    "subcategory": "Mountain Pass",
    "featured": false,
    "priority": 50
  },
  {
    "geonameId": 13560329,
    "name": "Ch'ima-san",
    "latitude": 38.44177,
    "longitude": 126.65274,
    "category": "Mountain",
    "subcategory": "Mountain",
    "featured": false,
    "priority": 50
  },
  {
    "geonameId": 1878851,
    "name": "Ch’ima-san",
    "latitude": 37.96358,
    "longitude": 125.47403,
    "category": "Mountain",
    "subcategory": "Mountain",
    "featured": false,
    "priority": 50
  },
  {
    "geonameId": 2044923,
    "name": "Ch’imabawi-san",
    "latitude": 40.88137,
    "longitude": 129.71566,
    "category": "Mountain",
    "subcategory": "Mountain",
    "featured": false,
    "priority": 50
  },
  {
    "geonameId": 6281886,
    "name": "Ch'imdŏk-san",
    "latitude": 40.29302,
    "longitude": 125.34674,
    "category": "Mountain",
    "subcategory": "Mountain",
    "featured": false,
    "priority": 50
  },
  {
    "geonameId": 1948351,
    "name": "Ch’imi-gogae",
    "latitude": 38.39689,
    "longitude": 127.63211,
    "category": "Mountain",
    "subcategory": "Mountain Pass",
    "featured": false,
    "priority": 50
  },
  {
    "geonameId": 1878764,
    "name": "Ch’irak-san",
    "latitude": 39.62667,
    "longitude": 125.43361,
    "category": "Mountain",
    "subcategory": "Mountain",
    "featured": false,
    "priority": 50
  },
  {
    "geonameId": 13629055,
    "name": "Ch'iru-gogae",
    "latitude": 38.61834,
    "longitude": 125.91809,
    "category": "Mountain",
    "subcategory": "Mountain Pass",
    "featured": false,
    "priority": 50
  },
  {
    "geonameId": 6305027,
    "name": "Ch’o-bong",
    "latitude": 41.51498,
    "longitude": 129.4294,
    "category": "Mountain",
    "subcategory": "Peak",
    "featured": false,
    "priority": 50
  },
  {
    "geonameId": 1878707,
    "name": "Ch’o-do",
    "latitude": 38.52999,
    "longitude": 124.8436,
    "category": "Island",
    "subcategory": "Island",
    "featured": false,
    "priority": 50
  },
  {
    "geonameId": 13540191,
    "name": "Ch'obang-gogae",
    "latitude": 38.75692,
    "longitude": 127.23772,
    "category": "Mountain",
    "subcategory": "Mountain Pass",
    "featured": false,
    "priority": 50
  },
  {
    "geonameId": 1931471,
    "name": "Ch’obong-jŏsuji",
    "latitude": 38.75222,
    "longitude": 126.08833,
    "category": "Lake",
    "subcategory": "Reservoir",
    "featured": false,
    "priority": 50
  },
  {
    "geonameId": 13515856,
    "name": "Ch'odae-bong",
    "latitude": 38.72178,
    "longitude": 128.16153,
    "category": "Mountain",
    "subcategory": "Peak",
    "featured": false,
    "priority": 50
  },
  {
    "geonameId": 7675515,
    "name": "Ch’odae-bong",
    "latitude": 40.88408,
    "longitude": 126.69117,
    "category": "Mountain",
    "subcategory": "Peak",
    "featured": false,
    "priority": 50
  },
  {
    "geonameId": 6366226,
    "name": "Ch’odae-gogae",
    "latitude": 38.44671,
    "longitude": 126.40098,
    "category": "Mountain",
    "subcategory": "Mountain Pass",
    "featured": false,
    "priority": 50
  },
  {
    "geonameId": 6302237,
    "name": "Ch’odanggol-san",
    "latitude": 40.58222,
    "longitude": 126.84333,
    "category": "Mountain",
    "subcategory": "Mountain",
    "featured": false,
    "priority": 50
  },
  {
    "geonameId": 6282004,
    "name": "Ch'odol-gogae",
    "latitude": 40.04133,
    "longitude": 124.80423,
    "category": "Mountain",
    "subcategory": "Mountain Pass",
    "featured": false,
    "priority": 50
  },
  {
    "geonameId": 13629232,
    "name": "Ch'odol-san",
    "latitude": 40.03897,
    "longitude": 124.81048,
    "category": "Mountain",
    "subcategory": "Mountain",
    "featured": false,
    "priority": 50
  },
  {
    "geonameId": 2044872,
    "name": "Ch’odu-ryŏng",
    "latitude": 40.22962,
    "longitude": 125.37269,
    "category": "Mountain",
    "subcategory": "Mountain Pass",
    "featured": false,
    "priority": 50
  },
  {
    "geonameId": 2044868,
    "name": "Ch’oega-nyŏng",
    "latitude": 41.65793,
    "longitude": 128.63426,
    "category": "Mountain",
    "subcategory": "Mountain Pass",
    "featured": false,
    "priority": 50
  },
  {
    "geonameId": 1878666,
    "name": "Ch’ogot’ae-ryŏng",
    "latitude": 39.92009,
    "longitude": 127.69408,
    "category": "Mountain",
    "subcategory": "Mountain Pass",
    "featured": false,
    "priority": 50
  },
  {
    "geonameId": 1878655,
    "name": "Ch’ohang-nyŏng",
    "latitude": 39.70003,
    "longitude": 126.65889,
    "category": "Mountain",
    "subcategory": "Mountain Pass",
    "featured": false,
    "priority": 50
  },
  {
    "geonameId": 1947955,
    "name": "Ch’ohyŏl-lyŏng",
    "latitude": 39.84849,
    "longitude": 126.28763,
    "category": "Mountain",
    "subcategory": "Mountain Pass",
    "featured": false,
    "priority": 50
  },
  {
    "geonameId": 2044854,
    "name": "Ch’ojing-nyŏng",
    "latitude": 40.23471,
    "longitude": 124.91761,
    "category": "Mountain",
    "subcategory": "Mountain Pass",
    "featured": false,
    "priority": 50
  },
  {
    "geonameId": 13628526,
    "name": "Ch'ŏk-kogae",
    "latitude": 38.67146,
    "longitude": 125.79101,
    "category": "Mountain",
    "subcategory": "Mountain Pass",
    "featured": false,
    "priority": 50
  },
  {
    "geonameId": 13037590,
    "name": "Ch'ok-pong",
    "latitude": 40.352,
    "longitude": 125.98485,
    "category": "Mountain",
    "subcategory": "Peak",
    "featured": false,
    "priority": 50
  },
  {
    "geonameId": 1878621,
    "name": "Ch’oktae-bong",
    "latitude": 38.64523,
    "longitude": 128.07852,
    "category": "Mountain",
    "subcategory": "Peak",
    "featured": false,
    "priority": 50
  },
  {
    "geonameId": 13398495,
    "name": "Ch'ŏl-bong",
    "latitude": 42.25643,
    "longitude": 129.27594,
    "category": "Mountain",
    "subcategory": "Mountain",
    "featured": false,
    "priority": 50
  },
  {
    "geonameId": 2044846,
    "name": "Ch’ŏl-bong",
    "latitude": 40.36604,
    "longitude": 124.97141,
    "category": "Mountain",
    "subcategory": "Peak",
    "featured": false,
    "priority": 50
  },
  {
    "geonameId": 1878590,
    "name": "Ch’ŏl-lyŏng",
    "latitude": 38.81041,
    "longitude": 127.49616,
    "category": "Mountain",
    "subcategory": "Mountain Pass",
    "featured": false,
    "priority": 50
  },
  {
    "geonameId": 12539011,
    "name": "Ch'ŏlbong-san",
    "latitude": 38.9461,
    "longitude": 126.41302,
    "category": "Mountain",
    "subcategory": "Mountain",
    "featured": false,
    "priority": 50
  },
  {
    "geonameId": 1878613,
    "name": "Ch’ŏlbong-san",
    "latitude": 39.12222,
    "longitude": 126.31898,
    "category": "Mountain",
    "subcategory": "Mountain",
    "featured": false,
    "priority": 50
  },
  {
    "geonameId": 2048829,
    "name": "Ch'ŏlch'u-san",
    "latitude": 42.35095,
    "longitude": 130.22955,
    "category": "Mountain",
    "subcategory": "Mountain",
    "featured": false,
    "priority": 50
  },
  {
    "geonameId": 6305338,
    "name": "Ch’ŏlgŭl-lyŏng",
    "latitude": 42.07221,
    "longitude": 129.8299,
    "category": "Mountain",
    "subcategory": "Mountain Pass",
    "featured": false,
    "priority": 50
  },
  {
    "geonameId": 2052300,
    "name": "Ch’ŏlli-san",
    "latitude": 41.14993,
    "longitude": 127.14458,
    "category": "Mountain",
    "subcategory": "Mountain",
    "featured": false,
    "priority": 50
  },
  {
    "geonameId": 2055525,
    "name": "Ch’ŏllipsangol-lyŏng",
    "latitude": 40.85361,
    "longitude": 128.01194,
    "category": "Mountain",
    "subcategory": "Mountain Pass",
    "featured": false,
    "priority": 50
  },
  {
    "geonameId": 1878587,
    "name": "Ch’ŏllyŏng-gogae",
    "latitude": 39.93306,
    "longitude": 124.78556,
    "category": "Mountain",
    "subcategory": "Mountain Pass",
    "featured": false,
    "priority": 50
  },
  {
    "geonameId": 1878584,
    "name": "Ch'ŏlma-san",
    "latitude": 38.7564,
    "longitude": 127.72673,
    "category": "Mountain",
    "subcategory": "Mountain",
    "featured": false,
    "priority": 50
  },
  {
    "geonameId": 1948650,
    "name": "Ch’ŏlma-san",
    "latitude": 39.79583,
    "longitude": 126.3775,
    "category": "Mountain",
    "subcategory": "Mountain",
    "featured": false,
    "priority": 50
  },
  {
    "geonameId": 2048834,
    "name": "Ch’ŏlp’i-san",
    "latitude": 42.34957,
    "longitude": 130.05298,
    "category": "Mountain",
    "subcategory": "Mountain",
    "featured": false,
    "priority": 50
  },
  {
    "geonameId": 6274383,
    "name": "Ch’ŏlsan-jŏsuji",
    "latitude": 37.9125,
    "longitude": 125.63778,
    "category": "Lake",
    "subcategory": "Reservoir",
    "featured": false,
    "priority": 50
  },
  {
    "geonameId": 1878576,
    "name": "Ch’ŏlsŏk-san",
    "latitude": 39.25378,
    "longitude": 127.19051,
    "category": "Mountain",
    "subcategory": "Mountain",
    "featured": false,
    "priority": 50
  },
  {
    "geonameId": 1878574,
    "name": "Ch’ŏltŏk-san",
    "latitude": 39.23389,
    "longitude": 127.04111,
    "category": "Mountain",
    "subcategory": "Mountain",
    "featured": false,
    "priority": 50
  },
  {
    "geonameId": 12086138,
    "name": "Ch’ŏltu-bong",
    "latitude": 42.32795,
    "longitude": 130.20676,
    "category": "Mountain",
    "subcategory": "Mountain",
    "featured": false,
    "priority": 50
  },
  {
    "geonameId": 1878570,
    "name": "Ch’omak-san",
    "latitude": 39.95833,
    "longitude": 127.76556,
    "category": "Mountain",
    "subcategory": "Mountain",
    "featured": false,
    "priority": 50
  },
  {
    "geonameId": 6280975,
    "name": "Ch’omang-nyŏng",
    "latitude": 40.40445,
    "longitude": 126.41566,
    "category": "Mountain",
    "subcategory": "Mountain Pass",
    "featured": false,
    "priority": 50
  },
  {
    "geonameId": 6269748,
    "name": "Ch’ŏmmu-bong",
    "latitude": 39.46884,
    "longitude": 125.71392,
    "category": "Mountain",
    "subcategory": "Peak",
    "featured": false,
    "priority": 50
  },
  {
    "geonameId": 1947937,
    "name": "Ch’omong-nyŏng",
    "latitude": 39.75889,
    "longitude": 126.12833,
    "category": "Mountain",
    "subcategory": "Mountain Pass",
    "featured": false,
    "priority": 50
  },
  {
    "geonameId": 6272695,
    "name": "Ch’ŏmsan-bong",
    "latitude": 39.9031,
    "longitude": 127.10822,
    "category": "Mountain",
    "subcategory": "Peak",
    "featured": false,
    "priority": 50
  },
  {
    "geonameId": 1927308,
    "name": "Ch’ŏn-do",
    "latitude": 38.98009,
    "longitude": 127.89143,
    "category": "Island",
    "subcategory": "Island",
    "featured": false,
    "priority": 50
  },
  {
    "geonameId": 13656830,
    "name": "Ch'ŏn-dŭng-gogae",
    "latitude": 39.7699,
    "longitude": 125.68513,
    "category": "Mountain",
    "subcategory": "Mountain Pass",
    "featured": false,
    "priority": 50
  },
  {
    "geonameId": 1878242,
    "name": "Ch’ŏn-hyŏn",
    "latitude": 39.84417,
    "longitude": 125.23861,
    "category": "Mountain",
    "subcategory": "Mountain Pass",
    "featured": false,
    "priority": 50
  },
  {
    "geonameId": 6305252,
    "name": "Ch’ŏn-san",
    "latitude": 41.89335,
    "longitude": 129.78948,
    "category": "Mountain",
    "subcategory": "Mountain",
    "featured": false,
    "priority": 50
  },
  {
    "geonameId": 13533439,
    "name": "Ch'ŏn'gil-p'okp'o Sip",
    "latitude": 40.07279,
    "longitude": 126.57331,
    "category": "Waterfall",
    "subcategory": "Waterfall",
    "featured": false,
    "priority": 50
  },
  {
    "geonameId": 1888482,
    "name": "Ch’ŏn’gwae-ryŏng",
    "latitude": 39.10056,
    "longitude": 126.63701,
    "category": "Mountain",
    "subcategory": "Mountain Pass",
    "featured": false,
    "priority": 50
  },
  {
    "geonameId": 1948116,
    "name": "Ch’ŏn’gwae-san",
    "latitude": 38.31907,
    "longitude": 126.2926,
    "category": "Mountain",
    "subcategory": "Mountain",
    "featured": false,
    "priority": 50
  },
  {
    "geonameId": 1952620,
    "name": "Ch’onang-bong",
    "latitude": 39.49397,
    "longitude": 127.41209,
    "category": "Mountain",
    "subcategory": "Peak",
    "featured": false,
    "priority": 50
  },
  {
    "geonameId": 6281988,
    "name": "Ch'ŏnang-nyŏng",
    "latitude": 40.21842,
    "longitude": 124.82154,
    "category": "Mountain",
    "subcategory": "Mountain Pass",
    "featured": false,
    "priority": 50
  },
  {
    "geonameId": 1878545,
    "name": "Ch’ŏnap’o",
    "latitude": 39.079,
    "longitude": 127.77301,
    "category": "Lake",
    "subcategory": "Lake",
    "featured": false,
    "priority": 50
  },
  {
    "geonameId": 6281356,
    "name": "Ch’ŏnbŏl-lyŏng",
    "latitude": 40.40946,
    "longitude": 127.83988,
    "category": "Mountain",
    "subcategory": "Mountain Pass",
    "featured": false,
    "priority": 50
  },
  {
    "geonameId": 1878538,
    "name": "Ch’ŏnbong-san",
    "latitude": 38.24583,
    "longitude": 125.47028,
    "category": "Mountain",
    "subcategory": "Mountain",
    "featured": false,
    "priority": 50
  },
  {
    "geonameId": 2044811,
    "name": "Ch’ŏnbul-bong",
    "latitude": 40.61167,
    "longitude": 126.23389,
    "category": "Mountain",
    "subcategory": "Mountain",
    "featured": false,
    "priority": 50
  },
  {
    "geonameId": 1878533,
    "name": "Ch’ŏnbul-san",
    "latitude": 38.72744,
    "longitude": 128.16368,
    "category": "Mountain",
    "subcategory": "Peak",
    "featured": false,
    "priority": 50
  },
  {
    "geonameId": 1878259,
    "name": "Ch’ŏnch’i-ryŏng",
    "latitude": 39.02146,
    "longitude": 127.31328,
    "category": "Mountain",
    "subcategory": "Mountain Pass",
    "featured": false,
    "priority": 50
  },
  {
    "geonameId": 6269747,
    "name": "Ch’ŏndal-bong",
    "latitude": 39.47833,
    "longitude": 125.71194,
    "category": "Mountain",
    "subcategory": "Peak",
    "featured": false,
    "priority": 50
  },
  {
    "geonameId": 2055399,
    "name": "Ch’ŏndŏk-pong",
    "latitude": 41.09117,
    "longitude": 129.54437,
    "category": "Mountain",
    "subcategory": "Mountain",
    "featured": false,
    "priority": 50
  },
  {
    "geonameId": 1878512,
    "name": "Ch’ŏndŏk-san",
    "latitude": 38.51667,
    "longitude": 125.93333,
    "category": "Mountain",
    "subcategory": "Peak",
    "featured": false,
    "priority": 50
  },
  {
    "geonameId": 1878494,
    "name": "Ch’ŏndu-san",
    "latitude": 39.96078,
    "longitude": 124.69565,
    "category": "Mountain",
    "subcategory": "Mountain",
    "featured": false,
    "priority": 50
  },
  {
    "geonameId": 2044792,
    "name": "Ch’ŏndudŏk-pong",
    "latitude": 40.73472,
    "longitude": 125.92222,
    "category": "Mountain",
    "subcategory": "Peak",
    "featured": false,
    "priority": 50
  },
  {
    "geonameId": 13121671,
    "name": "Ch'ŏndungmu-san",
    "latitude": 39.31241,
    "longitude": 126.52131,
    "category": "Mountain",
    "subcategory": "Mountain",
    "featured": false,
    "priority": 50
  },
  {
    "geonameId": 2044785,
    "name": "Ch’ŏng-bong",
    "latitude": 41.74641,
    "longitude": 128.21526,
    "category": "Mountain",
    "subcategory": "Mountain",
    "featured": false,
    "priority": 50
  },
  {
    "geonameId": 6281452,
    "name": "Ch’ŏngam-san",
    "latitude": 40.58912,
    "longitude": 125.45351,
    "category": "Mountain",
    "subcategory": "Mountain",
    "featured": false,
    "priority": 50
  },
  {
    "geonameId": 12502689,
    "name": "Ch'ŏngdae-san",
    "latitude": 38.4368,
    "longitude": 127.95683,
    "category": "Mountain",
    "subcategory": "Mountain",
    "featured": false,
    "priority": 50
  },
  {
    "geonameId": 6280978,
    "name": "Ch’ŏngdam-nyŏng",
    "latitude": 40.37819,
    "longitude": 126.47376,
    "category": "Mountain",
    "subcategory": "Mountain Pass",
    "featured": false,
    "priority": 50
  },
  {
    "geonameId": 1878458,
    "name": "Ch’ŏngdan-ŭp",
    "latitude": 37.97028,
    "longitude": 125.9375,
    "category": "City",
    "subcategory": "City",
    "featured": false,
    "priority": 50
  },
  {
    "geonameId": 12606746,
    "name": "Ch'ŏngdong-chŏsuji",
    "latitude": 39.58611,
    "longitude": 127.2901,
    "category": "Lake",
    "subcategory": "Reservoir",
    "featured": false,
    "priority": 50
  },
  {
    "geonameId": 1878443,
    "name": "Ch’ŏngdu-do",
    "latitude": 37.76634,
    "longitude": 125.37348,
    "category": "Island",
    "subcategory": "Island",
    "featured": false,
    "priority": 50
  },
  {
    "geonameId": 2044777,
    "name": "Ch’onggong-nyŏng",
    "latitude": 40.82704,
    "longitude": 126.93987,
    "category": "Mountain",
    "subcategory": "Mountain Pass",
    "featured": false,
    "priority": 50
  },
  {
    "geonameId": 2044773,
    "name": "Ch’ŏnggye-bong",
    "latitude": 41.63412,
    "longitude": 129.52559,
    "category": "Mountain",
    "subcategory": "Peak",
    "featured": false,
    "priority": 50
  },
  {
    "geonameId": 2049102,
    "name": "Ch’ŏnggye-san",
    "latitude": 42.00571,
    "longitude": 129.73628,
    "category": "Mountain",
    "subcategory": "Mountain",
    "featured": false,
    "priority": 50
  },
  {
    "geonameId": 6367204,
    "name": "Ch’ŏngha-san",
    "latitude": 38.75694,
    "longitude": 127.41417,
    "category": "Mountain",
    "subcategory": "Mountain",
    "featured": false,
    "priority": 50
  },
  {
    "geonameId": 1878338,
    "name": "Ch’ŏnghak-san",
    "latitude": 38.35187,
    "longitude": 126.31659,
    "category": "Mountain",
    "subcategory": "Mountain",
    "featured": false,
    "priority": 50
  },
  {
    "geonameId": 13515852,
    "name": "Ch'ŏnghak-tae",
    "latitude": 38.63328,
    "longitude": 128.07097,
    "category": "Mountain",
    "subcategory": "Peak",
    "featured": false,
    "priority": 50
  },
  {
    "geonameId": 2042168,
    "name": "Ch’ŏnghak-tae",
    "latitude": 40.44964,
    "longitude": 126.46097,
    "category": "Mountain",
    "subcategory": "Mountain",
    "featured": false,
    "priority": 50
  },
  {
    "geonameId": 1878405,
    "name": "Ch’ŏngjak-san",
    "latitude": 38.61972,
    "longitude": 127.855,
    "category": "Mountain",
    "subcategory": "Mountain",
    "featured": false,
    "priority": 50
  },
  {
    "geonameId": 13493226,
    "name": "Ch'ŏngjin-si Ch'ŏngnyŏn-gongwŏn",
    "latitude": 41.78052,
    "longitude": 129.80439,
    "category": "Park",
    "subcategory": "Park",
    "featured": false,
    "priority": 50
  },
  {
    "geonameId": 6400142,
    "name": "Ch’ongjŏl-lyŏng",
    "latitude": 40.77321,
    "longitude": 126.93195,
    "category": "Mountain",
    "subcategory": "Mountain Pass",
    "featured": false,
    "priority": 50
  },
  {
    "geonameId": 1878392,
    "name": "Ch’ŏngju-do",
    "latitude": 39.53333,
    "longitude": 124.81667,
    "category": "Island",
    "subcategory": "Island",
    "featured": false,
    "priority": 50
  },
  {
    "geonameId": 13603548,
    "name": "Ch'ŏngma-san",
    "latitude": 38.88333,
    "longitude": 126.42062,
    "category": "Mountain",
    "subcategory": "Mountain",
    "featured": false,
    "priority": 50
  },
  {
    "geonameId": 6282504,
    "name": "Ch’ŏngnyang-nyŏng",
    "latitude": 40.28238,
    "longitude": 126.27859,
    "category": "Mountain",
    "subcategory": "Mountain Pass",
    "featured": false,
    "priority": 50
  },
  {
    "geonameId": 13587633,
    "name": "Ch'ŏngnyang-p'okp'o",
    "latitude": 38.07826,
    "longitude": 126.5752,
    "category": "Waterfall",
    "subcategory": "Waterfall",
    "featured": false,
    "priority": 50
  },
  {
    "geonameId": 13587709,
    "name": "Ch'ŏngnyŏn-jŏsuji",
    "latitude": 38.02437,
    "longitude": 126.62999,
    "category": "Lake",
    "subcategory": "Reservoir",
    "featured": false,
    "priority": 50
  },
  {
    "geonameId": 1878341,
    "name": "Ch’ŏngnyong-san",
    "latitude": 39.72861,
    "longitude": 125.51889,
    "category": "Mountain",
    "subcategory": "Mountain",
    "featured": false,
    "priority": 50
  },
  {
    "geonameId": 1927040,
    "name": "Ch’ŏngnyŏng-san",
    "latitude": 38.59417,
    "longitude": 127.16833,
    "category": "Mountain",
    "subcategory": "Mountain",
    "featured": false,
    "priority": 50
  },
  {
    "geonameId": 6281899,
    "name": "Ch’ŏngp’a-ryŏng",
    "latitude": 40.44227,
    "longitude": 125.33867,
    "category": "Mountain",
    "subcategory": "Mountain Pass",
    "featured": false,
    "priority": 50
  },
  {
    "geonameId": 2049233,
    "name": "Ch’ongp’ultŏk-san",
    "latitude": 42.54601,
    "longitude": 129.81713,
    "category": "Mountain",
    "subcategory": "Mountain",
    "featured": false,
    "priority": 50
  },
  {
    "geonameId": 1878315,
    "name": "Ch’ongsa-hyŏn",
    "latitude": 39.87778,
    "longitude": 125.95222,
    "category": "Mountain",
    "subcategory": "Mountain Pass",
    "featured": false,
    "priority": 50
  },
  {
    "geonameId": 1889836,
    "name": "Ch’ŏngsal-lyŏng",
    "latitude": 39.39956,
    "longitude": 125.76222,
    "category": "Mountain",
    "subcategory": "Mountain Pass",
    "featured": false,
    "priority": 50
  },
  {
    "geonameId": 2054567,
    "name": "Ch’ŏngsŏk-san",
    "latitude": 41.37247,
    "longitude": 126.87906,
    "category": "Mountain",
    "subcategory": "Mountain",
    "featured": false,
    "priority": 50
  },
  {
    "geonameId": 12086127,
    "name": "Ch’ŏngsong-bong",
    "latitude": 42.38222,
    "longitude": 130.1736,
    "category": "Mountain",
    "subcategory": "Mountain",
    "featured": false,
    "priority": 50
  },
  {
    "geonameId": 6305278,
    "name": "Ch’ŏngsongdong-hyŏn",
    "latitude": 42.38586,
    "longitude": 130.17815,
    "category": "Mountain",
    "subcategory": "Mountain Pass",
    "featured": false,
    "priority": 50
  },
  {
    "geonameId": 1931134,
    "name": "Ch’ŏngun-gogae",
    "latitude": 38.2561,
    "longitude": 126.94532,
    "category": "Mountain",
    "subcategory": "Mountain Pass",
    "featured": false,
    "priority": 50
  },
  {
    "geonameId": 1878281,
    "name": "Ch’ŏngun-san",
    "latitude": 38.95039,
    "longitude": 126.55141,
    "category": "Mountain",
    "subcategory": "Mountain",
    "featured": false,
    "priority": 50
  },
  {
    "geonameId": 2044688,
    "name": "Ch’ŏnhwa-ryŏng",
    "latitude": 41.12194,
    "longitude": 128.70306,
    "category": "Mountain",
    "subcategory": "Mountain Pass",
    "featured": false,
    "priority": 50
  },
  {
    "geonameId": 2044687,
    "name": "Ch’ŏnhwa-san",
    "latitude": 41.01806,
    "longitude": 126.78806,
    "category": "Mountain",
    "subcategory": "Mountain",
    "featured": false,
    "priority": 50
  },
  {
    "geonameId": 1878261,
    "name": "Ch’ŏni-san",
    "latitude": 39.89528,
    "longitude": 125.94694,
    "category": "Mountain",
    "subcategory": "Mountain",
    "featured": false,
    "priority": 50
  },
  {
    "geonameId": 13616823,
    "name": "Ch'ŏnja-bong",
    "latitude": 38.65332,
    "longitude": 126.15712,
    "category": "Mountain",
    "subcategory": "Peak",
    "featured": false,
    "priority": 50
  },
  {
    "geonameId": 1866635,
    "name": "Ch’ŏnja-san",
    "latitude": 38.74222,
    "longitude": 126.32528,
    "category": "Mountain",
    "subcategory": "Mountain",
    "featured": false,
    "priority": 50
  },
  {
    "geonameId": 1878256,
    "name": "Ch’ŏnjang-san",
    "latitude": 37.96278,
    "longitude": 125.27667,
    "category": "Mountain",
    "subcategory": "Mountain",
    "featured": false,
    "priority": 50
  },
  {
    "geonameId": 13644374,
    "name": "Ch'ŏnje-bong",
    "latitude": 39.93777,
    "longitude": 125.70877,
    "category": "Mountain",
    "subcategory": "Peak",
    "featured": false,
    "priority": 50
  },
  {
    "geonameId": 1878253,
    "name": "Ch’ŏnje-bong",
    "latitude": 39.96417,
    "longitude": 125.96861,
    "category": "Mountain",
    "subcategory": "Mountain",
    "featured": false,
    "priority": 50
  },
  {
    "geonameId": 1966599,
    "name": "Ch’ŏnji-san",
    "latitude": 38.14583,
    "longitude": 126.33611,
    "category": "Mountain",
    "subcategory": "Mountain",
    "featured": false,
    "priority": 50
  },
  {
    "geonameId": 2044679,
    "name": "Ch’ŏnjin-bong",
    "latitude": 40.07847,
    "longitude": 125.26588,
    "category": "Mountain",
    "subcategory": "Peak",
    "featured": false,
    "priority": 50
  },
  {
    "geonameId": 1878249,
    "name": "Ch’ŏnju-bong",
    "latitude": 39.90611,
    "longitude": 127.68444,
    "category": "Mountain",
    "subcategory": "Mountain",
    "featured": false,
    "priority": 50
  },
  {
    "geonameId": 1878245,
    "name": "Ch’ŏnju-san",
    "latitude": 38.69572,
    "longitude": 125.83228,
    "category": "Mountain",
    "subcategory": "Mountain",
    "featured": false,
    "priority": 50
  },
  {
    "geonameId": 2044673,
    "name": "Ch’ŏnk’wae-san",
    "latitude": 40.02556,
    "longitude": 126.53444,
    "category": "Mountain",
    "subcategory": "Mountain",
    "featured": false,
    "priority": 50
  },
  {
    "geonameId": 1878235,
    "name": "Ch’ŏnma-san",
    "latitude": 38.25246,
    "longitude": 125.62772,
    "category": "Mountain",
    "subcategory": "Mountain",
    "featured": false,
    "priority": 50
  },
  {
    "geonameId": 2044810,
    "name": "Ch'ŏnmul-san",
    "latitude": 40.23326,
    "longitude": 127.40824,
    "category": "Mountain",
    "subcategory": "Mountain",
    "featured": false,
    "priority": 50
  },
  {
    "geonameId": 13588969,
    "name": "Ch'ŏnnamu-gol-gogae",
    "latitude": 39.82726,
    "longitude": 125.39185,
    "category": "Mountain",
    "subcategory": "Mountain Pass",
    "featured": false,
    "priority": 50
  },
  {
    "geonameId": 13515843,
    "name": "Ch'ŏnnyŏ-bong",
    "latitude": 38.71594,
    "longitude": 128.12036,
    "category": "Mountain",
    "subcategory": "Peak",
    "featured": false,
    "priority": 50
  },
  {
    "geonameId": 2054516,
    "name": "Ch’ŏnp’yŏng-nyŏng",
    "latitude": 41.18583,
    "longitude": 127.89417,
    "category": "Mountain",
    "subcategory": "Mountain Pass",
    "featured": false,
    "priority": 50
  },
  {
    "geonameId": 1878205,
    "name": "Ch’onsa-ryŏng",
    "latitude": 39.66667,
    "longitude": 126.38333,
    "category": "Mountain",
    "subcategory": "Mountain Pass",
    "featured": false,
    "priority": 50
  },
  {
    "geonameId": 6281358,
    "name": "Ch’ŏnsandae-bong",
    "latitude": 40.44979,
    "longitude": 127.88085,
    "category": "Mountain",
    "subcategory": "Peak",
    "featured": false,
    "priority": 50
  },
  {
    "geonameId": 6281275,
    "name": "Ch’ŏnsang-dae",
    "latitude": 40.15506,
    "longitude": 126.66244,
    "category": "Mountain",
    "subcategory": "Mountain",
    "featured": false,
    "priority": 50
  },
  {
    "geonameId": 13039635,
    "name": "Ch'ŏnsin-p'okp'o",
    "latitude": 40.02672,
    "longitude": 126.24762,
    "category": "Waterfall",
    "subcategory": "Waterfall",
    "featured": false,
    "priority": 50
  },
  {
    "geonameId": 2044646,
    "name": "Ch’ŏnsindong-san",
    "latitude": 41.16167,
    "longitude": 127.5575,
    "category": "Mountain",
    "subcategory": "Mountain",
    "featured": false,
    "priority": 50
  },
  {
    "geonameId": 2044643,
    "name": "Ch’ŏnsŏk-tŏk",
    "latitude": 40.99139,
    "longitude": 129.13444,
    "category": "Mountain",
    "subcategory": "Mountain",
    "featured": false,
    "priority": 50
  },
  {
    "geonameId": 1947344,
    "name": "Ch’ŏnsŏkch’o",
    "latitude": 39.51528,
    "longitude": 125.21139,
    "category": "Island",
    "subcategory": "Island",
    "featured": false,
    "priority": 50
  },
  {
    "geonameId": 6383733,
    "name": "Ch’ŏnsu-ryŏng",
    "latitude": 40.82083,
    "longitude": 128.40194,
    "category": "Mountain",
    "subcategory": "Mountain Pass",
    "featured": false,
    "priority": 50
  },
  {
    "geonameId": 2044635,
    "name": "Ch’ŏnt’am-nyŏng",
    "latitude": 41.37043,
    "longitude": 127.68987,
    "category": "Mountain",
    "subcategory": "Mountain Pass",
    "featured": false,
    "priority": 50
  },
  {
    "geonameId": 2044631,
    "name": "Ch’ŏnŭi-san",
    "latitude": 40.07626,
    "longitude": 127.26816,
    "category": "Mountain",
    "subcategory": "Mountain",
    "featured": false,
    "priority": 50
  },
  {
    "geonameId": 2044632,
    "name": "Ch’ŏnŭimul-san",
    "latitude": 40.53361,
    "longitude": 126.99306,
    "category": "Mountain",
    "subcategory": "Mountain",
    "featured": false,
    "priority": 50
  },
  {
    "geonameId": 12648634,
    "name": "Ch'ŏnŭl-bong",
    "latitude": 39.04069,
    "longitude": 126.97962,
    "category": "Mountain",
    "subcategory": "Mountain",
    "featured": false,
    "priority": 50
  },
  {
    "geonameId": 6367349,
    "name": "Ch’ŏnŭl-bong",
    "latitude": 39.03806,
    "longitude": 126.9825,
    "category": "Mountain",
    "subcategory": "Mountain Pass",
    "featured": false,
    "priority": 50
  },
  {
    "geonameId": 2044629,
    "name": "Ch’ŏnŭn-san",
    "latitude": 40.50912,
    "longitude": 127.81117,
    "category": "Mountain",
    "subcategory": "Mountain",
    "featured": false,
    "priority": 50
  },
  {
    "geonameId": 1878170,
    "name": "Ch’ŏrhyŏn-gogae",
    "latitude": 38.86861,
    "longitude": 125.29583,
    "category": "Mountain",
    "subcategory": "Mountain Pass",
    "featured": false,
    "priority": 50
  },
  {
    "geonameId": 1931692,
    "name": "Ch’ŏri-gogae",
    "latitude": 38.61689,
    "longitude": 128.00156,
    "category": "Mountain",
    "subcategory": "Mountain Pass",
    "featured": false,
    "priority": 50
  },
  {
    "geonameId": 2044612,
    "name": "Ch’ori-ji",
    "latitude": 40.16556,
    "longitude": 125.74831,
    "category": "Lake",
    "subcategory": "Reservoir",
    "featured": false,
    "priority": 50
  },
  {
    "geonameId": 1878168,
    "name": "Ch’ŏrong-san",
    "latitude": 39.67178,
    "longitude": 126.57894,
    "category": "Mountain",
    "subcategory": "Mountain",
    "featured": false,
    "priority": 50
  },
  {
    "geonameId": 1947429,
    "name": "Ch’ŏryŏng-san",
    "latitude": 38.15528,
    "longitude": 125.84861,
    "category": "Mountain",
    "subcategory": "Mountain",
    "featured": false,
    "priority": 50
  },
  {
    "geonameId": 1889792,
    "name": "Ch’ŏsal-li",
    "latitude": 39.40333,
    "longitude": 125.50889,
    "category": "City",
    "subcategory": "City",
    "featured": false,
    "priority": 50
  },
  {
    "geonameId": 1932351,
    "name": "Ch’u-bong",
    "latitude": 39.1372,
    "longitude": 125.80795,
    "category": "Mountain",
    "subcategory": "Peak",
    "featured": false,
    "priority": 50
  },
  {
    "geonameId": 2044374,
    "name": "Ch’u-san",
    "latitude": 40.12244,
    "longitude": 124.98655,
    "category": "Mountain",
    "subcategory": "Mountain",
    "featured": false,
    "priority": 50
  },
  {
    "geonameId": 1878117,
    "name": "Ch’uae-san",
    "latitude": 38.83523,
    "longitude": 127.27887,
    "category": "Mountain",
    "subcategory": "Mountain",
    "featured": false,
    "priority": 50
  },
  {
    "geonameId": 2055022,
    "name": "Ch’uam-bong",
    "latitude": 40.76768,
    "longitude": 125.94701,
    "category": "Mountain",
    "subcategory": "Peak",
    "featured": false,
    "priority": 50
  },
  {
    "geonameId": 13629211,
    "name": "Ch'ubong-san",
    "latitude": 40.02036,
    "longitude": 124.77836,
    "category": "Mountain",
    "subcategory": "Mountain",
    "featured": false,
    "priority": 50
  },
  {
    "geonameId": 2044593,
    "name": "Ch’ubong-san",
    "latitude": 40.24282,
    "longitude": 125.5446,
    "category": "Mountain",
    "subcategory": "Mountain",
    "featured": false,
    "priority": 50
  },
  {
    "geonameId": 13629229,
    "name": "Ch'ubongdong-san",
    "latitude": 40.01057,
    "longitude": 124.82137,
    "category": "Mountain",
    "subcategory": "Mountain",
    "featured": false,
    "priority": 50
  },
  {
    "geonameId": 1890333,
    "name": "Ch’udong-san",
    "latitude": 39.92917,
    "longitude": 125.92583,
    "category": "Mountain",
    "subcategory": "Mountain",
    "featured": false,
    "priority": 50
  },
  {
    "geonameId": 13558078,
    "name": "Ch'udunji-gogae",
    "latitude": 38.27279,
    "longitude": 126.94029,
    "category": "Mountain",
    "subcategory": "Mountain Pass",
    "featured": false,
    "priority": 50
  },
  {
    "geonameId": 1889971,
    "name": "Ch’uga-ryŏng",
    "latitude": 38.26809,
    "longitude": 126.95162,
    "category": "Mountain",
    "subcategory": "Mountain Pass",
    "featured": false,
    "priority": 50
  },
  {
    "geonameId": 1927282,
    "name": "Ch’ugok-san",
    "latitude": 38.79299,
    "longitude": 127.99322,
    "category": "Mountain",
    "subcategory": "Mountain",
    "featured": false,
    "priority": 50
  },
  {
    "geonameId": 2039248,
    "name": "Ch’ugwŏndŏng-nyŏng",
    "latitude": 40.55139,
    "longitude": 128.7825,
    "category": "Mountain",
    "subcategory": "Mountain Pass",
    "featured": false,
    "priority": 50
  },
  {
    "geonameId": 1878059,
    "name": "Ch’uji-ryŏng",
    "latitude": 38.78779,
    "longitude": 127.81285,
    "category": "Mountain",
    "subcategory": "Mountain Pass",
    "featured": false,
    "priority": 50
  },
  {
    "geonameId": 2054641,
    "name": "Ch’ujŏl-lyŏng",
    "latitude": 40.19048,
    "longitude": 126.0247,
    "category": "Mountain",
    "subcategory": "Mountain Pass",
    "featured": false,
    "priority": 50
  },
  {
    "geonameId": 13653727,
    "name": "Ch'uk-kogae",
    "latitude": 38.28187,
    "longitude": 126.36193,
    "category": "Mountain",
    "subcategory": "Mountain Pass",
    "featured": false,
    "priority": 50
  },
  {
    "geonameId": 1948713,
    "name": "Ch’uk-kogae",
    "latitude": 39.67891,
    "longitude": 126.21301,
    "category": "Mountain",
    "subcategory": "Mountain Pass",
    "featured": false,
    "priority": 50
  },
  {
    "geonameId": 2054550,
    "name": "Ch’ŭk-pong",
    "latitude": 41.4425,
    "longitude": 126.76944,
    "category": "Mountain",
    "subcategory": "Peak",
    "featured": false,
    "priority": 50
  },
  {
    "geonameId": 2055155,
    "name": "Ch’ukkang-gogae",
    "latitude": 40.56472,
    "longitude": 125.81139,
    "category": "Mountain",
    "subcategory": "Mountain Pass",
    "featured": false,
    "priority": 50
  },
  {
    "geonameId": 6281882,
    "name": "Ch'uktae-bong",
    "latitude": 40.29545,
    "longitude": 125.16193,
    "category": "Mountain",
    "subcategory": "Peak",
    "featured": false,
    "priority": 50
  },
  {
    "geonameId": 1948676,
    "name": "Ch’ulgae",
    "latitude": 39.80139,
    "longitude": 126.30889,
    "category": "Mountain",
    "subcategory": "Mountain Pass",
    "featured": false,
    "priority": 50
  },
  {
    "geonameId": 6366469,
    "name": "Ch’un’gwang-san",
    "latitude": 38.51083,
    "longitude": 126.36389,
    "category": "Mountain",
    "subcategory": "Mountain",
    "featured": false,
    "priority": 50
  },
  {
    "geonameId": 6305452,
    "name": "Ch’ung-bong",
    "latitude": 42.53245,
    "longitude": 130.05092,
    "category": "Mountain",
    "subcategory": "Mountain",
    "featured": false,
    "priority": 50
  },
  {
    "geonameId": 6281480,
    "name": "Ch’ŭng-nyŏng",
    "latitude": 40.52606,
    "longitude": 125.57379,
    "category": "Mountain",
    "subcategory": "Mountain Pass",
    "featured": false,
    "priority": 50
  },
  {
    "geonameId": 2055144,
    "name": "Ch’ungam-san",
    "latitude": 40.63111,
    "longitude": 125.87139,
    "category": "Mountain",
    "subcategory": "Mountain",
    "featured": false,
    "priority": 50
  },
  {
    "geonameId": 2044521,
    "name": "Ch’ungch’ŏn-san",
    "latitude": 41.37911,
    "longitude": 127.65975,
    "category": "Mountain",
    "subcategory": "Mountain",
    "featured": false,
    "priority": 50
  },
  {
    "geonameId": 2044509,
    "name": "Ch’ungdŏk-san",
    "latitude": 42.56432,
    "longitude": 130.28562,
    "category": "Mountain",
    "subcategory": "Mountain",
    "featured": false,
    "priority": 50
  },
  {
    "geonameId": 1948328,
    "name": "Ch’unghyŏn-san",
    "latitude": 38.36434,
    "longitude": 127.51164,
    "category": "Mountain",
    "subcategory": "Mountain",
    "featured": false,
    "priority": 50
  },
  {
    "geonameId": 13574881,
    "name": "Ch'ungjimi-gogae",
    "latitude": 38.56935,
    "longitude": 126.68446,
    "category": "Mountain",
    "subcategory": "Mountain Pass",
    "featured": false,
    "priority": 50
  },
  {
    "geonameId": 6270232,
    "name": "Ch’ungjŏm-san",
    "latitude": 39.84583,
    "longitude": 125.81556,
    "category": "Mountain",
    "subcategory": "Mountain",
    "featured": false,
    "priority": 50
  },
  {
    "geonameId": 2054717,
    "name": "Ch’ungwŏl-lyŏng",
    "latitude": 40.02509,
    "longitude": 126.06004,
    "category": "Mountain",
    "subcategory": "Mountain Pass",
    "featured": false,
    "priority": 50
  },
  {
    "geonameId": 13629192,
    "name": "Ch'unmane-bong",
    "latitude": 40.08196,
    "longitude": 124.98565,
    "category": "Mountain",
    "subcategory": "Mountain",
    "featured": false,
    "priority": 50
  },
  {
    "geonameId": 1927132,
    "name": "Ch’unyang-san",
    "latitude": 38.37347,
    "longitude": 128.0076,
    "category": "Mountain",
    "subcategory": "Mountain",
    "featured": false,
    "priority": 50
  },
  {
    "geonameId": 2044568,
    "name": "Ch’up’o-ryŏng",
    "latitude": 40.89055,
    "longitude": 126.4746,
    "category": "Mountain",
    "subcategory": "Mountain Pass",
    "featured": false,
    "priority": 50
  },
  {
    "geonameId": 2044373,
    "name": "Ch’usang-do",
    "latitude": 40.16107,
    "longitude": 124.44654,
    "category": "Island",
    "subcategory": "Island",
    "featured": false,
    "priority": 50
  },
  {
    "geonameId": 2044352,
    "name": "Ch’wi-bong",
    "latitude": 40.22169,
    "longitude": 125.41371,
    "category": "Mountain",
    "subcategory": "Peak",
    "featured": false,
    "priority": 50
  },
  {
    "geonameId": 13540007,
    "name": "Ch'wiam-gogae",
    "latitude": 38.9566,
    "longitude": 127.07548,
    "category": "Mountain",
    "subcategory": "Mountain Pass",
    "featured": false,
    "priority": 50
  },
  {
    "geonameId": 13533168,
    "name": "Ch'widŏk-san",
    "latitude": 38.94611,
    "longitude": 127.33688,
    "category": "Mountain",
    "subcategory": "Mountain",
    "featured": false,
    "priority": 50
  },
  {
    "geonameId": 2044589,
    "name": "Ch’widŏk-san",
    "latitude": 40.41444,
    "longitude": 128.61583,
    "category": "Mountain",
    "subcategory": "Mountain",
    "featured": false,
    "priority": 50
  },
  {
    "geonameId": 1877710,
    "name": "Ch’wiya-jŏsuji",
    "latitude": 38.07972,
    "longitude": 125.50611,
    "category": "Lake",
    "subcategory": "Reservoir",
    "featured": false,
    "priority": 50
  },
  {
    "geonameId": 1879542,
    "name": "Chabi-ryŏng",
    "latitude": 38.57024,
    "longitude": 126.03656,
    "category": "Mountain",
    "subcategory": "Mountain Pass",
    "featured": false,
    "priority": 50
  },
  {
    "geonameId": 1879541,
    "name": "Chabi-san",
    "latitude": 38.56861,
    "longitude": 125.97833,
    "category": "Mountain",
    "subcategory": "Peak",
    "featured": false,
    "priority": 50
  },
  {
    "geonameId": 2045294,
    "name": "Chabuk-san",
    "latitude": 40.99472,
    "longitude": 126.58472,
    "category": "Mountain",
    "subcategory": "Mountain",
    "featured": false,
    "priority": 50
  },
  {
    "geonameId": 13531864,
    "name": "Chach'i-bong",
    "latitude": 38.87618,
    "longitude": 127.60805,
    "category": "Mountain",
    "subcategory": "Peak",
    "featured": false,
    "priority": 50
  },
  {
    "geonameId": 2045292,
    "name": "Chadang-san",
    "latitude": 40.60986,
    "longitude": 125.59391,
    "category": "Mountain",
    "subcategory": "Mountain",
    "featured": false,
    "priority": 50
  },
  {
    "geonameId": 1931703,
    "name": "Chadŏng-nyŏng",
    "latitude": 38.72416,
    "longitude": 128.05294,
    "category": "Mountain",
    "subcategory": "Mountain Pass",
    "featured": false,
    "priority": 50
  },
  {
    "geonameId": 6269972,
    "name": "Chae-bong",
    "latitude": 39.01222,
    "longitude": 125.69222,
    "category": "Mountain",
    "subcategory": "Peak",
    "featured": false,
    "priority": 50
  },
  {
    "geonameId": 7330320,
    "name": "Chae-gogae",
    "latitude": 40.04662,
    "longitude": 128.21898,
    "category": "Mountain",
    "subcategory": "Mountain Pass",
    "featured": false,
    "priority": 50
  },
  {
    "geonameId": 6281470,
    "name": "Chaebong-san",
    "latitude": 40.51989,
    "longitude": 125.48378,
    "category": "Mountain",
    "subcategory": "Mountain",
    "featured": false,
    "priority": 50
  },
  {
    "geonameId": 2043828,
    "name": "Chaedang-bong",
    "latitude": 41.14952,
    "longitude": 126.43319,
    "category": "Mountain",
    "subcategory": "Peak",
    "featured": false,
    "priority": 50
  },
  {
    "geonameId": 2045281,
    "name": "Chaedang-san",
    "latitude": 40.577,
    "longitude": 125.60167,
    "category": "Mountain",
    "subcategory": "Mountain",
    "featured": false,
    "priority": 50
  },
  {
    "geonameId": 2045279,
    "name": "Chaedŏk-san",
    "latitude": 41.12163,
    "longitude": 129.42341,
    "category": "Mountain",
    "subcategory": "Mountain",
    "featured": false,
    "priority": 50
  },
  {
    "geonameId": 2054410,
    "name": "Chaedŏng-nyŏng",
    "latitude": 41.24083,
    "longitude": 128.16639,
    "category": "Mountain",
    "subcategory": "Mountain Pass",
    "featured": false,
    "priority": 50
  },
  {
    "geonameId": 12545407,
    "name": "Chaedong-san",
    "latitude": 39.52325,
    "longitude": 126.1851,
    "category": "Mountain",
    "subcategory": "Mountain",
    "featured": false,
    "priority": 50
  },
  {
    "geonameId": 13607290,
    "name": "Chaeil-bong",
    "latitude": 38.78914,
    "longitude": 126.35012,
    "category": "Mountain",
    "subcategory": "Peak",
    "featured": false,
    "priority": 50
  },
  {
    "geonameId": 1952874,
    "name": "Chaek-kogae",
    "latitude": 39.37083,
    "longitude": 127.34361,
    "category": "Mountain",
    "subcategory": "Mountain Pass",
    "featured": false,
    "priority": 50
  },
  {
    "geonameId": 13587592,
    "name": "Chaeng-gogae",
    "latitude": 39.78509,
    "longitude": 125.31669,
    "category": "Mountain",
    "subcategory": "Mountain Pass",
    "featured": false,
    "priority": 50
  },
  {
    "geonameId": 13573419,
    "name": "Chaeng-gol-gogae",
    "latitude": 39.86906,
    "longitude": 125.39156,
    "category": "Mountain",
    "subcategory": "Mountain Pass",
    "featured": false,
    "priority": 50
  },
  {
    "geonameId": 1879490,
    "name": "Chaeryŏng-ni",
    "latitude": 38.73583,
    "longitude": 125.23083,
    "category": "City",
    "subcategory": "City",
    "featured": false,
    "priority": 50
  },
  {
    "geonameId": 1879488,
    "name": "Chaeryŏng-san",
    "latitude": 39.21611,
    "longitude": 126.92472,
    "category": "Mountain",
    "subcategory": "Mountain",
    "featured": false,
    "priority": 50
  },
  {
    "geonameId": 1879487,
    "name": "Chaeryŏng-ŭp",
    "latitude": 38.39917,
    "longitude": 125.61556,
    "category": "City",
    "subcategory": "County Seat",
    "featured": false,
    "priority": 50
  },
  {
    "geonameId": 13050608,
    "name": "Chaesang-bong",
    "latitude": 40.54671,
    "longitude": 128.04401,
    "category": "Mountain",
    "subcategory": "Peak",
    "featured": false,
    "priority": 50
  },
  {
    "geonameId": 2055117,
    "name": "Chaesil-lyŏng",
    "latitude": 41.15638,
    "longitude": 126.33577,
    "category": "Mountain",
    "subcategory": "Mountain Pass",
    "featured": false,
    "priority": 50
  },
  {
    "geonameId": 13542950,
    "name": "Chaeyang-gogae",
    "latitude": 38.9361,
    "longitude": 126.8123,
    "category": "Mountain",
    "subcategory": "Mountain Pass",
    "featured": false,
    "priority": 50
  },
  {
    "geonameId": 13543193,
    "name": "Chagaegol-lyŏng",
    "latitude": 38.78955,
    "longitude": 126.96895,
    "category": "Mountain",
    "subcategory": "Mountain Pass",
    "featured": false,
    "priority": 50
  },
  {
    "geonameId": 13587583,
    "name": "Chagaet'ŏ-gogae",
    "latitude": 39.81529,
    "longitude": 125.32093,
    "category": "Mountain",
    "subcategory": "Mountain Pass",
    "featured": false,
    "priority": 50
  },
  {
    "geonameId": 13605042,
    "name": "Chagaewŏn-gogae",
    "latitude": 39.96861,
    "longitude": 124.65643,
    "category": "Mountain",
    "subcategory": "Mountain Pass",
    "featured": false,
    "priority": 50
  },
  {
    "geonameId": 13533351,
    "name": "Chagŭl-lyŏng",
    "latitude": 38.86181,
    "longitude": 127.29693,
    "category": "Mountain",
    "subcategory": "Mountain Pass",
    "featured": false,
    "priority": 50
  },
  {
    "geonameId": 1879474,
    "name": "Chagŭllyangdol-to",
    "latitude": 39.99992,
    "longitude": 124.9502,
    "category": "Island",
    "subcategory": "Island",
    "featured": false,
    "priority": 50
  },
  {
    "geonameId": 12087782,
    "name": "Chagŭllyŏndae-bong",
    "latitude": 42.04287,
    "longitude": 129.66178,
    "category": "Mountain",
    "subcategory": "Mountain",
    "featured": false,
    "priority": 50
  },
  {
    "geonameId": 13533152,
    "name": "Chagŭllyŏng-gogae",
    "latitude": 38.96676,
    "longitude": 127.34744,
    "category": "Mountain",
    "subcategory": "Mountain Pass",
    "featured": false,
    "priority": 50
  },
  {
    "geonameId": 13569809,
    "name": "Chagŭn-gama-gol-gogae",
    "latitude": 39.96099,
    "longitude": 125.42143,
    "category": "Mountain",
    "subcategory": "Mountain Pass",
    "featured": false,
    "priority": 50
  },
  {
    "geonameId": 6273433,
    "name": "Chagŭn-gogae",
    "latitude": 39.8613,
    "longitude": 127.70817,
    "category": "Mountain",
    "subcategory": "Mountain Pass",
    "featured": false,
    "priority": 50
  },
  {
    "geonameId": 1870153,
    "name": "Chagŭn’gach’a-do",
    "latitude": 39.62017,
    "longitude": 124.75438,
    "category": "Island",
    "subcategory": "Island",
    "featured": false,
    "priority": 50
  },
  {
    "geonameId": 1879465,
    "name": "Chagŭn’galli-do",
    "latitude": 39.6175,
    "longitude": 124.86274,
    "category": "Island",
    "subcategory": "Island",
    "featured": false,
    "priority": 50
  },
  {
    "geonameId": 1870094,
    "name": "Chagŭn’gubi-sŏm",
    "latitude": 39.37,
    "longitude": 127.53694,
    "category": "Island",
    "subcategory": "Island",
    "featured": false,
    "priority": 50
  },
  {
    "geonameId": 13578199,
    "name": "Chagŭnbangajae-gogae",
    "latitude": 38.12913,
    "longitude": 126.56125,
    "category": "Mountain",
    "subcategory": "Mountain Pass",
    "featured": false,
    "priority": 50
  },
  {
    "geonameId": 2055610,
    "name": "Chagŭnbŏdŭlgol-san",
    "latitude": 40.30441,
    "longitude": 126.80145,
    "category": "Mountain",
    "subcategory": "Mountain",
    "featured": false,
    "priority": 50
  },
  {
    "geonameId": 13607336,
    "name": "Chagŭnboruji",
    "latitude": 38.78058,
    "longitude": 126.26424,
    "category": "Mountain",
    "subcategory": "Mountain Pass",
    "featured": false,
    "priority": 50
  },
  {
    "geonameId": 13558107,
    "name": "Chagunchangsŏng-gogae",
    "latitude": 38.2836,
    "longitude": 126.93496,
    "category": "Mountain",
    "subcategory": "Mountain Pass",
    "featured": false,
    "priority": 50
  },
  {
    "geonameId": 1879469,
    "name": "Chagŭndari-yŏm",
    "latitude": 39.26444,
    "longitude": 127.56306,
    "category": "Island",
    "subcategory": "Island",
    "featured": false,
    "priority": 50
  },
  {
    "geonameId": 13552619,
    "name": "Chagŭndok-kogae",
    "latitude": 38.43483,
    "longitude": 126.94823,
    "category": "Mountain",
    "subcategory": "Mountain Pass",
    "featured": false,
    "priority": 50
  },
  {
    "geonameId": 6269713,
    "name": "Chagŭndŏk-kogae",
    "latitude": 40.00054,
    "longitude": 125.27857,
    "category": "Mountain",
    "subcategory": "Mountain Pass",
    "featured": false,
    "priority": 50
  },
  {
    "geonameId": 2055600,
    "name": "Chagŭndol-lyŏng",
    "latitude": 40.2558,
    "longitude": 126.68044,
    "category": "Mountain",
    "subcategory": "Mountain Pass",
    "featured": false,
    "priority": 50
  },
  {
    "geonameId": 1879468,
    "name": "Chagŭndolmol-gogae",
    "latitude": 38.21889,
    "longitude": 125.58028,
    "category": "Mountain",
    "subcategory": "Mountain Pass",
    "featured": false,
    "priority": 50
  },
  {
    "geonameId": 13607498,
    "name": "Chagŭndumu-gol-gogae",
    "latitude": 38.70325,
    "longitude": 126.08882,
    "category": "Mountain",
    "subcategory": "Mountain Pass",
    "featured": false,
    "priority": 50
  },
  {
    "geonameId": 6383764,
    "name": "Chagŭndurŭn-bong",
    "latitude": 40.66438,
    "longitude": 128.10715,
    "category": "Mountain",
    "subcategory": "Peak",
    "featured": false,
    "priority": 50
  },
  {
    "geonameId": 6302360,
    "name": "Chagŭnduŭng-bong",
    "latitude": 41.60634,
    "longitude": 126.76473,
    "category": "Mountain",
    "subcategory": "Mountain",
    "featured": false,
    "priority": 50
  },
  {
    "geonameId": 1931209,
    "name": "Chagŭnhao-gogae",
    "latitude": 38.43888,
    "longitude": 126.72526,
    "category": "Mountain",
    "subcategory": "Mountain Pass",
    "featured": false,
    "priority": 50
  },
  {
    "geonameId": 13545766,
    "name": "Chagŭnjadŏk-san",
    "latitude": 38.70122,
    "longitude": 126.76268,
    "category": "Mountain",
    "subcategory": "Mountain",
    "featured": false,
    "priority": 50
  },
  {
    "geonameId": 1869797,
    "name": "Chagŭnmae-bong",
    "latitude": 38.81764,
    "longitude": 127.08714,
    "category": "Mountain",
    "subcategory": "Peak",
    "featured": false,
    "priority": 50
  },
  {
    "geonameId": 1869795,
    "name": "Chagŭnmaeryuk-to",
    "latitude": 39.66817,
    "longitude": 124.862,
    "category": "Island",
    "subcategory": "Island",
    "featured": false,
    "priority": 50
  },
  {
    "geonameId": 13642225,
    "name": "Chagunmalgul-gogae",
    "latitude": 38.44227,
    "longitude": 126.44409,
    "category": "Mountain",
    "subcategory": "Mountain Pass",
    "featured": false,
    "priority": 50
  },
  {
    "geonameId": 7500563,
    "name": "Chagŭnmalguri-gogae",
    "latitude": 39.80472,
    "longitude": 125.07917,
    "category": "Mountain",
    "subcategory": "Mountain Pass",
    "featured": false,
    "priority": 50
  },
  {
    "geonameId": 6281898,
    "name": "Chagŭnmang-nyŏng",
    "latitude": 40.38917,
    "longitude": 125.24273,
    "category": "Mountain",
    "subcategory": "Mountain Pass",
    "featured": false,
    "priority": 50
  },
  {
    "geonameId": 2049098,
    "name": "Chagŭnmin-bong",
    "latitude": 42.17431,
    "longitude": 129.27512,
    "category": "Mountain",
    "subcategory": "Peak",
    "featured": false,
    "priority": 50
  },
  {
    "geonameId": 1879457,
    "name": "Chagŭnmŏk-kogae",
    "latitude": 39.6,
    "longitude": 125.65,
    "category": "Mountain",
    "subcategory": "Mountain Pass",
    "featured": false,
    "priority": 50
  },
  {
    "geonameId": 1869306,
    "name": "Chagŭnoksil-gogae",
    "latitude": 38.50806,
    "longitude": 127.01222,
    "category": "Mountain",
    "subcategory": "Mountain Pass",
    "featured": false,
    "priority": 50
  },
  {
    "geonameId": 13524206,
    "name": "Chagŭnsakkat-pong",
    "latitude": 38.78747,
    "longitude": 127.99198,
    "category": "Mountain",
    "subcategory": "Peak",
    "featured": false,
    "priority": 50
  },
  {
    "geonameId": 1879454,
    "name": "Chagŭnsŏngnŏmi-kogae",
    "latitude": 38.13586,
    "longitude": 124.79717,
    "category": "Mountain",
    "subcategory": "Mountain Pass",
    "featured": false,
    "priority": 50
  },
  {
    "geonameId": 1870180,
    "name": "Chagŭnssari-sŏm",
    "latitude": 39.52361,
    "longitude": 124.81167,
    "category": "Island",
    "subcategory": "Island",
    "featured": false,
    "priority": 50
  },
  {
    "geonameId": 13519867,
    "name": "Chagŭnssuk-kogae",
    "latitude": 38.72375,
    "longitude": 127.65624,
    "category": "Mountain",
    "subcategory": "Mountain Pass",
    "featured": false,
    "priority": 50
  },
  {
    "geonameId": 1879453,
    "name": "Chagŭnswae-do",
    "latitude": 38.68333,
    "longitude": 125.4,
    "category": "Island",
    "subcategory": "Island",
    "featured": false,
    "priority": 50
  },
  {
    "geonameId": 1921590,
    "name": "Chagŭnyangdol-to",
    "latitude": 39.66271,
    "longitude": 124.94901,
    "category": "Island",
    "subcategory": "Island",
    "featured": false,
    "priority": 50
  },
  {
    "geonameId": 6281537,
    "name": "Chagŭnyŏul-lyŏng",
    "latitude": 40.74194,
    "longitude": 125.59112,
    "category": "Mountain",
    "subcategory": "Mountain Pass",
    "featured": false,
    "priority": 50
  },
  {
    "geonameId": 1879446,
    "name": "Chaha-san",
    "latitude": 39.2,
    "longitude": 126.55028,
    "category": "Mountain",
    "subcategory": "Mountain",
    "featured": false,
    "priority": 50
  },
  {
    "geonameId": 1888137,
    "name": "Chajae-ryŏng",
    "latitude": 38.51565,
    "longitude": 127.8908,
    "category": "Mountain",
    "subcategory": "Mountain Pass",
    "featured": false,
    "priority": 50
  },
  {
    "geonameId": 1889323,
    "name": "Chajak-kogae",
    "latitude": 38.64316,
    "longitude": 126.72599,
    "category": "Mountain",
    "subcategory": "Mountain Pass",
    "featured": false,
    "priority": 50
  },
  {
    "geonameId": 1929218,
    "name": "Chajak-san",
    "latitude": 39.32259,
    "longitude": 126.11002,
    "category": "Mountain",
    "subcategory": "Mountain",
    "featured": false,
    "priority": 50
  },
  {
    "geonameId": 1931896,
    "name": "Chajang-bong",
    "latitude": 38.61503,
    "longitude": 128.10112,
    "category": "Mountain",
    "subcategory": "Peak",
    "featured": false,
    "priority": 50
  },
  {
    "geonameId": 1889838,
    "name": "Chajang-nyŏng",
    "latitude": 39.3161,
    "longitude": 126.1183,
    "category": "Mountain",
    "subcategory": "Mountain Pass",
    "featured": false,
    "priority": 50
  },
  {
    "geonameId": 2045236,
    "name": "Chaji-bong",
    "latitude": 41.38091,
    "longitude": 127.57327,
    "category": "Mountain",
    "subcategory": "Mountain",
    "featured": false,
    "priority": 50
  },
  {
    "geonameId": 13655313,
    "name": "Chak-kogae",
    "latitude": 38.496,
    "longitude": 126.15348,
    "category": "Mountain",
    "subcategory": "Mountain Pass",
    "featured": false,
    "priority": 50
  },
  {
    "geonameId": 2045230,
    "name": "Chak-pong",
    "latitude": 40.40833,
    "longitude": 128.72056,
    "category": "Mountain",
    "subcategory": "Peak",
    "featured": false,
    "priority": 50
  },
  {
    "geonameId": 1879417,
    "name": "Chak-to",
    "latitude": 38.63607,
    "longitude": 128.36824,
    "category": "Island",
    "subcategory": "Island",
    "featured": false,
    "priority": 50
  },
  {
    "geonameId": 2045232,
    "name": "Chakchanggae-bong",
    "latitude": 41.47372,
    "longitude": 128.32368,
    "category": "Mountain",
    "subcategory": "Peak",
    "featured": false,
    "priority": 50
  },
  {
    "geonameId": 1892035,
    "name": "Chakkol-lyŏng",
    "latitude": 39.97311,
    "longitude": 125.53159,
    "category": "Mountain",
    "subcategory": "Mountain Pass",
    "featured": false,
    "priority": 50
  },
  {
    "geonameId": 13568279,
    "name": "Chaksamul",
    "latitude": 38.27179,
    "longitude": 126.56649,
    "category": "Mountain",
    "subcategory": "Mountain Pass",
    "featured": false,
    "priority": 50
  },
  {
    "geonameId": 1879422,
    "name": "Chaksim-kogae",
    "latitude": 39.87417,
    "longitude": 125.12667,
    "category": "Mountain",
    "subcategory": "Mountain Pass",
    "featured": false,
    "priority": 50
  },
  {
    "geonameId": 13543089,
    "name": "Chaksin-bong",
    "latitude": 38.90875,
    "longitude": 126.87823,
    "category": "Mountain",
    "subcategory": "Peak",
    "featured": false,
    "priority": 50
  },
  {
    "geonameId": 13574927,
    "name": "Chaktu-san",
    "latitude": 38.73239,
    "longitude": 126.71932,
    "category": "Mountain",
    "subcategory": "Mountain",
    "featured": false,
    "priority": 50
  },
  {
    "geonameId": 1875845,
    "name": "Chakŭn'goil-lyŏng",
    "latitude": 39.80393,
    "longitude": 125.3236,
    "category": "Mountain",
    "subcategory": "Mountain Pass",
    "featured": false,
    "priority": 50
  },
  {
    "geonameId": 1879411,
    "name": "Chakŭnnap-sŏm",
    "latitude": 39.26667,
    "longitude": 124.73333,
    "category": "Island",
    "subcategory": "Island",
    "featured": false,
    "priority": 50
  },
  {
    "geonameId": 1879409,
    "name": "Chamae-do",
    "latitude": 38.67917,
    "longitude": 124.97861,
    "category": "Island",
    "subcategory": "Island",
    "featured": false,
    "priority": 50
  },
  {
    "geonameId": 2045224,
    "name": "Chamdu-bong",
    "latitude": 41.26892,
    "longitude": 128.52611,
    "category": "Mountain",
    "subcategory": "Peak",
    "featured": false,
    "priority": 50
  },
  {
    "geonameId": 2045222,
    "name": "Chamdu-san",
    "latitude": 40.96667,
    "longitude": 129.4,
    "category": "Mountain",
    "subcategory": "Mountain",
    "featured": false,
    "priority": 50
  },
  {
    "geonameId": 1882362,
    "name": "Chamgandŏk-san",
    "latitude": 38.4921,
    "longitude": 127.52658,
    "category": "Mountain",
    "subcategory": "Mountain",
    "featured": false,
    "priority": 50
  },
  {
    "geonameId": 13540001,
    "name": "Chamjae-dŏk",
    "latitude": 38.92475,
    "longitude": 127.02477,
    "category": "Mountain",
    "subcategory": "Mountain",
    "featured": false,
    "priority": 50
  },
  {
    "geonameId": 1879392,
    "name": "Chamo-jŏsuji",
    "latitude": 39.36977,
    "longitude": 125.83116,
    "category": "Lake",
    "subcategory": "Reservoir",
    "featured": false,
    "priority": 50
  },
  {
    "geonameId": 1879389,
    "name": "Chamo-san",
    "latitude": 39.32472,
    "longitude": 125.80917,
    "category": "Mountain",
    "subcategory": "Mountain",
    "featured": false,
    "priority": 50
  },
  {
    "geonameId": 6281876,
    "name": "Chan’gong-nyŏng",
    "latitude": 40.37216,
    "longitude": 125.21411,
    "category": "Mountain",
    "subcategory": "Mountain Pass",
    "featured": false,
    "priority": 50
  },
  {
    "geonameId": 13552642,
    "name": "Chandi-gol-gogae",
    "latitude": 38.49375,
    "longitude": 126.95861,
    "category": "Mountain",
    "subcategory": "Mountain Pass",
    "featured": false,
    "priority": 50
  },
  {
    "geonameId": 1879357,
    "name": "Chang-bong",
    "latitude": 38.14167,
    "longitude": 125.91778,
    "category": "Mountain",
    "subcategory": "Mountain",
    "featured": false,
    "priority": 50
  },
  {
    "geonameId": 2049850,
    "name": "Chang-ch’i",
    "latitude": 40.15093,
    "longitude": 128.31507,
    "category": "Mountain",
    "subcategory": "Mountain Pass",
    "featured": false,
    "priority": 50
  },
  {
    "geonameId": 1879314,
    "name": "Chang-do",
    "latitude": 39.68477,
    "longitude": 124.4239,
    "category": "Island",
    "subcategory": "Island",
    "featured": false,
    "priority": 50
  },
  {
    "geonameId": 1875972,
    "name": "Chang-gogae",
    "latitude": 39.63006,
    "longitude": 127.17648,
    "category": "Mountain",
    "subcategory": "Mountain Pass",
    "featured": false,
    "priority": 50
  },
  {
    "geonameId": 1931295,
    "name": "Chang-hyŏn",
    "latitude": 38.31172,
    "longitude": 126.71496,
    "category": "Mountain",
    "subcategory": "Mountain Pass",
    "featured": false,
    "priority": 50
  },
  {
    "geonameId": 6282198,
    "name": "Chang-nyŏng",
    "latitude": 40.29602,
    "longitude": 125.85252,
    "category": "Mountain",
    "subcategory": "Mountain Pass",
    "featured": false,
    "priority": 50
  },
  {
    "geonameId": 6282521,
    "name": "Chang-san",
    "latitude": 40.98167,
    "longitude": 126.42528,
    "category": "Mountain",
    "subcategory": "Mountain",
    "featured": false,
    "priority": 50
  },
  {
    "geonameId": 1879067,
    "name": "Chang-sŏm",
    "latitude": 39.8,
    "longitude": 124.25,
    "category": "Island",
    "subcategory": "Island",
    "featured": false,
    "priority": 50
  },
  {
    "geonameId": 2045220,
    "name": "Changam-ch’on",
    "latitude": 40.60611,
    "longitude": 128.78194,
    "category": "City",
    "subcategory": "City",
    "featured": false,
    "priority": 50
  },
  {
    "geonameId": 1879371,
    "name": "Changam-san",
    "latitude": 38.54861,
    "longitude": 127.39306,
    "category": "Mountain",
    "subcategory": "Mountain",
    "featured": false,
    "priority": 50
  },
  {
    "geonameId": 13539996,
    "name": "Changan-gogae",
    "latitude": 38.93428,
    "longitude": 127.06585,
    "category": "Mountain",
    "subcategory": "Mountain Pass",
    "featured": false,
    "priority": 50
  },
  {
    "geonameId": 1879365,
    "name": "Changan-san",
    "latitude": 39.65361,
    "longitude": 126.23444,
    "category": "Mountain",
    "subcategory": "Mountain",
    "featured": false,
    "priority": 50
  },
  {
    "geonameId": 2050170,
    "name": "Changbang-nyŏng",
    "latitude": 40.60686,
    "longitude": 129.05427,
    "category": "Mountain",
    "subcategory": "Mountain Pass",
    "featured": false,
    "priority": 50
  },
  {
    "geonameId": 13603534,
    "name": "Changbawi",
    "latitude": 38.90716,
    "longitude": 126.36704,
    "category": "Mountain",
    "subcategory": "Mountain",
    "featured": false,
    "priority": 50
  },
  {
    "geonameId": 1891333,
    "name": "Changbawi-gogae",
    "latitude": 38.90289,
    "longitude": 126.36281,
    "category": "Mountain",
    "subcategory": "Mountain Pass",
    "featured": false,
    "priority": 50
  },
  {
    "geonameId": 6281354,
    "name": "Changch’i-ryŏng",
    "latitude": 40.27246,
    "longitude": 127.89501,
    "category": "Mountain",
    "subcategory": "Mountain Pass",
    "featured": false,
    "priority": 50
  },
  {
    "geonameId": 6272689,
    "name": "Changch’i-san",
    "latitude": 39.77472,
    "longitude": 126.96361,
    "category": "Mountain",
    "subcategory": "Mountain",
    "featured": false,
    "priority": 50
  },
  {
    "geonameId": 13607324,
    "name": "Changch'ŏn-gogae",
    "latitude": 38.77072,
    "longitude": 126.38669,
    "category": "Mountain",
    "subcategory": "Mountain Pass",
    "featured": false,
    "priority": 50
  },
  {
    "geonameId": 2045205,
    "name": "Changch’ŏng-san",
    "latitude": 41.84524,
    "longitude": 128.58719,
    "category": "Mountain",
    "subcategory": "Mountain",
    "featured": false,
    "priority": 50
  },
  {
    "geonameId": 2045202,
    "name": "Changdae-bong",
    "latitude": 40.35697,
    "longitude": 125.45732,
    "category": "Mountain",
    "subcategory": "Mountain",
    "featured": false,
    "priority": 50
  },
  {
    "geonameId": 1879316,
    "name": "Changdae-san",
    "latitude": 38.06806,
    "longitude": 125.7375,
    "category": "Mountain",
    "subcategory": "Mountain",
    "featured": false,
    "priority": 50
  },