[
  {
    "geonameId": 285856,
    "name": "Ad Dasmah",
    "latitude": 29.365,
    "longitude": 48.00139,
    "category": "City",
    "subcategory": "City",
    "featured": false,
    "priority": 50
  },
  {
    "geonameId": 285839,
    "name": "Al Aḩmadī",
    "latitude": 29.07694,
    "longitude": 48.08389,
    "category": "City",
    "subcategory": "Regional Capital",
    "featured": false,
    "priority": 50
  },
  {
    "geonameId": 285811,
    "name": "Al Faḩāḩīl",
    "latitude": 29.0825,
    "longitude": 48.13028,
    "category": "City",
    "subcategory": "City",
    "featured": false,
    "priority": 50
  },
  {
    "geonameId": 285815,
    "name": "Al Farwānīyah",
    "latitude": 29.2775,
    "longitude": 47.95861,
    "category": "City",
    "subcategory": "Regional Capital",
    "featured": false,
    "priority": 50
  },
  {
    "geonameId": 285812,
    "name": "Al Finţās",
    "latitude": 29.17389,
    "longitude": 48.12111,
    "category": "City",
    "subcategory": "City",
    "featured": false,
    "priority": 50
  },
  {
    "geonameId": 285799,
    "name": "Al Jahrā’",
    "latitude": 29.3375,
    "longitude": 47.65806,
    "category": "City",
    "subcategory": "Regional Capital",
    "featured": false,
    "priority": 50
  },
  {
    "geonameId": 285782,
    "name": "Al Mahbūlah",
    "latitude": 29.145,
    "longitude": 48.13028,
    "category": "City",
    "subcategory": "City",
    "featured": false,
    "priority": 50
  },
  {
    "geonameId": 285778,
    "name": "Al Manqaf",
    "latitude": 29.09611,
    "longitude": 48.13278,
    "category": "City",
    "subcategory": "City",
    "featured": false,
    "priority": 50
  },
  {
    "geonameId": 285760,
    "name": "Al Wafrah",
    "latitude": 28.63917,
    "longitude": 47.93056,
    "category": "City",
    "subcategory": "City",
    "featured": false,
    "priority": 50
  },
  {
    "geonameId": 285728,
    "name": "Ar Riqqah",
    "latitude": 29.14583,
    "longitude": 48.09472,
    "category": "City",
    "subcategory": "City",
    "featured": false,
    "priority": 50
  },
  {
    "geonameId": 285673,
    "name": "Az Zawr",
    "latitude": 29.4425,
    "longitude": 48.27472,
    "category": "City",
    "subcategory": "City",
    "featured": false,
    "priority": 50
  },
  {
    "geonameId": 285629,
    "name": "Ḩawallī",
    "latitude": 29.33278,
    "longitude": 48.02861,
    "category": "City",
    "subcategory": "Regional Capital",
    "featured": false,
    "priority": 50
  },
  {
    "geonameId": 285603,
    "name": "Janūb as Surrah",
    "latitude": 29.26917,
    "longitude": 47.97806,
    "category": "City",
    "subcategory": "City",
    "featured": false,
    "priority": 50
  },
  {
    "geonameId": 285680,
    "name": "Jazīrat ‘Awhah",
    "latitude": 29.37778,
    "longitude": 48.43917,
    "category": "Island",
    "subcategory": "Island",
    "featured": false,
    "priority": 50
  },
  {
    "geonameId": 285659,
    "name": "Jazīrat Būbiyān",
    "latitude": 29.76972,
    "longitude": 48.25556,
    "category": "Island",
    "subcategory": "Island",
    "featured": false,
    "priority": 50
  },
  {
    "geonameId": 285638,
    "name": "Jazīrat Faylakā",
    "latitude": 29.44056,
    "longitude": 48.33472,
    "category": "Island",
    "subcategory": "Island",
    "featured": false,
    "priority": 50
  },
  {
    "geonameId": 285571,
    "name": "Jazīrat Kubbar",
    "latitude": 29.07222,
    "longitude": 48.49333,
    "category": "Island",
    "subcategory": "Island",
    "featured": false,
    "priority": 50
  },
  {
    "geonameId": 285553,
    "name": "Jazīrat Miskān",
    "latitude": 29.48472,
    "longitude": 48.25139,
    "category": "Island",
    "subcategory": "Island",
    "featured": false,
    "priority": 50
  },
  {
    "geonameId": 285494,
    "name": "Jazīrat Qārūh",
    "latitude": 28.81762,
    "longitude": 48.77638,
    "category": "Island",
    "subcategory": "Island",
    "featured": false,
    "priority": 50
  },
  {
    "geonameId": 285420,
    "name": "Jazīrat Umm al Marādim",
    "latitude": 28.68025,
    "longitude": 48.65171,
    "category": "Island",
    "subcategory": "Island",
    "featured": false,
    "priority": 50
  },
  {
    "geonameId": 285417,
    "name": "Jazīrat Umm an Naml",
    "latitude": 29.38167,
    "longitude": 47.86694,
    "category": "Island",
    "subcategory": "Island",
    "featured": false,
    "priority": 50
  },
  {
    "geonameId": 412756,
    "name": "Jazīrat Warbah",
    "latitude": 30.00167,
    "longitude": 48.08167,
    "category": "Island",
    "subcategory": "Island",
    "featured": false,
    "priority": 50
  },
  {
    "geonameId": 393537,
    "name": "Khashm Ghuḑayy",
    "latitude": 29.5025,
    "longitude": 47.77444,
    "category": "Mountain",
    "subcategory": "Peak",
    "featured": false,
    "priority": 50
  },
  {
    "geonameId": 285787,
    "name": "Kuwait City",
    "latitude": 29.367,
    "longitude": 47.97429,
    "category": "City",
    "subcategory": "Capital",
    "featured": false,
    "priority": 50
  },
  {
    "geonameId": 11579278,
    "name": "Mazāri‘ al ‘Abdalī",
    "latitude": 30.04219,
    "longitude": 47.72205,
    "category": "City",
    "subcategory": "City",
    "featured": false,
    "priority": 50
  },
  {
    "geonameId": 7329411,
    "name": "Mubārak al Kabīr",
    "latitude": 29.18979,
    "longitude": 48.08716,
    "category": "City",
    "subcategory": "Regional Capital",
    "featured": false,
    "priority": 50
  },
  {
    "geonameId": 412800,
    "name": "Şabāḩ as Sālim",
    "latitude": 29.25722,
    "longitude": 48.05722,
    "category": "City",
    "subcategory": "City",
    "featured": false,
    "priority": 50
  },
  {
    "geonameId": 285371,
    "name": "Warbah",
    "latitude": 29.99389,
    "longitude": 48.06667,
    "category": "Island",
    "subcategory": "Island",
    "featured": false,
    "priority": 50
  }
]