[
  {
    "geonameId": 1084845,
    "name": "Abefotaka",
    "latitude": -16.95,
    "longitude": 47.36667,
    "category": "Mountain",
    "subcategory": "Mountain",
    "featured": false,
    "priority": 50
  },
  {
    "geonameId": 1084838,
    "name": "Abohimataza",
    "latitude": -18.3,
    "longitude": 47.41667,
    "category": "Mountain",
    "subcategory": "Mountain",
    "featured": false,
    "priority": 50
  },
  {
    "geonameId": 1084786,
    "name": "Akahabe",
    "latitude": -24.48333,
    "longitude": 46.83333,
    "category": "Mountain",
    "subcategory": "Mountain",
    "featured": false,
    "priority": 50
  },
  {
    "geonameId": 1084783,
    "name": "Akangavanosy",
    "latitude": -23.5,
    "longitude": 46.06667,
    "category": "Mountain",
    "subcategory": "Mountain",
    "featured": false,
    "priority": 50
  },
  {
    "geonameId": 1084740,
    "name": "Alarobia",
    "latitude": -18.96667,
    "longitude": 47.73333,
    "category": "City",
    "subcategory": "City",
    "featured": false,
    "priority": 50
  },
  {
    "geonameId": 1084528,
    "name": "Ambaky",
    "latitude": -15.86667,
    "longitude": 48.43333,
    "category": "Mountain",
    "subcategory": "Mountain",
    "featured": false,
    "priority": 50
  },
  {
    "geonameId": 1084317,
    "name": "Ambalalambo",
    "latitude": -23.16667,
    "longitude": 46.83333,
    "category": "Mountain",
    "subcategory": "Mountain",
    "featured": false,
    "priority": 50
  },
  {
    "geonameId": 1084181,
    "name": "Ambalanabo",
    "latitude": -14.55,
    "longitude": 48.58333,
    "category": "Mountain",
    "subcategory": "Mountain",
    "featured": false,
    "priority": 50
  },
  {
    "geonameId": 1084063,
    "name": "Ambalatany",
    "latitude": -22.56667,
    "longitude": 44,
    "category": "Mountain",
    "subcategory": "Mountain",
    "featured": false,
    "priority": 50
  },
  {
    "geonameId": 1083968,
    "name": "Ambalavao",
    "latitude": -21.83333,
    "longitude": 46.93333,
    "category": "City",
    "subcategory": "City",
    "featured": false,
    "priority": 50
  },
  {
    "geonameId": 1083930,
    "name": "Ambalavato",
    "latitude": -24.75,
    "longitude": 46.26667,
    "category": "Mountain",
    "subcategory": "Mountain",
    "featured": false,
    "priority": 50
  },
  {
    "geonameId": 1083869,
    "name": "Ambalavia",
    "latitude": -16.48333,
    "longitude": 48.28333,
    "category": "Mountain",
    "subcategory": "Mountain",
    "featured": false,
    "priority": 50
  },
  {
    "geonameId": 1083785,
    "name": "Ambalombositra",
    "latitude": -19.98333,
    "longitude": 46.15,
    "category": "Mountain",
    "subcategory": "Mountain",
    "featured": false,
    "priority": 50
  },
  {
    "geonameId": 1083724,
    "name": "Ambanja",
    "latitude": -13.669,
    "longitude": 48.453,
    "category": "City",
    "subcategory": "City",
    "featured": false,
    "priority": 50
  },
  {
    "geonameId": 1083676,
    "name": "Ambarakaraka",
    "latitude": -13.5,
    "longitude": 48.86667,
    "category": "City",
    "subcategory": "City",
    "featured": false,
    "priority": 50
  },
  {
    "geonameId": 1083574,
    "name": "Ambararata Avaratra",
    "latitude": -21.23333,
    "longitude": 45.98333,
    "category": "Mountain",
    "subcategory": "Mountain",
    "featured": false,
    "priority": 50
  },
  {
    "geonameId": 1083527,
    "name": "Ambararatavokoka",
    "latitude": -19.9,
    "longitude": 45.8,
    "category": "Mountain",
    "subcategory": "Mountain",
    "featured": false,
    "priority": 50
  },
  {
    "geonameId": 1083516,
    "name": "Ambaratilava",
    "latitude": -13.85,
    "longitude": 49.35,
    "category": "Mountain",
    "subcategory": "Mountain",
    "featured": false,
    "priority": 50
  },
  {
    "geonameId": 1083513,
    "name": "Ambaravarambato",
    "latitude": -19.25,
    "longitude": 47.18333,
    "category": "Mountain",
    "subcategory": "Mountain",
    "featured": false,
    "priority": 50
  },
  {
    "geonameId": 1083434,
    "name": "Ambariobe",
    "latitude": -13.43333,
    "longitude": 48.36667,
    "category": "Island",
    "subcategory": "Island",
    "featured": false,
    "priority": 50
  },
  {
    "geonameId": 1083433,
    "name": "Ambariokaka",
    "latitude": -14.63333,
    "longitude": 47.86667,
    "category": "Island",
    "subcategory": "Island",
    "featured": false,
    "priority": 50
  },
  {
    "geonameId": 1083428,
    "name": "Ambariompotaka",
    "latitude": -13.93333,
    "longitude": 47.76667,
    "category": "Island",
    "subcategory": "Island",
    "featured": false,
    "priority": 50
  },
  {
    "geonameId": 1083422,
    "name": "Ambariopotaka",
    "latitude": -14.63333,
    "longitude": 47.91667,
    "category": "Island",
    "subcategory": "Island",
    "featured": false,
    "priority": 50
  },
  {
    "geonameId": 1083421,
    "name": "Ambariotelo",
    "latitude": -13.43333,
    "longitude": 48.36667,
    "category": "Island",
    "subcategory": "Island Group",
    "featured": false,
    "priority": 50
  },
  {
    "geonameId": 1083358,
    "name": "Ambato",
    "latitude": -15.26667,
    "longitude": 50.33333,
    "category": "Mountain",
    "subcategory": "Mountain",
    "featured": false,
    "priority": 50
  },
  {
    "geonameId": 1083257,
    "name": "Ambato Boeny",
    "latitude": -16.46667,
    "longitude": 46.71667,
    "category": "City",
    "subcategory": "City",
    "featured": false,
    "priority": 50
  },
  {
    "geonameId": 1083256,
    "name": "Ambatoboka",
    "latitude": -19.56667,
    "longitude": 45.93333,
    "category": "Mountain",
    "subcategory": "Mountain",
    "featured": false,
    "priority": 50
  },
  {
    "geonameId": 1083245,
    "name": "Ambatofamelana",
    "latitude": -15.46667,
    "longitude": 48.96667,
    "category": "Mountain",
    "subcategory": "Mountain",
    "featured": false,
    "priority": 50
  },
  {
    "geonameId": 1083239,
    "name": "Ambatofinandrahana",
    "latitude": -20.55284,
    "longitude": 46.80365,
    "category": "City",
    "subcategory": "County Seat",
    "featured": false,
    "priority": 50
  },
  {
    "geonameId": 1083232,
    "name": "Ambatofitatra",
    "latitude": -14.83333,
    "longitude": 48.5,
    "category": "Mountain",
    "subcategory": "Mountain",
    "featured": false,
    "priority": 50
  },
  {
    "geonameId": 1083221,
    "name": "Ambatofotosy",
    "latitude": -19.43333,
    "longitude": 45.95,
    "category": "Mountain",
    "subcategory": "Mountain",
    "featured": false,
    "priority": 50
  },
  {
    "geonameId": 1083220,
    "name": "Ambatofotsibe",
    "latitude": -18.46667,
    "longitude": 45.98333,
    "category": "Mountain",
    "subcategory": "Mountain",
    "featured": false,
    "priority": 50
  },
  {
    "geonameId": 1083214,
    "name": "Ambatofotsy",
    "latitude": -19.53333,
    "longitude": 48.3,
    "category": "Mountain",
    "subcategory": "Mountain",
    "featured": false,
    "priority": 50
  },
  {
    "geonameId": 1083162,
    "name": "Ambatoharanana",
    "latitude": -18.21667,
    "longitude": 46.66667,
    "category": "Mountain",
    "subcategory": "Mountain",
    "featured": false,
    "priority": 50
  },
  {
    "geonameId": 1083056,
    "name": "Ambatolahy",
    "latitude": -22.35,
    "longitude": 45.36667,
    "category": "Mountain",
    "subcategory": "Mountain",
    "featured": false,
    "priority": 50
  },
  {
    "geonameId": 1082992,
    "name": "Ambatolampy",
    "latitude": -19.38333,
    "longitude": 47.41667,
    "category": "City",
    "subcategory": "City",
    "featured": false,
    "priority": 50
  },
  {
    "geonameId": 1082973,
    "name": "Ambatolaona",
    "latitude": -18.93333,
    "longitude": 47.9,
    "category": "City",
    "subcategory": "City",
    "featured": false,
    "priority": 50
  },
  {
    "geonameId": 1082968,
    "name": "Ambatolnhy",
    "latitude": -23.93333,
    "longitude": 45.46667,
    "category": "Mountain",
    "subcategory": "Mountain",
    "featured": false,
    "priority": 50
  },
  {
    "geonameId": 1082935,
    "name": "Ambatomainty",
    "latitude": -18.48333,
    "longitude": 46.76667,
    "category": "Mountain",
    "subcategory": "Mountain",
    "featured": false,
    "priority": 50
  },
  {
    "geonameId": 1082848,
    "name": "Ambatomalaza",
    "latitude": -18.33333,
    "longitude": 47.06667,
    "category": "Mountain",
    "subcategory": "Mountain",
    "featured": false,
    "priority": 50
  },
  {
    "geonameId": 1082834,
    "name": "Ambatomandondona",
    "latitude": -17.2,
    "longitude": 47.56667,
    "category": "Mountain",
    "subcategory": "Mountain",
    "featured": false,
    "priority": 50
  },
  {
    "geonameId": 1082832,
    "name": "Ambatomandranjy",
    "latitude": -13.91667,
    "longitude": 49.13333,
    "category": "Mountain",
    "subcategory": "Mountain",
    "featured": false,
    "priority": 50
  },
  {
    "geonameId": 1082810,
    "name": "Ambatomaola",
    "latitude": -19.1,
    "longitude": 47.71667,
    "category": "Mountain",
    "subcategory": "Mountain",
    "featured": false,
    "priority": 50
  },
  {
    "geonameId": 1082804,
    "name": "Ambatomasina",
    "latitude": -20.81667,
    "longitude": 47.73333,
    "category": "Mountain",
    "subcategory": "Mountain",
    "featured": false,
    "priority": 50
  },
  {
    "geonameId": 1082776,
    "name": "Ambatomboromahery",
    "latitude": -17.35,
    "longitude": 47.43333,
    "category": "Mountain",
    "subcategory": "Mountain",
    "featured": false,
    "priority": 50
  },
  {
    "geonameId": 1082774,
    "name": "Ambatomboromaika",
    "latitude": -17.4,
    "longitude": 47.61667,
    "category": "Mountain",
    "subcategory": "Mountain",
    "featured": false,
    "priority": 50
  },
  {
    "geonameId": 1082757,
    "name": "Ambatomenaloha",
    "latitude": -19.46667,
    "longitude": 46.15,
    "category": "Mountain",
    "subcategory": "Mountain",
    "featured": false,
    "priority": 50
  },
  {
    "geonameId": 1082749,
    "name": "Ambatomiankina",
    "latitude": -16.4,
    "longitude": 47.98333,
    "category": "Mountain",
    "subcategory": "Mountain",
    "featured": false,
    "priority": 50
  },
  {
    "geonameId": 1082744,
    "name": "Ambatomibaby",
    "latitude": -14.11667,
    "longitude": 49.45,
    "category": "Mountain",
    "subcategory": "Mountain",
    "featured": false,
    "priority": 50
  },
  {
    "geonameId": 1082716,
    "name": "Ambatomirahavay",
    "latitude": -18.1,
    "longitude": 46.98333,
    "category": "Mountain",
    "subcategory": "Mountain",
    "featured": false,
    "priority": 50
  },
  {
    "geonameId": 1082705,
    "name": "Ambatomitefy",
    "latitude": -19.56667,
    "longitude": 45.78333,
    "category": "Mountain",
    "subcategory": "Mountain",
    "featured": false,
    "priority": 50
  },
  {
    "geonameId": 1082693,
    "name": "Ambatomitsangana",
    "latitude": -18.16667,
    "longitude": 47.61667,
    "category": "Mountain",
    "subcategory": "Mountain",
    "featured": false,
    "priority": 50
  },
  {
    "geonameId": 1082664,
    "name": "Ambatomitsiditry",
    "latitude": -13.86667,
    "longitude": 49.28333,
    "category": "Mountain",
    "subcategory": "Mountain",
    "featured": false,
    "priority": 50
  },
  {
    "geonameId": 1082648,
    "name": "Ambatondrahavavy",
    "latitude": -18.11667,
    "longitude": 47,
    "category": "Mountain",
    "subcategory": "Mountain",
    "featured": false,
    "priority": 50
  },
  {
    "geonameId": 1082642,
    "name": "Ambatondrangahy",
    "latitude": -19.4,
    "longitude": 47.21667,
    "category": "Mountain",
    "subcategory": "Mountain",
    "featured": false,
    "priority": 50
  },
  {
    "geonameId": 1082640,
    "name": "Ambatondrasomotra",
    "latitude": -19.7,
    "longitude": 47.53333,
    "category": "Mountain",
    "subcategory": "Mountain",
    "featured": false,
    "priority": 50
  },
  {
    "geonameId": 1082639,
    "name": "Ambatondrazaka",
    "latitude": -17.83333,
    "longitude": 48.41667,
    "category": "City",
    "subcategory": "Regional Capital",
    "featured": false,
    "priority": 50
  },
  {
    "geonameId": 1082638,
    "name": "Ambatondrazana",
    "latitude": -17.66667,
    "longitude": 48,
    "category": "Mountain",
    "subcategory": "Mountain",
    "featured": false,
    "priority": 50
  },
  {
    "geonameId": 1082630,
    "name": "Ambatonosy",
    "latitude": -23.03333,
    "longitude": 46.26667,
    "category": "Mountain",
    "subcategory": "Mountain",
    "featured": false,
    "priority": 50
  },
  {
    "geonameId": 1082594,
    "name": "Ambatosambo",
    "latitude": -13.23333,
    "longitude": 49.6,
    "category": "Mountain",
    "subcategory": "Mountain",
    "featured": false,
    "priority": 50
  },
  {
    "geonameId": 1082557,
    "name": "Ambatotaga",
    "latitude": -19.93333,
    "longitude": 46.41667,
    "category": "Mountain",
    "subcategory": "Mountain",
    "featured": false,
    "priority": 50
  },
  {
    "geonameId": 1082534,
    "name": "Ambatovaky",
    "latitude": -17.95,
    "longitude": 46.58333,
    "category": "Mountain",
    "subcategory": "Mountain",
    "featured": false,
    "priority": 50
  },
  {
    "geonameId": 1082521,
    "name": "Ambatovaky Avaratra",
    "latitude": -16.78333,
    "longitude": 49.13333,
    "category": "Mountain",
    "subcategory": "Mountain",
    "featured": false,
    "priority": 50
  },
  {
    "geonameId": 1082514,
    "name": "Ambatovavenby",
    "latitude": -19.9,
    "longitude": 46.56667,
    "category": "Mountain",
    "subcategory": "Mountain",
    "featured": false,
    "priority": 50
  },
  {
    "geonameId": 1082511,
    "name": "Ambatovelezina",
    "latitude": -14.48333,
    "longitude": 49.96667,
    "category": "Mountain",
    "subcategory": "Mountain",
    "featured": false,
    "priority": 50
  },
  {
    "geonameId": 1082491,
    "name": "Ambatovory",
    "latitude": -22.08333,
    "longitude": 45.86667,
    "category": "Mountain",
    "subcategory": "Mountain",
    "featured": false,
    "priority": 50
  },
  {
    "geonameId": 1082480,
    "name": "Ambatovy",
    "latitude": -18.81667,
    "longitude": 48.3,
    "category": "Mountain",
    "subcategory": "Mountain",
    "featured": false,
    "priority": 50
  },
  {
    "geonameId": 1082476,
    "name": "Ambatry",
    "latitude": -19.56667,
    "longitude": 45.98333,
    "category": "Mountain",
    "subcategory": "Mountain",
    "featured": false,
    "priority": 50
  },
  {
    "geonameId": 1082464,
    "name": "Ambavahadivato",
    "latitude": -17.13333,
    "longitude": 47.93333,
    "category": "Mountain",
    "subcategory": "Mountain",
    "featured": false,
    "priority": 50
  },
  {
    "geonameId": 1082400,
    "name": "Ambendrakely",
    "latitude": -16.95,
    "longitude": 47.66667,
    "category": "Mountain",
    "subcategory": "Mountain",
    "featured": false,
    "priority": 50
  },
  {
    "geonameId": 1082381,
    "name": "Ambera",
    "latitude": -22.13333,
    "longitude": 44.05,
    "category": "Mountain",
    "subcategory": "Mountain",
    "featured": false,
    "priority": 50
  },
  {
    "geonameId": 1082256,
    "name": "Ambilanivy",
    "latitude": -13.78333,
    "longitude": 48.15,
    "category": "Mountain",
    "subcategory": "Mountain",
    "featured": false,
    "priority": 50
  },
  {
    "geonameId": 1082243,
    "name": "Ambilobe",
    "latitude": -13.2,
    "longitude": 49.05,
    "category": "City",
    "subcategory": "County Seat",
    "featured": false,
    "priority": 50
  },
  {
    "geonameId": 1081988,
    "name": "Ambiniviny",
    "latitude": -16.23333,
    "longitude": 48.81667,
    "category": "Mountain",
    "subcategory": "Mountain",
    "featured": false,
    "priority": 50
  },
  {
    "geonameId": 1081950,
    "name": "Amboahangimena",
    "latitude": -22.75,
    "longitude": 46.33333,
    "category": "Mountain",
    "subcategory": "Mountain",
    "featured": false,
    "priority": 50
  },
  {
    "geonameId": 1081942,
    "name": "Amboahangy",
    "latitude": -24.25,
    "longitude": 46.65,
    "category": "Mountain",
    "subcategory": "Mountain",
    "featured": false,
    "priority": 50
  },
  {
    "geonameId": 1081863,
    "name": "Amboanjo",
    "latitude": -22,
    "longitude": 47.85,
    "category": "City",
    "subcategory": "City",
    "featured": false,
    "priority": 50
  },
  {
    "geonameId": 1081854,
    "name": "Amboankazo",
    "latitude": -19.98333,
    "longitude": 46.85,
    "category": "Mountain",
    "subcategory": "Mountain",
    "featured": false,
    "priority": 50
  },
  {
    "geonameId": 1081790,
    "name": "Amboasary",
    "latitude": -25.03333,
    "longitude": 46.38333,
    "category": "City",
    "subcategory": "City",
    "featured": false,
    "priority": 50
  },
  {
    "geonameId": 1081782,
    "name": "Amboasary-Tsimitombo",
    "latitude": -17.55,
    "longitude": 48.03333,
    "category": "Mountain",
    "subcategory": "Mountain",
    "featured": false,
    "priority": 50
  },
  {
    "geonameId": 1081752,
    "name": "Ambodahy",
    "latitude": -13.85,
    "longitude": 49.36667,
    "category": "Mountain",
    "subcategory": "Mountain",
    "featured": false,
    "priority": 50
  },
  {
    "geonameId": 1081530,
    "name": "Ambodifotatra",
    "latitude": -16.98333,
    "longitude": 49.85,
    "category": "City",
    "subcategory": "City",
    "featured": false,
    "priority": 50
  },
  {
    "geonameId": 1081501,
    "name": "Ambodihasina",
    "latitude": -17.05,
    "longitude": 49.33333,
    "category": "Mountain",
    "subcategory": "Mountain",
    "featured": false,
    "priority": 50
  },
  {
    "geonameId": 1081480,
    "name": "Ambodihazomamy",
    "latitude": -13.73333,
    "longitude": 48.11667,
    "category": "Mountain",
    "subcategory": "Mountain",
    "featured": false,
    "priority": 50
  },
  {
    "geonameId": 1081445,
    "name": "Ambodilaitra",
    "latitude": -14.66667,
    "longitude": 48.83333,
    "category": "Mountain",
    "subcategory": "Mountain",
    "featured": false,
    "priority": 50
  },
  {
    "geonameId": 1081199,
    "name": "Ambodimanga II",
    "latitude": -17.26667,
    "longitude": 49.16667,
    "category": "City",
    "subcategory": "City",
    "featured": false,
    "priority": 50
  },
  {
    "geonameId": 1081168,
    "name": "Ambodimongy",
    "latitude": -16.16667,
    "longitude": 48.43333,
    "category": "Mountain",
    "subcategory": "Mountain",
    "featured": false,
    "priority": 50
  },
  {
    "geonameId": 1080944,
    "name": "Ambodisikidy",
    "latitude": -16.51667,
    "longitude": 47.75,
    "category": "Mountain",
    "subcategory": "Mountain",
    "featured": false,
    "priority": 50
  },
  {
    "geonameId": 1080872,
    "name": "Ambodivato",
    "latitude": -14.96667,
    "longitude": 49.23333,
    "category": "Mountain",
    "subcategory": "Mountain",
    "featured": false,
    "priority": 50
  },
  {
    "geonameId": 1080809,
    "name": "Ambodivoara",
    "latitude": -14.33333,
    "longitude": 49.98333,
    "category": "City",
    "subcategory": "City",
    "featured": false,
    "priority": 50
  },
  {
    "geonameId": 1080738,
    "name": "Ambohibahy",
    "latitude": -21,
    "longitude": 46.21667,
    "category": "Mountain",
    "subcategory": "Mountain",
    "featured": false,
    "priority": 50
  },
  {
    "geonameId": 1080737,
    "name": "Ambohibaingy",
    "latitude": -16.93333,
    "longitude": 47.81667,
    "category": "Mountain",
    "subcategory": "Mountain",
    "featured": false,
    "priority": 50
  },
  {
    "geonameId": 1080668,
    "name": "Ambohibatazana",
    "latitude": -19.58333,
    "longitude": 47.26667,
    "category": "Mountain",
    "subcategory": "Mountain",
    "featured": false,
    "priority": 50
  },
  {
    "geonameId": 1080667,
    "name": "Ambohibato",
    "latitude": -25.06667,
    "longitude": 46.61667,
    "category": "Mountain",
    "subcategory": "Mountain",
    "featured": false,
    "priority": 50
  },
  {
    "geonameId": 1080655,
    "name": "Ambohibe",
    "latitude": -18.88333,
    "longitude": 47.58333,
    "category": "Mountain",
    "subcategory": "Mountain",
    "featured": false,
    "priority": 50
  },
  {
    "geonameId": 1080619,
    "name": "Ambohibola",
    "latitude": -22.23333,
    "longitude": 45.78333,
    "category": "Mountain",
    "subcategory": "Mountain",
    "featured": false,
    "priority": 50
  },
  {
    "geonameId": 1080594,
    "name": "Ambohibory",
    "latitude": -14.7,
    "longitude": 49.25,
    "category": "Mountain",
    "subcategory": "Mountain",
    "featured": false,
    "priority": 50
  },
  {
    "geonameId": 1080579,
    "name": "Ambohiby",
    "latitude": -18.86667,
    "longitude": 46.2,
    "category": "Mountain",
    "subcategory": "Mountain",
    "featured": false,
    "priority": 50
  },
  {
    "geonameId": 1080574,
    "name": "Ambohidahy",
    "latitude": -21.35,
    "longitude": 46.45,
    "category": "Mountain",
    "subcategory": "Mountain",
    "featured": false,
    "priority": 50
  },
  {
    "geonameId": 1080550,
    "name": "Ambohidoky",
    "latitude": -24.28333,
    "longitude": 46.98333,
    "category": "Mountain",
    "subcategory": "Mountain",
    "featured": false,
    "priority": 50
  },
  {
    "geonameId": 1080544,
    "name": "Ambohidrahara",
    "latitude": -24.93333,
    "longitude": 46.7,
    "category": "Mountain",
    "subcategory": "Mountain",
    "featured": false,
    "priority": 50
  },
  {
    "geonameId": 1080527,
    "name": "Ambohidrasao",
    "latitude": -20.11667,
    "longitude": 46.38333,
    "category": "Mountain",
    "subcategory": "Mountain",
    "featured": false,
    "priority": 50
  },
  {
    "geonameId": 1080522,
    "name": "Ambohidratrimo",
    "latitude": -18.818,
    "longitude": 47.43382,
    "category": "City",
    "subcategory": "City",
    "featured": false,
    "priority": 50
  },
  {
    "geonameId": 1080494,
    "name": "Ambohifamontsy",
    "latitude": -14.93333,
    "longitude": 50.2,
    "category": "Mountain",
    "subcategory": "Mountain",
    "featured": false,
    "priority": 50
  },
  {
    "geonameId": 1080485,
    "name": "Ambohijaly",
    "latitude": -14.75,
    "longitude": 49.06667,
    "category": "Mountain",
    "subcategory": "Mountain",
    "featured": false,
    "priority": 50
  },
  {
    "geonameId": 1080438,
    "name": "Ambohimahasoa",
    "latitude": -21.11667,
    "longitude": 47.21667,
    "category": "City",
    "subcategory": "City",
    "featured": false,
    "priority": 50
  },
  {
    "geonameId": 1080399,
    "name": "Ambohimalaza",
    "latitude": -15.66667,
    "longitude": 48.66667,
    "category": "Mountain",
    "subcategory": "Mountain",
    "featured": false,
    "priority": 50
  },
  {
    "geonameId": 1080346,
    "name": "Ambohimanarivo",
    "latitude": -20.03333,
    "longitude": 48.46667,
    "category": "Mountain",
    "subcategory": "Mountain",
    "featured": false,
    "priority": 50
  },
  {
    "geonameId": 1080278,
    "name": "Ambohimanga",
    "latitude": -18.7,
    "longitude": 46.88333,
    "category": "Mountain",
    "subcategory": "Mountain",
    "featured": false,
    "priority": 50
  },
  {
    "geonameId": 1080237,
    "name": "Ambohimanoa",
    "latitude": -18.8,
    "longitude": 47.33333,
    "category": "Mountain",
    "subcategory": "Mountain",
    "featured": false,
    "priority": 50
  },
  {
    "geonameId": 1080072,
    "name": "Ambohimirahavavy",
    "latitude": -17.5,
    "longitude": 45.13333,
    "category": "Mountain",
    "subcategory": "Mountain",
    "featured": false,
    "priority": 50
  },
  {
    "geonameId": 1080051,
    "name": "Ambohimitsara",
    "latitude": -19.93333,
    "longitude": 47.65,
    "category": "Mountain",
    "subcategory": "Mountain",
    "featured": false,
    "priority": 50
  },
  {
    "geonameId": 1080037,
    "name": "Ambohimpanja",
    "latitude": -21.41667,
    "longitude": 47.33333,
    "category": "Mountain",
    "subcategory": "Mountain",
    "featured": false,
    "priority": 50
  },
  {
    "geonameId": 1080006,
    "name": "Ambohipaiana",
    "latitude": -18.58333,
    "longitude": 47.1,
    "category": "Mountain",
    "subcategory": "Mountain",
    "featured": false,
    "priority": 50
  },
  {
    "geonameId": 1079998,
    "name": "Ambohipary",
    "latitude": -19.06667,
    "longitude": 48.18333,
    "category": "Mountain",
    "subcategory": "Mountain",
    "featured": false,
    "priority": 50
  },
  {
    "geonameId": 1079956,
    "name": "Ambohipisaka",
    "latitude": -17.83333,
    "longitude": 45.96667,
    "category": "Mountain",
    "subcategory": "Mountain",
    "featured": false,
    "priority": 50
  },
  {
    "geonameId": 1079943,
    "name": "Ambohipoloalina",
    "latitude": -19.38333,
    "longitude": 46.9,
    "category": "Mountain",
    "subcategory": "Mountain",
    "featured": false,
    "priority": 50
  },
  {
    "geonameId": 1079933,
    "name": "Ambohisanga",
    "latitude": -15.51667,
    "longitude": 49.1,
    "category": "Mountain",
    "subcategory": "Mountain",
    "featured": false,
    "priority": 50
  },
  {
    "geonameId": 1079908,
    "name": "Ambohitra",
    "latitude": -12.61667,
    "longitude": 49.15,
    "category": "Park",
    "subcategory": "Park",
    "featured": false,
    "priority": 50
  },
  {
    "geonameId": 1079902,
    "name": "Ambohitrabo",
    "latitude": -23.2,
    "longitude": 47.08333,
    "category": "Mountain",
    "subcategory": "Mountain",
    "featured": false,
    "priority": 50
  },
  {
    "geonameId": 1079875,
    "name": "Ambohitrakolahy",
    "latitude": -18.7,
    "longitude": 48.56667,
    "category": "Mountain",
    "subcategory": "Mountain",
    "featured": false,
    "priority": 50
  },
  {
    "geonameId": 1079866,
    "name": "Ambohitrambo",
    "latitude": -17.33333,
    "longitude": 48.65,
    "category": "Mountain",
    "subcategory": "Mountain",
    "featured": false,
    "priority": 50
  },
  {
    "geonameId": 1079848,
    "name": "Ambohitrandraza",
    "latitude": -21.56667,
    "longitude": 46.1,
    "category": "Mountain",
    "subcategory": "Mountain",
    "featured": false,
    "priority": 50
  },
  {
    "geonameId": 1079846,
    "name": "Ambohitrandriamanitra",
    "latitude": -19.08333,
    "longitude": 47.78333,
    "category": "City",
    "subcategory": "City",
    "featured": false,
    "priority": 50
  },
  {
    "geonameId": 1079813,
    "name": "Ambohitriangy",
    "latitude": -18.15,
    "longitude": 47.28333,
    "category": "Mountain",
    "subcategory": "Mountain",
    "featured": false,
    "priority": 50
  },
  {
    "geonameId": 1079788,
    "name": "Ambohitrinirna",
    "latitude": -18.91667,
    "longitude": 46.61667,
    "category": "Mountain",
    "subcategory": "Mountain",
    "featured": false,
    "priority": 50
  },
  {
    "geonameId": 1079777,
    "name": "Ambohitrolomahitsy",
    "latitude": -18.7,
    "longitude": 47.68333,
    "category": "City",
    "subcategory": "City",
    "featured": false,
    "priority": 50
  },
  {
    "geonameId": 1079681,
    "name": "Ambohitseheno",
    "latitude": -18.78333,
    "longitude": 47.8,
    "category": "City",
    "subcategory": "City",
    "featured": false,
    "priority": 50
  },
  {
    "geonameId": 1079672,
    "name": "Ambohitsileo",
    "latitude": -18.93333,
    "longitude": 47.68333,
    "category": "Mountain",
    "subcategory": "Mountain",
    "featured": false,
    "priority": 50
  },
  {
    "geonameId": 1079643,
    "name": "Ambohitsitondroinan’ Ambanizana",
    "latitude": -15.58333,
    "longitude": 50.01667,
    "category": "Mountain",
    "subcategory": "Mountain",
    "featured": false,
    "priority": 50
  },
  {
    "geonameId": 1079642,
    "name": "Ambohitsitondroinan’i Mahalevona",
    "latitude": -15.45,
    "longitude": 49.96667,
    "category": "Mountain",
    "subcategory": "Mountain",
    "featured": false,
    "priority": 50
  },
  {
    "geonameId": 1079630,
    "name": "Ambohitsolomola",
    "latitude": -24.61667,
    "longitude": 46.86667,
    "category": "Mountain",
    "subcategory": "Mountain",
    "featured": false,
    "priority": 50
  },
  {
    "geonameId": 1079625,
    "name": "Ambohivelontrasa",
    "latitude": -17.8,
    "longitude": 48.91667,
    "category": "Mountain",
    "subcategory": "Mountain",
    "featured": false,
    "priority": 50
  },
  {
    "geonameId": 1079623,
    "name": "Ambohivohitra",
    "latitude": -14.81667,
    "longitude": 49.95,
    "category": "Mountain",
    "subcategory": "Mountain",
    "featured": false,
    "priority": 50
  },
  {
    "geonameId": 1079598,
    "name": "Ambolamena",
    "latitude": -13.7,
    "longitude": 48.76667,
    "category": "Mountain",
    "subcategory": "Mountain",
    "featured": false,
    "priority": 50
  },
  {
    "geonameId": 1079569,
    "name": "Ambolo",
    "latitude": -24.96667,
    "longitude": 46.68333,
    "category": "Mountain",
    "subcategory": "Mountain",
    "featured": false,
    "priority": 50
  },
  {
    "geonameId": 1079337,
    "name": "Ambondrobe",
    "latitude": -21.55,
    "longitude": 46.43333,
    "category": "Mountain",
    "subcategory": "Mountain",
    "featured": false,
    "priority": 50
  },
  {
    "geonameId": 1079305,
    "name": "Ambondrombe",
    "latitude": -21.86667,
    "longitude": 47.26667,
    "category": "Mountain",
    "subcategory": "Mountain",
    "featured": false,
    "priority": 50
  },
  {
    "geonameId": 1079289,
    "name": "Ambondrona",
    "latitude": -14.26667,
    "longitude": 48.81667,
    "category": "Mountain",
    "subcategory": "Mountain",
    "featured": false,
    "priority": 50
  },
  {
    "geonameId": 1079237,
    "name": "Ambongamarina",
    "latitude": -16.42935,
    "longitude": 47.92577,
    "category": "Mountain",
    "subcategory": "Mountain",
    "featured": false,
    "priority": 50
  },
  {
    "geonameId": 1079228,
    "name": "Ambongomirahavavy",
    "latitude": -13.71667,
    "longitude": 48.8,
    "category": "Mountain",
    "subcategory": "Mountain",
    "featured": false,
    "priority": 50
  },
  {
    "geonameId": 1079196,
    "name": "Ambonondrombe",
    "latitude": -23.36667,
    "longitude": 46.33333,
    "category": "Mountain",
    "subcategory": "Mountain",
    "featured": false,
    "priority": 50
  },
  {
    "geonameId": 1079110,
    "name": "Amborondreo",
    "latitude": -16.83333,
    "longitude": 48.23333,
    "category": "Mountain",
    "subcategory": "Mountain",
    "featured": false,
    "priority": 50
  },
  {
    "geonameId": 1079088,
    "name": "Ambositra",
    "latitude": -20.53034,
    "longitude": 47.24344,
    "category": "City",
    "subcategory": "Regional Capital",
    "featured": false,
    "priority": 50
  },
  {
    "geonameId": 1079048,
    "name": "Ambovombe",
    "latitude": -25.17838,
    "longitude": 46.08722,
    "category": "City",
    "subcategory": "Regional Capital",
    "featured": false,
    "priority": 50
  },
  {
    "geonameId": 1079042,
    "name": "Ambovomena",
    "latitude": -22.56667,
    "longitude": 43.75,
    "category": "Lake",
    "subcategory": "Reservoir",
    "featured": false,
    "priority": 50
  },
  {
    "geonameId": 1079021,
    "name": "Ambozonakanjo",
    "latitude": -13.91667,
    "longitude": 49.56667,
    "category": "Mountain",
    "subcategory": "Mountain",
    "featured": false,
    "priority": 50
  },
  {
    "geonameId": 1079008,
    "name": "Amenda",
    "latitude": -24.11667,
    "longitude": 46.33333,
    "category": "Mountain",
    "subcategory": "Mountain",
    "featured": false,
    "priority": 50
  },
  {
    "geonameId": 1078996,
    "name": "Amindretolaky",
    "latitude": -24.08333,
    "longitude": 46.7,
    "category": "Mountain",
    "subcategory": "Mountain",
    "featured": false,
    "priority": 50
  },
  {
    "geonameId": 1078973,
    "name": "Ampadriantafika",
    "latitude": -18.41667,
    "longitude": 46.88333,
    "category": "Mountain",
    "subcategory": "Mountain",
    "featured": false,
    "priority": 50
  },
  {
    "geonameId": 1078966,
    "name": "Ampahana",
    "latitude": -14.75,
    "longitude": 50.21667,
    "category": "City",
    "subcategory": "City",
    "featured": false,
    "priority": 50
  },
  {
    "geonameId": 1078964,
    "name": "Ampahanivorona",
    "latitude": -19.63333,
    "longitude": 48.7,
    "category": "Mountain",
    "subcategory": "Mountain",
    "featured": false,
    "priority": 50
  },
  {
    "geonameId": 1078934,
    "name": "Ampaka",
    "latitude": -19.05,
    "longitude": 48.66667,
    "category": "Mountain",
    "subcategory": "Mountain",
    "featured": false,
    "priority": 50
  },
  {
    "geonameId": 1078898,
    "name": "Ampamarinandoha",
    "latitude": -18.85,
    "longitude": 45.5,
    "category": "Mountain",
    "subcategory": "Mountain",
    "featured": false,
    "priority": 50
  },
  {
    "geonameId": 1078868,
    "name": "Ampamoizana",
    "latitude": -17.18333,
    "longitude": 48.53333,
    "category": "Mountain",
    "subcategory": "Mountain",
    "featured": false,
    "priority": 50
  },
  {
    "geonameId": 1078822,
    "name": "Ampananganambe",
    "latitude": -16.88333,
    "longitude": 47.43333,
    "category": "Mountain",
    "subcategory": "Mountain",
    "featured": false,
    "priority": 50
  },
  {
    "geonameId": 1078788,
    "name": "Ampanasana",
    "latitude": -18.03333,
    "longitude": 46.61667,
    "category": "Mountain",
    "subcategory": "Mountain",
    "featured": false,
    "priority": 50
  },
  {
    "geonameId": 1078764,
    "name": "Ampanataovankazo",
    "latitude": -17.56667,
    "longitude": 47.48333,
    "category": "Mountain",
    "subcategory": "Mountain",
    "featured": false,
    "priority": 50
  },
  {
    "geonameId": 1078704,
    "name": "Ampandraky",
    "latitude": -23.21667,
    "longitude": 45.11667,
    "category": "Mountain",
    "subcategory": "Mountain",
    "featured": false,
    "priority": 50
  },
  {
    "geonameId": 1078680,
    "name": "Ampandrana",
    "latitude": -21.25,
    "longitude": 46.05,
    "category": "Mountain",
    "subcategory": "Mountain",
    "featured": false,
    "priority": 50
  },
  {
    "geonameId": 1078611,
    "name": "Ampangadiambola",
    "latitude": -16.43333,
    "longitude": 47.83333,
    "category": "Mountain",
    "subcategory": "Mountain",
    "featured": false,
    "priority": 50
  },
  {
    "geonameId": 1078604,
    "name": "Ampangalambolosy",
    "latitude": -17.5,
    "longitude": 48.7,
    "category": "Mountain",
    "subcategory": "Mountain",
    "featured": false,
    "priority": 50
  },
  {
    "geonameId": 1078553,
    "name": "Ampanihy",
    "latitude": -24.6937,
    "longitude": 44.74581,
    "category": "City",
    "subcategory": "County Seat",
    "featured": false,
    "priority": 50
  },
  {
    "geonameId": 1078446,
    "name": "Amparafaravola",
    "latitude": -17.5876,
    "longitude": 48.22391,
    "category": "City",
    "subcategory": "County Seat",
    "featured": false,
    "priority": 50
  },
  {
    "geonameId": 1078372,
    "name": "Amparihimbohitra",
    "latitude": -17.08333,
    "longitude": 48.33333,
    "category": "Mountain",
    "subcategory": "Mountain",
    "featured": false,
    "priority": 50
  },
  {
    "geonameId": 1078369,
    "name": "Amparihimena",
    "latitude": -15.11667,
    "longitude": 50.05,
    "category": "Mountain",
    "subcategory": "Mountain",
    "featured": false,
    "priority": 50
  },
  {
    "geonameId": 1078336,
    "name": "Amparihy",
    "latitude": -16.7,
    "longitude": 44.81667,
    "category": "Lake",
    "subcategory": "Lake",
    "featured": false,
    "priority": 50
  },
  {
    "geonameId": 1078264,
    "name": "Ampasika",
    "latitude": -17.18333,
    "longitude": 47.3,
    "category": "Mountain",
    "subcategory": "Mountain",
    "featured": false,
    "priority": 50
  },
  {
    "geonameId": 1078171,
    "name": "Ampasimanolotra",
    "latitude": -18.81667,
    "longitude": 49.06667,
    "category": "City",
    "subcategory": "City",
    "featured": false,
    "priority": 50
  },
  {
    "geonameId": 1078058,
    "name": "Ampasimpotsy",
    "latitude": -22.35,
    "longitude": 47.2,
    "category": "Mountain",
    "subcategory": "Mountain",
    "featured": false,
    "priority": 50
  },
  {
    "geonameId": 1077886,
    "name": "Amperiferibe",
    "latitude": -18.31667,
    "longitude": 47.53333,
    "category": "Mountain",
    "subcategory": "Mountain",
    "featured": false,
    "priority": 50
  },
  {
    "geonameId": 1077818,
    "name": "Ampijoroambe",
    "latitude": -16.93333,
    "longitude": 47.48333,
    "category": "Mountain",
    "subcategory": "Mountain",
    "featured": false,
    "priority": 50
  },
  {
    "geonameId": 1077809,
    "name": "Ampiketraha",
    "latitude": -21.61667,
    "longitude": 45.03333,
    "category": "Mountain",
    "subcategory": "Mountain",
    "featured": false,
    "priority": 50
  },
  {
    "geonameId": 1077678,
    "name": "Ampitolava",
    "latitude": -18.35,
    "longitude": 45.45,
    "category": "Mountain",
    "subcategory": "Mountain",
    "featured": false,
    "priority": 50
  },
  {
    "geonameId": 1077667,
    "name": "Ampitro",
    "latitude": -13.8,
    "longitude": 49.08333,
    "category": "Mountain",
    "subcategory": "Mountain",
    "featured": false,
    "priority": 50
  },
  {
    "geonameId": 1077645,
    "name": "Ampizaramaso",
    "latitude": -21.78333,
    "longitude": 46.63333,
    "category": "Mountain",
    "subcategory": "Mountain",
    "featured": false,
    "priority": 50
  },
  {
    "geonameId": 1077488,
    "name": "Ampotaka",
    "latitude": -15.23333,
    "longitude": 48.65,
    "category": "Mountain",
    "subcategory": "Mountain",
    "featured": false,
    "priority": 50
  },
  {
    "geonameId": 1077422,
    "name": "Anabohazo",
    "latitude": -14.33333,
    "longitude": 47.91667,
    "category": "Mountain",
    "subcategory": "Mountain",
    "featured": false,
    "priority": 50
  },
  {
    "geonameId": 1077411,
    "name": "Anaboranobe",
    "latitude": -15.01667,
    "longitude": 49.7,
    "category": "Mountain",
    "subcategory": "Mountain",
    "featured": false,
    "priority": 50
  },
  {
    "geonameId": 1077345,
    "name": "Anakavy",
    "latitude": -24.76667,
    "longitude": 44.7,
    "category": "Lake",
    "subcategory": "Reservoir",
    "featured": false,
    "priority": 50
  },
  {
    "geonameId": 1077339,
    "name": "Anakondro",
    "latitude": -24.38333,
    "longitude": 46.7,
    "category": "Mountain",
    "subcategory": "Mountain",
    "featured": false,
    "priority": 50
  },
  {
    "geonameId": 1077312,
    "name": "Analabe",
    "latitude": -19.26667,
    "longitude": 47.55,
    "category": "Mountain",
    "subcategory": "Mountain",
    "featured": false,
    "priority": 50
  },
  {
    "geonameId": 1077281,
    "name": "Analabe Berohitry",
    "latitude": -14.5,
    "longitude": 48.9,
    "category": "Mountain",
    "subcategory": "Mountain",
    "featured": false,
    "priority": 50
  },
  {
    "geonameId": 1077268,
    "name": "Analabory",
    "latitude": -24.05,
    "longitude": 46.85,
    "category": "Mountain",
    "subcategory": "Mountain",
    "featured": false,
    "priority": 50
  },
  {
    "geonameId": 1077249,
    "name": "Analafotsivolo",
    "latitude": -17.7,
    "longitude": 47.76667,
    "category": "Mountain",
    "subcategory": "Mountain",
    "featured": false,
    "priority": 50
  },
  {
    "geonameId": 1077222,
    "name": "Analalava",
    "latitude": -14.63333,
    "longitude": 47.75,
    "category": "City",
    "subcategory": "City",
    "featured": false,
    "priority": 50
  },
  {
    "geonameId": 1077189,
    "name": "Analamahafaka",
    "latitude": -16.73333,
    "longitude": 47.93333,
    "category": "Mountain",
    "subcategory": "Mountain",
    "featured": false,
    "priority": 50
  },
  {
    "geonameId": 1077183,
    "name": "Analamahavelo",
    "latitude": -23.83333,
    "longitude": 46.46667,
    "category": "Mountain",
    "subcategory": "Mountain",
    "featured": false,
    "priority": 50
  },
  {
    "geonameId": 1077158,
    "name": "Analamanantsiva Atsimo",
    "latitude": -18.41667,
    "longitude": 47.63333,
    "category": "Mountain",
    "subcategory": "Mountain",
    "featured": false,
    "priority": 50
  },
  {
    "geonameId": 1077157,
    "name": "Analamanantsiva Avaratra",
    "latitude": -16.9,
    "longitude": 47.7,
    "category": "Mountain",
    "subcategory": "Mountain",
    "featured": false,
    "priority": 50
  },
  {
    "geonameId": 1077156,
    "name": "Analamanantsivana",
    "latitude": -18.08333,
    "longitude": 47.86667,
    "category": "Mountain",
    "subcategory": "Mountain",
    "featured": false,
    "priority": 50
  },
  {
    "geonameId": 1077144,
    "name": "Analamanitsy",
    "latitude": -23.31667,
    "longitude": 46.43333,
    "category": "Mountain",
    "subcategory": "Mountain",
    "featured": false,
    "priority": 50
  },
  {
    "geonameId": 1077067,
    "name": "Analamiantona",
    "latitude": -20.26667,
    "longitude": 47.2,
    "category": "Mountain",
    "subcategory": "Mountain",
    "featured": false,
    "priority": 50
  },
  {
    "geonameId": 1077042,
    "name": "Analamisandratra",
    "latitude": -18.13333,
    "longitude": 48.31667,
    "category": "Mountain",
    "subcategory": "Mountain",
    "featured": false,
    "priority": 50
  },
  {
    "geonameId": 1077025,
    "name": "Analamontana",
    "latitude": -15.41667,
    "longitude": 48.43333,
    "category": "Mountain",
    "subcategory": "Mountain",
    "featured": false,
    "priority": 50
  },
  {
    "geonameId": 1076987,
    "name": "Analandrandria",
    "latitude": -19.26667,
    "longitude": 45.85,
    "category": "Mountain",
    "subcategory": "Mountain",
    "featured": false,
    "priority": 50
  },
  {
    "geonameId": 1076956,
    "name": "Analasarotra",
    "latitude": -20.06667,
    "longitude": 47.4,
    "category": "Mountain",
    "subcategory": "Mountain",
    "featured": false,
    "priority": 50
  },
  {
    "geonameId": 1076951,
    "name": "Analasoa",
    "latitude": -23,
    "longitude": 46.5,
    "category": "Mountain",
    "subcategory": "Mountain",
    "featured": false,
    "priority": 50
  },
  {
    "geonameId": 1076946,
    "name": "Analasosotra",
    "latitude": -18.56667,
    "longitude": 48.93333,
    "category": "Mountain",
    "subcategory": "Mountain",
    "featured": false,
    "priority": 50
  },
  {
    "geonameId": 1076930,
    "name": "Analatitoloha",
    "latitude": -17.96667,
    "longitude": 47.15,
    "category": "Mountain",
    "subcategory": "Mountain",
    "featured": false,
    "priority": 50
  },
  {
    "geonameId": 1076914,
    "name": "Analavelona",
    "latitude": -13.33333,
    "longitude": 49.45,
    "category": "Mountain",
    "subcategory": "Mountain",
    "featured": false,
    "priority": 50
  },
  {
    "geonameId": 1076904,
    "name": "Analavoribe",
    "latitude": -16.1,
    "longitude": 48.11667,
    "category": "Mountain",
    "subcategory": "Mountain",
    "featured": false,
    "priority": 50
  },
  {
    "geonameId": 1076893,
    "name": "Analavory",
    "latitude": -16.96667,
    "longitude": 47.9,
    "category": "Mountain",
    "subcategory": "Mountain",
    "featured": false,
    "priority": 50
  },
  {
    "geonameId": 1076875,
    "name": "Analila",
    "latitude": -17.75,
    "longitude": 46.73333,
    "category": "Mountain",
    "subcategory": "Mountain",
    "featured": false,
    "priority": 50
  },
  {
    "geonameId": 1076850,
    "name": "Anamisapy",
    "latitude": -24.56667,
    "longitude": 46.61667,
    "category": "Mountain",
    "subcategory": "Mountain",
    "featured": false,
    "priority": 50
  },
  {
    "geonameId": 1076735,
    "name": "Anatake",
    "latitude": -23.76667,
    "longitude": 46.36667,
    "category": "Mountain",
    "subcategory": "Mountain",
    "featured": false,
    "priority": 50
  },
  {
    "geonameId": 1076630,
    "name": "Andaimpotsy",
    "latitude": -13.96667,
    "longitude": 48.4,
    "category": "Mountain",
    "subcategory": "Mountain",
    "featured": false,
    "priority": 50
  },
  {
    "geonameId": 1076627,
    "name": "Andaingobe",
    "latitude": -17.43333,
    "longitude": 47.75,
    "category": "Mountain",
    "subcategory": "Mountain",
    "featured": false,
    "priority": 50
  },
  {
    "geonameId": 1076573,
    "name": "Andakatoamindremaninga",
    "latitude": -22.88333,
    "longitude": 44.93333,
    "category": "Mountain",
    "subcategory": "Mountain",
    "featured": false,
    "priority": 50
  },
  {
    "geonameId": 1076562,
    "name": "Andalanameloka",
    "latitude": -13.7,
    "longitude": 49.55,
    "category": "Mountain",
    "subcategory": "Mountain",
    "featured": false,
    "priority": 50
  },
  {
    "geonameId": 1076554,
    "name": "Andalanimanga",
    "latitude": -21.08333,
    "longitude": 46.63333,
    "category": "Mountain",
    "subcategory": "Mountain",
    "featured": false,
    "priority": 50
  },
  {
    "geonameId": 1076454,
    "name": "Andapa",
    "latitude": -14.65,
    "longitude": 49.65,
    "category": "City",
    "subcategory": "City",
    "featured": false,
    "priority": 50
  },
  {
    "geonameId": 1076418,
    "name": "Andasiambo",
    "latitude": -14.08333,
    "longitude": 49.6,
    "category": "Mountain",
    "subcategory": "Mountain",
    "featured": false,
    "priority": 50
  },
  {
    "geonameId": 1076385,
    "name": "Andasikamisy",
    "latitude": -21.13333,
    "longitude": 46.33333,
    "category": "Mountain",
    "subcategory": "Mountain",
    "featured": false,
    "priority": 50
  },
  {
    "geonameId": 1076375,
    "name": "Andasindranaivo",
    "latitude": -19.98333,
    "longitude": 47.63333,
    "category": "Mountain",
    "subcategory": "Mountain",
    "featured": false,
    "priority": 50
  },
  {
    "geonameId": 1076368,
    "name": "Andasivato",
    "latitude": -16.76667,
    "longitude": 47.7,
    "category": "Mountain",
    "subcategory": "Mountain",
    "featured": false,
    "priority": 50
  },
  {
    "geonameId": 1076331,
    "name": "Andavakaka",
    "latitude": -14.5,
    "longitude": 47.85,
    "category": "Mountain",
    "subcategory": "Mountain",
    "featured": false,
    "priority": 50
  },
  {
    "geonameId": 1076229,
    "name": "Andetribe",
    "latitude": -14.11667,
    "longitude": 48.65,
    "category": "Mountain",
    "subcategory": "Mountain",
    "featured": false,
    "priority": 50
  },
  {
    "geonameId": 1076205,
    "name": "Andilambe",
    "latitude": -13.93333,
    "longitude": 49.23333,
    "category": "Mountain",
    "subcategory": "Mountain",
    "featured": false,
    "priority": 50
  },
  {
    "geonameId": 1076194,
    "name": "Andilamena",
    "latitude": -17.01009,
    "longitude": 48.57313,
    "category": "City",
    "subcategory": "County Seat",
    "featured": false,
    "priority": 50
  },
  {
    "geonameId": 1076171,
    "name": "Andilingibany",
    "latitude": -14.8,
    "longitude": 48.66667,
    "category": "Mountain",
    "subcategory": "Mountain",
    "featured": false,
    "priority": 50
  },
  {
    "geonameId": 1076126,
    "name": "Andingilingy",
    "latitude": -14.71667,
    "longitude": 49,
    "category": "Mountain",
    "subcategory": "Mountain",
    "featured": false,
    "priority": 50
  },
  {
    "geonameId": 1076084,
    "name": "Andohadranofito",
    "latitude": -15.53333,
    "longitude": 49.46667,
    "category": "Mountain",
    "subcategory": "Mountain",
    "featured": false,
    "priority": 50
  },
  {
    "geonameId": 1076076,
    "name": "Andohahela",
    "latitude": -24.6,
    "longitude": 46.7,
    "category": "Mountain",
    "subcategory": "Mountain",
    "featured": false,
    "priority": 50
  },
  {
    "geonameId": 7932408,
    "name": "Andohahela National Park",
    "latitude": -24.60083,
    "longitude": 46.69944,
    "category": "Park",
    "subcategory": "Park",
    "featured": false,
    "priority": 50
  },
  {
    "geonameId": 9972693,
    "name": "Andohahela Natioonal Park",
    "latitude": -24.7565,
    "longitude": 46.76743,
    "category": "Park",
    "subcategory": "Park",
    "featured": false,
    "priority": 50
  },
  {
    "geonameId": 1076061,
    "name": "Andohamaho",
    "latitude": -20.45,
    "longitude": 47.11667,
    "category": "Mountain",
    "subcategory": "Mountain",
    "featured": false,
    "priority": 50
  },
  {
    "geonameId": 1076051,
    "name": "Andohanandravany",
    "latitude": -13.81667,
    "longitude": 49.38333,
    "category": "Mountain",
    "subcategory": "Mountain",
    "featured": false,
    "priority": 50
  },
  {
    "geonameId": 1076043,
    "name": "Andohandambo",
    "latitude": -23.93333,
    "longitude": 46.1,
    "category": "Mountain",
    "subcategory": "Mountain",
    "featured": false,
    "priority": 50
  },
  {
    "geonameId": 1076042,
    "name": "Andohaniambaremba",
    "latitude": -13.73333,
    "longitude": 49.01667,
    "category": "Mountain",
    "subcategory": "Mountain",
    "featured": false,
    "priority": 50
  },
  {
    "geonameId": 1076041,
    "name": "Andohaniandalibe",
    "latitude": -16.28333,
    "longitude": 47.93333,
    "category": "Mountain",
    "subcategory": "Mountain",
    "featured": false,
    "priority": 50
  },
  {
    "geonameId": 1076039,
    "name": "Andohaniandranomena",
    "latitude": -13.98333,
    "longitude": 49.13333,
    "category": "Mountain",
    "subcategory": "Mountain",
    "featured": false,
    "priority": 50
  },
  {
    "geonameId": 1076037,
    "name": "Andohanianjafy",
    "latitude": -13.73333,
    "longitude": 49.41667,
    "category": "Mountain",
    "subcategory": "Mountain",
    "featured": false,
    "priority": 50
  },
  {
    "geonameId": 1076034,
    "name": "Andohaniavoreana",
    "latitude": -21.1,
    "longitude": 46.71667,
    "category": "Mountain",
    "subcategory": "Mountain",
    "featured": false,
    "priority": 50
  },
  {
    "geonameId": 1076032,
    "name": "Andohanibelambo",
    "latitude": -13.9,
    "longitude": 49.33333,
    "category": "Mountain",
    "subcategory": "Mountain",
    "featured": false,
    "priority": 50
  },
  {
    "geonameId": 1076031,
    "name": "Andohanibesahonjo",
    "latitude": -13.75,
    "longitude": 48.76667,
    "category": "Mountain",
    "subcategory": "Mountain",
    "featured": false,
    "priority": 50
  },
  {
    "geonameId": 1076030,
    "name": "Andohanibevotro",
    "latitude": -14.7,
    "longitude": 48.38333,
    "category": "Mountain",
    "subcategory": "Mountain",
    "featured": false,
    "priority": 50
  },
  {
    "geonameId": 1076029,
    "name": "Andohanikety",
    "latitude": -17.81667,
    "longitude": 46.2,
    "category": "Mountain",
    "subcategory": "Mountain",
    "featured": false,
    "priority": 50
  },
  {
    "geonameId": 1076028,
    "name": "Andohanikorika",
    "latitude": -16.53333,
    "longitude": 47.66667,
    "category": "Mountain",
    "subcategory": "Mountain",
    "featured": false,
    "priority": 50
  },
  {
    "geonameId": 1076022,
    "name": "Andohanimarerano",
    "latitude": -14.93333,
    "longitude": 48.58333,
    "category": "Mountain",
    "subcategory": "Mountain",
    "featured": false,
    "priority": 50
  },
  {
    "geonameId": 1076021,
    "name": "Andohanimaroamalona",
    "latitude": -13.8,
    "longitude": 48.85,
    "category": "Mountain",
    "subcategory": "Mountain",
    "featured": false,
    "priority": 50
  },
  {
    "geonameId": 1076018,
    "name": "Andohanisambirano",
    "latitude": -14.13333,
    "longitude": 48.96667,
    "category": "Mountain",
    "subcategory": "Mountain",
    "featured": false,
    "priority": 50
  },
  {
    "geonameId": 1076016,
    "name": "Andohanitrema",
    "latitude": -13.96667,
    "longitude": 48.76667,
    "category": "Mountain",
    "subcategory": "Mountain",
    "featured": false,
    "priority": 50
  },
  {
    "geonameId": 1076001,
    "name": "Andoharano",
    "latitude": -18.26667,
    "longitude": 47.18333,
    "category": "Mountain",
    "subcategory": "Mountain",
    "featured": false,
    "priority": 50
  },
  {
    "geonameId": 1075909,
    "name": "Andokobe",
    "latitude": -13.73333,
    "longitude": 48.61667,
    "category": "Mountain",
    "subcategory": "Mountain",
    "featured": false,
    "priority": 50
  },
  {
    "geonameId": 1075873,
    "name": "Andolonitovo",
    "latitude": -23.56667,
    "longitude": 46.21667,
    "category": "Mountain",
    "subcategory": "Mountain",
    "featured": false,
    "priority": 50
  },
  {
    "geonameId": 1075834,
    "name": "Andondona",
    "latitude": -20.95,
    "longitude": 47.01667,
    "category": "Mountain",
    "subcategory": "Mountain",
    "featured": false,
    "priority": 50
  },
  {
    "geonameId": 1076227,
    "name": "Andovoranto",
    "latitude": -18.95443,
    "longitude": 49.1094,
    "category": "City",
    "subcategory": "City",
    "featured": false,
    "priority": 50
  },
  {
    "geonameId": 1075769,
    "name": "Andrabay",
    "latitude": -15.55,
    "longitude": 48.76667,
    "category": "Mountain",
    "subcategory": "Mountain",
    "featured": false,
    "priority": 50
  },
  {
    "geonameId": 1075768,
    "name": "Andrabetany",
    "latitude": -18.55,
    "longitude": 48.5,
    "category": "Mountain",
    "subcategory": "Mountain",
    "featured": false,
    "priority": 50
  },
  {
    "geonameId": 1075764,
    "name": "Andradany",
    "latitude": -24.95,
    "longitude": 46.76667,
    "category": "Mountain",
    "subcategory": "Mountain",
    "featured": false,
    "priority": 50
  },
  {
    "geonameId": 1075722,
    "name": "Andrafialava",
    "latitude": -13.68333,
    "longitude": 49.28333,
    "category": "Mountain",
    "subcategory": "Mountain",
    "featured": false,
    "priority": 50
  },
  {
    "geonameId": 1075680,
    "name": "Andrahabarana",
    "latitude": -16.96667,
    "longitude": 48.1,
    "category": "Mountain",
    "subcategory": "Mountain",
    "featured": false,
    "priority": 50
  },
  {
    "geonameId": 1075675,
    "name": "Andraharibe",
    "latitude": -13.61667,
    "longitude": 49.26667,
    "category": "Mountain",
    "subcategory": "Mountain",
    "featured": false,
    "priority": 50
  },
  {
    "geonameId": 1075603,
    "name": "Andramaimbo",
    "latitude": -12.21667,
    "longitude": 49.16667,
    "category": "Mountain",
    "subcategory": "Mountain",
    "featured": false,
    "priority": 50
  },
  {
    "geonameId": 1075599,
    "name": "Andramanalana",
    "latitude": -14.41667,
    "longitude": 49.33333,
    "category": "Mountain",
    "subcategory": "Mountain",
    "featured": false,
    "priority": 50
  },
  {
    "geonameId": 1075592,
    "name": "Andramasina",
    "latitude": -19.18785,
    "longitude": 47.59016,
    "category": "City",
    "subcategory": "County Seat",
    "featured": false,
    "priority": 50
  },
  {
    "geonameId": 1075587,
    "name": "Andrambita",
    "latitude": -24.73333,
    "longitude": 45.68333,
    "category": "Mountain",
    "subcategory": "Mountain",
    "featured": false,
    "priority": 50
  },
  {
    "geonameId": 1075582,
    "name": "Andrambola",
    "latitude": -24.23333,
    "longitude": 45.76667,
    "category": "Mountain",
    "subcategory": "Mountain",
    "featured": false,
    "priority": 50
  },
  {
    "geonameId": 1075515,
    "name": "Andrangaranga",
    "latitude": -16,
    "longitude": 46.96667,
    "category": "Mountain",
    "subcategory": "Mountain",
    "featured": false,
    "priority": 50
  },
  {
    "geonameId": 1075216,
    "name": "Andrano Mafana",
    "latitude": -13.66667,
    "longitude": 49.53333,
    "category": "Mountain",
    "subcategory": "Mountain",
    "featured": false,
    "priority": 50
  },
  {
    "geonameId": 1075481,
    "name": "Andranoabo",
    "latitude": -22.98333,
    "longitude": 45.01667,
    "category": "Mountain",
    "subcategory": "Mountain",
    "featured": false,
    "priority": 50
  },
  {
    "geonameId": 1075431,
    "name": "Andranobilo",
    "latitude": -19.9,
    "longitude": 45.23333,
    "category": "Mountain",
    "subcategory": "Mountain",
    "featured": false,
    "priority": 50
  },
  {
    "geonameId": 1075373,
    "name": "Andranofito",
    "latitude": -19.76667,
    "longitude": 47.41667,
    "category": "Mountain",
    "subcategory": "Mountain",
    "featured": false,
    "priority": 50
  },
  {
    "geonameId": 1075340,
    "name": "Andranogidro",
    "latitude": -18.73333,
    "longitude": 44.75,
    "category": "Lake",
    "subcategory": "Lake",
    "featured": false,
    "priority": 50
  },
  {
    "geonameId": 1075316,
    "name": "Andranohorona",
    "latitude": -17.06667,
    "longitude": 47.56667,
    "category": "Mountain",
    "subcategory": "Mountain",
    "featured": false,
    "priority": 50
  },
  {
    "geonameId": 1075303,
    "name": "Andranokely",
    "latitude": -16.78333,
    "longitude": 48.11667,
    "category": "Mountain",
    "subcategory": "Mountain",
    "featured": false,
    "priority": 50
  },
  {
    "geonameId": 1075089,
    "name": "Andranomasina",
    "latitude": -22.21667,
    "longitude": 46.26667,
    "category": "Mountain",
    "subcategory": "Mountain",
    "featured": false,
    "priority": 50
  },
  {
    "geonameId": 1075074,
    "name": "Andranomatavy",
    "latitude": -13.65,
    "longitude": 47.96667,
    "category": "Mountain",
    "subcategory": "Mountain",
    "featured": false,
    "priority": 50
  },
  {
    "geonameId": 1075016,
    "name": "Andranombazaha",
    "latitude": -13.6,
    "longitude": 49.36667,
    "category": "Mountain",
    "subcategory": "Mountain",
    "featured": false,
    "priority": 50
  },
  {
    "geonameId": 1075007,
    "name": "Andranomena",
    "latitude": -17.23333,
    "longitude": 48.76667,
    "category": "Mountain",
    "subcategory": "Mountain",
    "featured": false,
    "priority": 50
  },
  {
    "geonameId": 1074947,
    "name": "Andranomenakely",
    "latitude": -14.7,
    "longitude": 49.85,
    "category": "Mountain",
    "subcategory": "Mountain",
    "featured": false,
    "priority": 50
  },
  {
    "geonameId": 1074898,
    "name": "Andranomilitsa",
    "latitude": -18.58333,
    "longitude": 44.8,
    "category": "Lake",
    "subcategory": "Lake",
    "featured": false,
    "priority": 50
  },
  {
    "geonameId": 1074834,
    "name": "Andranongiaro",
    "latitude": -18.73333,
    "longitude": 44.83333,
    "category": "Lake",
    "subcategory": "Lake",
    "featured": false,
    "priority": 50
  },
  {
    "geonameId": 1074810,
    "name": "Andranosiritra",
    "latitude": -18.71667,
    "longitude": 44.81667,
    "category": "Lake",
    "subcategory": "Lake",
    "featured": false,
    "priority": 50
  },
  {
    "geonameId": 1074792,
    "name": "Andranotakofa",
    "latitude": -23.65,
    "longitude": 46.25,
    "category": "Mountain",
    "subcategory": "Mountain",
    "featured": false,
    "priority": 50
  },
  {
    "geonameId": 1074740,
    "name": "Andranovakoa",
    "latitude": -24.73333,
    "longitude": 46.81667,
    "category": "Mountain",
    "subcategory": "Mountain",
    "featured": false,
    "priority": 50
  },
  {
    "geonameId": 1074661,
    "name": "Andranovorimbolo",
    "latitude": -16.88333,
    "longitude": 45.86667,
    "category": "Lake",
    "subcategory": "Lake",
    "featured": false,
    "priority": 50
  },
  {
    "geonameId": 1074612,
    "name": "Andranovory-Majeravelo",
    "latitude": -16.85,
    "longitude": 45.85,
    "category": "Lake",
    "subcategory": "Lake",
    "featured": false,
    "priority": 50
  },
  {
    "geonameId": 1074600,
    "name": "Andrapandrakotra",
    "latitude": -19.96667,
    "longitude": 46.65,
    "category": "Mountain",
    "subcategory": "Mountain",
    "featured": false,
    "priority": 50
  },
  {
    "geonameId": 1074596,
    "name": "Andrapopo",
    "latitude": -23.56667,
    "longitude": 47,
    "category": "Mountain",
    "subcategory": "Mountain",
    "featured": false,
    "priority": 50
  },
  {
    "geonameId": 1074556,
    "name": "Andravainafo",
    "latitude": -17.38333,
    "longitude": 47.53333,
    "category": "Mountain",
    "subcategory": "Mountain",
    "featured": false,
    "priority": 50
  },
  {
    "geonameId": 1074518,
    "name": "Andravory",
    "latitude": -13.76667,
    "longitude": 49.56667,
    "category": "Mountain",
    "subcategory": "Mountain",
    "featured": false,
    "priority": 50
  },
  {
    "geonameId": 1074514,
    "name": "Andray",
    "latitude": -24.06977,
    "longitude": 47.1325,
    "category": "Mountain",
    "subcategory": "Mountain",
    "featured": false,
    "priority": 50
  },
  {
    "geonameId": 1074452,
    "name": "Andrepatsy",
    "latitude": -16.83333,
    "longitude": 48.48333,
    "category": "Mountain",
    "subcategory": "Mountain",
    "featured": false,
    "priority": 50
  },
  {
    "geonameId": 1074387,
    "name": "Andriamenakely",
    "latitude": -18.21667,
    "longitude": 46.6,
    "category": "Mountain",
    "subcategory": "Mountain",
    "featured": false,
    "priority": 50
  },
  {
    "geonameId": 1074380,
    "name": "Andriamitsioka",
    "latitude": -22.15,
    "longitude": 46.36667,
    "category": "Mountain",
    "subcategory": "Mountain",
    "featured": false,
    "priority": 50
  },
  {
    "geonameId": 1074378,
    "name": "Andriamora",
    "latitude": -18.08333,
    "longitude": 46.41667,
    "category": "Mountain",
    "subcategory": "Mountain",
    "featured": false,
    "priority": 50
  },
  {
    "geonameId": 1074363,
    "name": "Andrianahely",
    "latitude": -13.91667,
    "longitude": 48.86667,
    "category": "Mountain",
    "subcategory": "Mountain",
    "featured": false,
    "priority": 50
  },
  {
    "geonameId": 1074361,
    "name": "Andrianambo",
    "latitude": -23.96667,
    "longitude": 45.7,
    "category": "Mountain",
    "subcategory": "Mountain",
    "featured": false,
    "priority": 50
  },
  {
    "geonameId": 1074341,
    "name": "Andriantantely",
    "latitude": -18.7,
    "longitude": 48.8,
    "category": "Mountain",
    "subcategory": "Mountain",
    "featured": false,
    "priority": 50
  },
  {
    "geonameId": 1074321,
    "name": "Andringitra",
    "latitude": -17.08333,
    "longitude": 47.66667,
    "category": "Mountain",
    "subcategory": "Mountain",
    "featured": false,
    "priority": 50
  },
  {
    "geonameId": 6941996,
    "name": "Andringitra National Park",
    "latitude": -22.11278,
    "longitude": 46.92306,
    "category": "Park",
    "subcategory": "Park",
    "featured": false,
    "priority": 50
  },
  {
    "geonameId": 1074318,
    "name": "Andriodriotra",
    "latitude": -21.01667,
    "longitude": 47.33333,
    "category": "Mountain",
    "subcategory": "Mountain",
    "featured": false,
    "priority": 50
  },
  {
    "geonameId": 1074219,
    "name": "Androkeny",
    "latitude": -15.56667,
    "longitude": 48.51667,
    "category": "Mountain",
    "subcategory": "Mountain",
    "featured": false,
    "priority": 50
  },
  {
    "geonameId": 1074192,
    "name": "Androngovalo",
    "latitude": -17.66667,
    "longitude": 48.75,
    "category": "Mountain",
    "subcategory": "Mountain",
    "featured": false,
    "priority": 50
  },
  {
    "geonameId": 1074149,
    "name": "Androrona",
    "latitude": -15.85,
    "longitude": 49.51667,
    "category": "Mountain",
    "subcategory": "Mountain",
    "featured": false,
    "priority": 50
  },
  {
    "geonameId": 1074045,
    "name": "Androvaniakoho",
    "latitude": -13.51667,
    "longitude": 49.16667,
    "category": "Mountain",
    "subcategory": "Mountain",
    "featured": false,
    "priority": 50
  },
  {
    "geonameId": 1074038,
    "name": "Androy",
    "latitude": -21.05,
    "longitude": 46.68333,
    "category": "Mountain",
    "subcategory": "Mountain",
    "featured": false,
    "priority": 50
  },
  {
    "geonameId": 1074012,
    "name": "Aneranerany",
    "latitude": -24.8,
    "longitude": 46.78333,
    "category": "Mountain",
    "subcategory": "Mountain",
    "featured": false,
    "priority": 50
  },
  {
    "geonameId": 1073988,
    "name": "Angavo",
    "latitude": -23.23333,
    "longitude": 46.95,
    "category": "Mountain",
    "subcategory": "Mountain",
    "featured": false,
    "priority": 50
  },
  {
    "geonameId": 1073983,
    "name": "Angavokely",
    "latitude": -18.91667,
    "longitude": 47.73333,
    "category": "Mountain",
    "subcategory": "Mountain",
    "featured": false,
    "priority": 50
  },
  {
    "geonameId": 1073936,
    "name": "Angorony",
    "latitude": -14.23333,
    "longitude": 48.16667,
    "category": "Mountain",
    "subcategory": "Mountain",
    "featured": false,
    "priority": 50
  },
  {
    "geonameId": 1073837,
    "name": "Anjabe",
    "latitude": -15.13333,
    "longitude": 49.36667,
    "category": "Mountain",
    "subcategory": "Mountain",
    "featured": false,
    "priority": 50
  },
  {
    "geonameId": 1073818,
    "name": "Anjahabohona",
    "latitude": -19.91667,
    "longitude": 46.5,
    "category": "Mountain",
    "subcategory": "Mountain",
    "featured": false,
    "priority": 50
  },
  {
    "geonameId": 1073794,
    "name": "Anjahana",
    "latitude": -15.46667,
    "longitude": 50.26667,
    "category": "Mountain",
    "subcategory": "Mountain",
    "featured": false,
    "priority": 50
  },
  {
    "geonameId": 1073735,
    "name": "Anjanaharibe",
    "latitude": -15.16667,
    "longitude": 49.65,
    "category": "Mountain",
    "subcategory": "Mountain",
    "featured": false,
    "priority": 50
  },
  {
    "geonameId": 1073734,
    "name": "Anjanaharibe Anivo",
    "latitude": -14.71667,
    "longitude": 49.41667,
    "category": "Mountain",
    "subcategory": "Mountain",
    "featured": false,
    "priority": 50
  },
  {
    "geonameId": 1073733,
    "name": "Anjanaharibe Avaratra",
    "latitude": -14.61667,
    "longitude": 49.4,
    "category": "Mountain",
    "subcategory": "Mountain",
    "featured": false,
    "priority": 50
  },
  {
    "geonameId": 1073688,
    "name": "Anjavidimainty",
    "latitude": -17.28333,
    "longitude": 47.96667,
    "category": "Mountain",
    "subcategory": "Mountain",
    "featured": false,
    "priority": 50
  },
  {
    "geonameId": 1073687,
    "name": "Anjavidy",
    "latitude": -16.98333,
    "longitude": 47.45,
    "category": "Mountain",
    "subcategory": "Mountain",
    "featured": false,
    "priority": 50
  },
  {
    "geonameId": 1073665,
    "name": "Anjepy",
    "latitude": -18.85,
    "longitude": 47.71667,
    "category": "City",
    "subcategory": "City",
    "featured": false,
    "priority": 50
  },
  {
    "geonameId": 1073655,
    "name": "Anjiabe",
    "latitude": -14.7,
    "longitude": 50.01667,
    "category": "Mountain",
    "subcategory": "Mountain",
    "featured": false,
    "priority": 50
  },
  {
    "geonameId": 1073604,
    "name": "Anjiakely",
    "latitude": -17.93333,
    "longitude": 45.76667,
    "category": "Mountain",
    "subcategory": "Mountain",
    "featured": false,
    "priority": 50
  },
  {
    "geonameId": 1073546,
    "name": "Anjironizakahay",
    "latitude": -16.88333,
    "longitude": 47.8,
    "category": "Mountain",
    "subcategory": "Mountain",
    "featured": false,
    "priority": 50
  },
  {
    "geonameId": 1073526,
    "name": "Anjohinomby",
    "latitude": -18.45,
    "longitude": 44.81667,
    "category": "Lake",
    "subcategory": "Lake",
    "featured": false,
    "priority": 50
  },
  {
    "geonameId": 1073515,
    "name": "Anjolokambo",
    "latitude": -15.35,
    "longitude": 48.88333,
    "category": "Mountain",
    "subcategory": "Mountain",
    "featured": false,
    "priority": 50
  },
  {
    "geonameId": 1073499,
    "name": "Anjombavola",
    "latitude": -13.91667,
    "longitude": 48.76667,
    "category": "Mountain",
    "subcategory": "Mountain",
    "featured": false,
    "priority": 50
  },
  {
    "geonameId": 1073482,
    "name": "Anjozorobe",
    "latitude": -18.4,
    "longitude": 47.86667,
    "category": "City",
    "subcategory": "City",
    "featured": false,
    "priority": 50
  },
  {
    "geonameId": 1073476,
    "name": "Anjsajonvato",
    "latitude": -13.7,
    "longitude": 48.93333,
    "category": "Mountain",
    "subcategory": "Mountain",
    "featured": false,
    "priority": 50
  },
  {
    "geonameId": 1073372,
    "name": "Ankadivato",
    "latitude": -18.46667,
    "longitude": 46.95,
    "category": "Mountain",
    "subcategory": "Mountain",
    "featured": false,
    "priority": 50
  },
  {
    "geonameId": 1073349,
    "name": "Ankafero",
    "latitude": -16.01667,
    "longitude": 47.3,
    "category": "Lake",
    "subcategory": "Lake",
    "featured": false,
    "priority": 50
  },
  {
    "geonameId": 1073315,
    "name": "Ankaizina",
    "latitude": -17.98333,
    "longitude": 47.35,
    "category": "Mountain",
    "subcategory": "Mountain",
    "featured": false,
    "priority": 50
  },
  {
    "geonameId": 1073262,
    "name": "Ankandrinosy",
    "latitude": -17.1,
    "longitude": 47.46667,
    "category": "Mountain",
    "subcategory": "Mountain",
    "featured": false,
    "priority": 50
  },
  {
    "geonameId": 1073205,
    "name": "Ankarahara",
    "latitude": -17.28333,
    "longitude": 47.3,
    "category": "Mountain",
    "subcategory": "Mountain",
    "featured": false,
    "priority": 50
  },
  {
    "geonameId": 1073201,
    "name": "Ankaraharabe",
    "latitude": -17.63333,
    "longitude": 46.76667,
    "category": "Mountain",
    "subcategory": "Mountain",
    "featured": false,
    "priority": 50
  },
  {
    "geonameId": 1073195,
    "name": "Ankarakaraka",
    "latitude": -24.68333,
    "longitude": 46.83333,
    "category": "Mountain",
    "subcategory": "Mountain",
    "featured": false,
    "priority": 50
  },
  {
    "geonameId": 1073185,
    "name": "Ankaramainty",
    "latitude": -21.75,
    "longitude": 47.23333,
    "category": "Mountain",
    "subcategory": "Mountain",
    "featured": false,
    "priority": 50
  },
  {
    "geonameId": 1073178,
    "name": "Ankaramavo",
    "latitude": -19.95,
    "longitude": 45.98333,
    "category": "Mountain",
    "subcategory": "Mountain",
    "featured": false,
    "priority": 50
  },
  {
    "geonameId": 1073165,
    "name": "Ankaramena",
    "latitude": -21.98333,
    "longitude": 47.31667,
    "category": "Mountain",
    "subcategory": "Mountain",
    "featured": false,
    "priority": 50
  },
  {
    "geonameId": 1073145,
    "name": "Ankaramisampana",
    "latitude": -12.2,
    "longitude": 49.2,
    "category": "Mountain",
    "subcategory": "Mountain",
    "featured": false,
    "priority": 50
  },
  {
    "geonameId": 1073108,
    "name": "Ankaranga",
    "latitude": -22.46667,
    "longitude": 44.45,
    "category": "Mountain",
    "subcategory": "Mountain",
    "featured": false,
    "priority": 50
  },
  {
    "geonameId": 1073081,
    "name": "Ankaraoka",
    "latitude": -17.8,
    "longitude": 48.53333,
    "category": "Mountain",
    "subcategory": "Mountain",
    "featured": false,
    "priority": 50
  },
  {
    "geonameId": 1073076,
    "name": "Ankarasy",
    "latitude": -23.71667,
    "longitude": 44.06667,
    "category": "Lake",
    "subcategory": "Reservoir",
    "featured": false,
    "priority": 50
  },
  {
    "geonameId": 1073037,
    "name": "Ankaria",
    "latitude": -13.46667,
    "longitude": 48.75,
    "category": "Mountain",
    "subcategory": "Mountain",
    "featured": false,
    "priority": 50
  },
  {
    "geonameId": 1073012,
    "name": "Ankarongameloka",
    "latitude": -14.23333,
    "longitude": 49.43333,
    "category": "Mountain",
    "subcategory": "Mountain",
    "featured": false,
    "priority": 50
  },
  {
    "geonameId": 1072902,
    "name": "Ankavo Ra",
    "latitude": -19.36667,
    "longitude": 46.36667,
    "category": "Mountain",
    "subcategory": "Mountain",
    "featured": false,
    "priority": 50
  },
  {
    "geonameId": 1072901,
    "name": "Ankavorondola",
    "latitude": -16.96667,
    "longitude": 45.46667,
    "category": "Mountain",
    "subcategory": "Mountain",
    "featured": false,
    "priority": 50
  },
  {
    "geonameId": 1072892,
    "name": "Ankazo",
    "latitude": -21.16667,
    "longitude": 46.71667,
    "category": "Mountain",
    "subcategory": "Mountain",
    "featured": false,
    "priority": 50
  },
  {
    "geonameId": 1072879,
    "name": "Ankazoabo",
    "latitude": -22.28333,
    "longitude": 44.51667,
    "category": "City",
    "subcategory": "City",
    "featured": false,
    "priority": 50
  },
  {
    "geonameId": 1072849,
    "name": "Ankazobe",
    "latitude": -18.31667,
    "longitude": 47.11667,
    "category": "City",
    "subcategory": "City",
    "featured": false,
    "priority": 50
  },
  {
    "geonameId": 11808213,
    "name": "Ankazomalemy Peak",
    "latitude": -12.68238,
    "longitude": 49.13034,
    "category": "Mountain",
    "subcategory": "Peak",
    "featured": false,
    "priority": 50
  },
  {
    "geonameId": 1072794,
    "name": "Ankazomanga",
    "latitude": -22.9,
    "longitude": 45,
    "category": "Mountain",
    "subcategory": "Mountain",
    "featured": false,
    "priority": 50
  },
  {
    "geonameId": 1072759,
    "name": "Ankazomaro",
    "latitude": -18.3,
    "longitude": 46.75,
    "category": "Mountain",
    "subcategory": "Mountain",
    "featured": false,
    "priority": 50
  },
  {
    "geonameId": 1072725,
    "name": "Ankazomilefitra",
    "latitude": -17.96667,
    "longitude": 47.61667,
    "category": "Mountain",
    "subcategory": "Mountain",
    "featured": false,
    "priority": 50
  },
  {
    "geonameId": 1072711,
    "name": "Ankazondandy",
    "latitude": -18.7,
    "longitude": 47.78333,
    "category": "City",
    "subcategory": "City",
    "featured": false,
    "priority": 50
  },
  {
    "geonameId": 1072658,
    "name": "Ankazovokatra",
    "latitude": -17.36667,
    "longitude": 47.96667,
    "category": "Mountain",
    "subcategory": "Mountain",
    "featured": false,
    "priority": 50
  },
  {
    "geonameId": 1072652,
    "name": "Ankelaka",
    "latitude": -23.38333,
    "longitude": 45.06667,
    "category": "Mountain",
    "subcategory": "Mountain",
    "featured": false,
    "priority": 50
  },
  {
    "geonameId": 1072617,
    "name": "Ankerabe",
    "latitude": -18.48333,
    "longitude": 44.81667,
    "category": "Lake",
    "subcategory": "Lake",
    "featured": false,
    "priority": 50
  },
  {
    "geonameId": 1072519,
    "name": "Anketsabe",
    "latitude": -15.41667,
    "longitude": 48.65,
    "category": "Mountain",
    "subcategory": "Mountain",
    "featured": false,
    "priority": 50
  },
  {
    "geonameId": 1072509,
    "name": "Ankevohe",
    "latitude": -24.91667,
    "longitude": 46.68333,
    "category": "Mountain",
    "subcategory": "Mountain",
    "featured": false,
    "priority": 50
  },
  {
    "geonameId": 1072444,
    "name": "Ankijabe",
    "latitude": -13.46667,
    "longitude": 49.18333,
    "category": "Mountain",
    "subcategory": "Mountain",
    "featured": false,
    "priority": 50
  },
  {
    "geonameId": 1072428,
    "name": "Ankijambe",
    "latitude": -18.63333,
    "longitude": 45.65,
    "category": "Mountain",
    "subcategory": "Mountain",
    "featured": false,
    "priority": 50
  },
  {
    "geonameId": 1072225,
    "name": "Ankilimbalamena",
    "latitude": -20.11667,
    "longitude": 45.25,
    "category": "Mountain",
    "subcategory": "Mountain",
    "featured": false,
    "priority": 50
  },
  {
    "geonameId": 1072146,
    "name": "Ankilisajio",
    "latitude": -24.75,
    "longitude": 46.21667,
    "category": "Mountain",
    "subcategory": "Mountain",
    "featured": false,
    "priority": 50
  },
  {
    "geonameId": 1072014,
    "name": "Ankirariay",
    "latitude": -18.68333,
    "longitude": 47.43333,
    "category": "Mountain",
    "subcategory": "Mountain",
    "featured": false,
    "priority": 50
  },
  {
    "geonameId": 1072011,
    "name": "Ankirihiry",
    "latitude": -16.16667,
    "longitude": 49.5,
    "category": "Mountain",
    "subcategory": "Mountain",
    "featured": false,
    "priority": 50
  },
  {
    "geonameId": 1071998,
    "name": "Ankirindro",
    "latitude": -15.28333,
    "longitude": 49.53333,
    "category": "Mountain",
    "subcategory": "Mountain",
    "featured": false,
    "priority": 50
  },
  {
    "geonameId": 1071930,
    "name": "Ankitsaka",
    "latitude": -13.85,
    "longitude": 49.78333,
    "category": "Mountain",
    "subcategory": "Mountain",
    "featured": false,
    "priority": 50
  },
  {
    "geonameId": 1071914,
    "name": "Ankivanja",
    "latitude": -13.68333,
    "longitude": 48.98333,
    "category": "Mountain",
    "subcategory": "Mountain",
    "featured": false,
    "priority": 50
  },
  {
    "geonameId": 1071903,
    "name": "Ankizomora",
    "latitude": -19.8,
    "longitude": 46.03333,
    "category": "Mountain",
    "subcategory": "Mountain",
    "featured": false,
    "priority": 50
  },
  {
    "geonameId": 1071868,
    "name": "Ankobaka",
    "latitude": -22.36667,
    "longitude": 43.98333,
    "category": "Mountain",
    "subcategory": "Mountain",
    "featured": false,
    "priority": 50
  },
  {
    "geonameId": 1071643,
    "name": "Ankosihosibe",
    "latitude": -14.28333,
    "longitude": 48.55,
    "category": "Mountain",
    "subcategory": "Mountain",
    "featured": false,
    "priority": 50
  },
  {
    "geonameId": 1071640,
    "name": "Ankosihosy",
    "latitude": -14.41667,
    "longitude": 48.4,
    "category": "Mountain",
    "subcategory": "Mountain",
    "featured": false,
    "priority": 50
  },
  {
    "geonameId": 1071460,
    "name": "Anosilava",
    "latitude": -16,
    "longitude": 46.5,
    "category": "Island",
    "subcategory": "Island",
    "featured": false,
    "priority": 50
  },
  {
    "geonameId": 1071458,
    "name": "Anosimaitso",
    "latitude": -21.1,
    "longitude": 46.78333,
    "category": "Mountain",
    "subcategory": "Mountain",
    "featured": false,
    "priority": 50
  },
  {
    "geonameId": 1071303,
    "name": "Antakodara",
    "latitude": -18.58333,
    "longitude": 45.38333,
    "category": "Mountain",
    "subcategory": "Mountain",
    "featured": false,
    "priority": 50
  },
  {
    "geonameId": 1071299,
    "name": "Antakotako",
    "latitude": -15.31667,
    "longitude": 49.8,
    "category": "City",
    "subcategory": "City",
    "featured": false,
    "priority": 50
  },
  {
    "geonameId": 1071296,
    "name": "Antalaha",
    "latitude": -14.90033,
    "longitude": 50.27876,
    "category": "City",
    "subcategory": "City",
    "featured": false,
    "priority": 50
  },
  {
    "geonameId": 1071292,
    "name": "Antalata Angavo",
    "latitude": -18.23333,
    "longitude": 47.08333,
    "category": "Mountain",
    "subcategory": "Mountain",
    "featured": false,
    "priority": 50
  },
  {
    "geonameId": 1071290,
    "name": "Antalatala",
    "latitude": -24.71667,
    "longitude": 46.23333,
    "category": "Mountain",
    "subcategory": "Mountain",
    "featured": false,
    "priority": 50
  },
  {
    "geonameId": 1071210,
    "name": "Antampona",
    "latitude": -15.96667,
    "longitude": 49.21667,
    "category": "Mountain",
    "subcategory": "Mountain",
    "featured": false,
    "priority": 50
  },
  {
    "geonameId": 1071207,
    "name": "Antamponisahatany",
    "latitude": -18.85,
    "longitude": 48.45,
    "category": "Mountain",
    "subcategory": "Mountain",
    "featured": false,
    "priority": 50
  },
  {
    "geonameId": 1071206,
    "name": "Antamponketsa",
    "latitude": -19.43333,
    "longitude": 46.45,
    "category": "Mountain",
    "subcategory": "Mountain",
    "featured": false,
    "priority": 50
  },
  {
    "geonameId": 1071196,
    "name": "Antanamalaza",
    "latitude": -17.81667,
    "longitude": 49.18333,
    "category": "Mountain",
    "subcategory": "Mountain",
    "featured": false,
    "priority": 50
  },
  {
    "geonameId": 1070940,
    "name": "Antananarivo",
    "latitude": -18.91368,
    "longitude": 47.53613,
    "category": "City",
    "subcategory": "Capital",
    "featured": false,
    "priority": 50
  },
  {
    "geonameId": 1070895,
    "name": "Antanandava",
    "latitude": -19.08333,
    "longitude": 47.95,
    "category": "City",
    "subcategory": "City",
    "featured": false,
    "priority": 50
  },
  {
    "geonameId": 1070846,
    "name": "Antanankova",
    "latitude": -13.63333,
    "longitude": 48.8,
    "category": "Mountain",
    "subcategory": "Mountain",
    "featured": false,
    "priority": 50
  },
  {
    "geonameId": 1070790,
    "name": "Antanetibe",
    "latitude": -18.55,
    "longitude": 48.36667,
    "category": "Mountain",
    "subcategory": "Mountain",
    "featured": false,
    "priority": 50
  },
  {
    "geonameId": 1070688,
    "name": "Antaniditra",
    "latitude": -16.98333,
    "longitude": 47.3,
    "category": "Mountain",
    "subcategory": "Mountain",
    "featured": false,
    "priority": 50
  },
  {
    "geonameId": 1070661,
    "name": "Antanifotsy",
    "latitude": -19.65,
    "longitude": 47.31667,
    "category": "City",
    "subcategory": "City",
    "featured": false,
    "priority": 50
  },
  {
    "geonameId": 1070455,
    "name": "Antaninaomby",
    "latitude": -13.46667,
    "longitude": 48.35,
    "category": "Mountain",
    "subcategory": "Mountain",
    "featured": false,
    "priority": 50
  },
  {
    "geonameId": 1070328,
    "name": "Antavobe",
    "latitude": -13.78333,
    "longitude": 49.76667,
    "category": "Mountain",
    "subcategory": "Mountain",
    "featured": false,
    "priority": 50
  },
  {
    "geonameId": 1070308,
    "name": "Antemitra",
    "latitude": -19.43333,
    "longitude": 46.05,
    "category": "Mountain",
    "subcategory": "Mountain",
    "featured": false,
    "priority": 50
  },
  {
    "geonameId": 1070248,
    "name": "Antetivato",
    "latitude": -23.7,
    "longitude": 45.23333,
    "category": "Mountain",
    "subcategory": "Mountain",
    "featured": false,
    "priority": 50
  },
  {
    "geonameId": 1070247,
    "name": "Anteto",
    "latitude": -23.16667,
    "longitude": 46.13333,
    "category": "Mountain",
    "subcategory": "Mountain",
    "featured": false,
    "priority": 50
  },
  {
    "geonameId": 1070246,
    "name": "Antety",
    "latitude": -20.53333,
    "longitude": 47.21667,
    "category": "Mountain",
    "subcategory": "Mountain",
    "featured": false,
    "priority": 50
  },
  {
    "geonameId": 1070171,
    "name": "Antobinitsimifaly",
    "latitude": -13.88333,
    "longitude": 48.81667,
    "category": "Mountain",
    "subcategory": "Mountain",
    "featured": false,
    "priority": 50
  },
  {
    "geonameId": 1070151,
    "name": "Antoetra",
    "latitude": -20.68333,
    "longitude": 46.9,
    "category": "Mountain",
    "subcategory": "Mountain",
    "featured": false,
    "priority": 50
  },
  {
    "geonameId": 1070111,
    "name": "Antolana",
    "latitude": -17.06667,
    "longitude": 48.15,
    "category": "Mountain",
    "subcategory": "Mountain",
    "featured": false,
    "priority": 50
  },
  {
    "geonameId": 1070052,
    "name": "Antongombato",
    "latitude": -18.25,
    "longitude": 46.83333,
    "category": "Mountain",
    "subcategory": "Mountain",
    "featured": false,
    "priority": 50
  },
  {
    "geonameId": 1070035,
    "name": "Antongonaombiatsimo",
    "latitude": -13.86667,
    "longitude": 48.93333,
    "category": "Mountain",
    "subcategory": "Mountain",
    "featured": false,
    "priority": 50
  },
  {
    "geonameId": 1069998,
    "name": "Antraika",
    "latitude": -21.6,
    "longitude": 47.85,
    "category": "Mountain",
    "subcategory": "Mountain",
    "featured": false,
    "priority": 50
  },
  {
    "geonameId": 1069994,
    "name": "Antranobe",
    "latitude": -13.68333,
    "longitude": 48.5,
    "category": "Mountain",
    "subcategory": "Mountain",
    "featured": false,
    "priority": 50
  },
  {
    "geonameId": 1069928,
    "name": "Antsahabe",
    "latitude": -13.86667,
    "longitude": 49.15,
    "category": "Mountain",
    "subcategory": "Mountain",
    "featured": false,
    "priority": 50
  },
  {
    "geonameId": 1069896,
    "name": "Antsahabeloha",
    "latitude": -18.35,
    "longitude": 47.21667,
    "category": "Mountain",
    "subcategory": "Mountain",
    "featured": false,
    "priority": 50
  },
  {
    "geonameId": 1069837,
    "name": "Antsahamaloto",
    "latitude": -15.71667,
    "longitude": 48.88333,
    "category": "Mountain",
    "subcategory": "Mountain",
    "featured": false,
    "priority": 50
  },
  {
    "geonameId": 1069788,
    "name": "Antsahanatra",
    "latitude": -18.25,
    "longitude": 47.53333,
    "category": "Mountain",
    "subcategory": "Mountain",
    "featured": false,
    "priority": 50
  },
  {
    "geonameId": 1069706,
    "name": "Antsakay",
    "latitude": -13.5,
    "longitude": 48.8,
    "category": "Mountain",
    "subcategory": "Mountain",
    "featured": false,
    "priority": 50
  },
  {
    "geonameId": 1069579,
    "name": "Antsalova",
    "latitude": -18.66667,
    "longitude": 44.61667,
    "category": "City",
    "subcategory": "City",
    "featured": false,
    "priority": 50
  },
  {
    "geonameId": 11887900,
    "name": "Antsampanimahazo",
    "latitude": -19.63988,
    "longitude": 47.1565,
    "category": "City",
    "subcategory": "District Seat",
    "featured": false,
    "priority": 50
  },
  {
    "geonameId": 1069504,
    "name": "Antsanany",
    "latitude": -13.95,
    "longitude": 48.05,
    "category": "Mountain",
    "subcategory": "Mountain",
    "featured": false,
    "priority": 50
  },
  {
    "geonameId": 1069448,
    "name": "Antsaravo",
    "latitude": -13.71667,
    "longitude": 49.18333,
    "category": "Mountain",
    "subcategory": "Mountain",
    "featured": false,
    "priority": 50
  },
  {
    "geonameId": 1069447,
    "name": "Antsaravy",
    "latitude": -13.36667,
    "longitude": 49.45,
    "category": "Mountain",
    "subcategory": "Mountain",
    "featured": false,
    "priority": 50
  },
  {
    "geonameId": 1069412,
    "name": "Antsatrabe",
    "latitude": -18.41667,
    "longitude": 44.8,
    "category": "Lake",
    "subcategory": "Lake",
    "featured": false,
    "priority": 50
  },
  {
    "geonameId": 1069391,
    "name": "Antsatrana",
    "latitude": -14.43333,
    "longitude": 49.08333,
    "category": "Mountain",
    "subcategory": "Mountain",
    "featured": false,
    "priority": 50
  },
  {
    "geonameId": 1069368,
    "name": "Antsatrotro",
    "latitude": -14.08333,
    "longitude": 48.4,
    "category": "Mountain",
    "subcategory": "Mountain",
    "featured": false,
    "priority": 50
  },
  {
    "geonameId": 1069292,
    "name": "Antshabe",
    "latitude": -13.85,
    "longitude": 48.7,
    "category": "Mountain",
    "subcategory": "Mountain",
    "featured": false,
    "priority": 50
  },
  {
    "geonameId": 1069291,
    "name": "Antsiafabositra",
    "latitude": -17.6,
    "longitude": 47.1,
    "category": "Mountain",
    "subcategory": "Mountain",
    "featured": false,
    "priority": 50
  },
  {
    "geonameId": 1069166,
    "name": "Antsirabe",
    "latitude": -19.86586,
    "longitude": 47.03333,
    "category": "City",
    "subcategory": "Regional Capital",
    "featured": false,
    "priority": 50
  },
  {
    "geonameId": 1069164,
    "name": "Antsirabe Afovoany",
    "latitude": -15.95,
    "longitude": 48.96667,
    "category": "City",
    "subcategory": "City",
    "featured": false,
    "priority": 50
  },
  {
    "geonameId": 1069129,
    "name": "Antsiranana",
    "latitude": -12.31732,
    "longitude": 49.29188,
    "category": "City",
    "subcategory": "Regional Capital",
    "featured": false,
    "priority": 50
  },
  {
    "geonameId": 1069109,
    "name": "Antsiranjavavy",
    "latitude": -15.71667,
    "longitude": 48.28333,
    "category": "Mountain",
    "subcategory": "Mountain",
    "featured": false,
    "priority": 50
  },
  {
    "geonameId": 1069087,
    "name": "Antsiratanana",
    "latitude": -16.34153,
    "longitude": 48.37732,
    "category": "Mountain",
    "subcategory": "Mountain",
    "featured": false,
    "priority": 50
  },
  {
    "geonameId": 1069062,
    "name": "Antsisoboko",
    "latitude": -13.8,
    "longitude": 48.95,
    "category": "Mountain",
    "subcategory": "Mountain",
    "featured": false,
    "priority": 50
  },
  {
    "geonameId": 1069029,
    "name": "Antsofonomby",
    "latitude": -17.4,
    "longitude": 47.13333,
    "category": "Mountain",
    "subcategory": "Mountain",
    "featured": false,
    "priority": 50
  },
  {
    "geonameId": 1069026,
    "name": "Antsoha",
    "latitude": -13.8,
    "longitude": 48.06667,
    "category": "Mountain",
    "subcategory": "Mountain",
    "featured": false,
    "priority": 50
  },
  {
    "geonameId": 1068971,
    "name": "Antsohihy",
    "latitude": -14.87959,
    "longitude": 47.98751,
    "category": "City",
    "subcategory": "Regional Capital",
    "featured": false,
    "priority": 50
  },
  {
    "geonameId": 1068955,
    "name": "Antsohimbondrona",
    "latitude": -13.08333,
    "longitude": 48.85,
    "category": "City",
    "subcategory": "City",
    "featured": false,
    "priority": 50
  },
  {
    "geonameId": 1068954,
    "name": "Antsohitikely",
    "latitude": -18.23333,
    "longitude": 45.41667,
    "category": "Mountain",
    "subcategory": "Mountain",
    "featured": false,
    "priority": 50
  },
  {
    "geonameId": 1058081,
    "name": "Ararano Nosy Vao",
    "latitude": -17.5,
    "longitude": 43.8,
    "category": "Mountain",
    "subcategory": "Mountain Pass",
    "featured": false,
    "priority": 50
  },
  {
    "geonameId": 1068865,
    "name": "Arivonimamo",
    "latitude": -19.01667,
    "longitude": 47.18333,
    "category": "City",
    "subcategory": "City",
    "featured": false,
    "priority": 50
  },
  {
    "geonameId": 1068779,
    "name": "Babano",
    "latitude": -13.15,
    "longitude": 49.21667,
    "category": "Lake",
    "subcategory": "Lake",
    "featured": false,
    "priority": 50
  },
  {
    "geonameId": 1068777,
    "name": "Babay",
    "latitude": -20.33333,
    "longitude": 47.43333,
    "category": "Mountain",
    "subcategory": "Mountain",
    "featured": false,
    "priority": 50
  },
  {
    "geonameId": 7932414,
    "name": "Baie de Baly National Park",
    "latitude": -16.08333,
    "longitude": 45.23333,
    "category": "Park",
    "subcategory": "Park",
    "featured": false,
    "priority": 50
  },
  {
    "geonameId": 1068670,
    "name": "Bealanana",
    "latitude": -14.54329,
    "longitude": 48.74981,
    "category": "City",
    "subcategory": "City",
    "featured": false,
    "priority": 50
  },
  {
    "geonameId": 1068657,
    "name": "Beamalombe",
    "latitude": -14.35,
    "longitude": 49.56667,
    "category": "Mountain",
    "subcategory": "Mountain",
    "featured": false,
    "priority": 50
  },
  {
    "geonameId": 1068655,
    "name": "Beamalona",
    "latitude": -16.66667,
    "longitude": 47.73333,
    "category": "Mountain",
    "subcategory": "Mountain",
    "featured": false,
    "priority": 50
  },
  {
    "geonameId": 1068635,
    "name": "Beampody",
    "latitude": -17.8,
    "longitude": 47.6,
    "category": "Mountain",
    "subcategory": "Mountain",
    "featured": false,
    "priority": 50
  },
  {
    "geonameId": 1068601,
    "name": "Beanana",
    "latitude": -16.03333,
    "longitude": 48.66667,
    "category": "Mountain",
    "subcategory": "Mountain",
    "featured": false,
    "priority": 50
  },
  {
    "geonameId": 1068576,
    "name": "Beandrarezina",
    "latitude": -14.18333,
    "longitude": 49.03333,
    "category": "Mountain",
    "subcategory": "Mountain",
    "featured": false,
    "priority": 50
  },
  {
    "geonameId": 1068549,
    "name": "Beanjada",
    "latitude": -15.25,
    "longitude": 50,
    "category": "Mountain",
    "subcategory": "Mountain",
    "featured": false,
    "priority": 50
  },
  {
    "geonameId": 1068536,
    "name": "Beantrandra",
    "latitude": -13.86667,
    "longitude": 48.75,
    "category": "Mountain",
    "subcategory": "Mountain",
    "featured": false,
    "priority": 50
  },
  {
    "geonameId": 1068524,
    "name": "Beavakoera",
    "latitude": -13.55,
    "longitude": 49.36667,
    "category": "Mountain",
    "subcategory": "Mountain",
    "featured": false,
    "priority": 50
  },
  {
    "geonameId": 1068464,
    "name": "Bedeboky",
    "latitude": -24.31667,
    "longitude": 45.76667,
    "category": "Mountain",
    "subcategory": "Mountain",
    "featured": false,
    "priority": 50
  },
  {
    "geonameId": 1068460,
    "name": "Bedemoka",
    "latitude": -22.18333,
    "longitude": 45.85,
    "category": "Mountain",
    "subcategory": "Mountain",
    "featured": false,
    "priority": 50
  },
  {
    "geonameId": 1068387,
    "name": "Befandriana",
    "latitude": -15.2567,
    "longitude": 48.54249,
    "category": "City",
    "subcategory": "City",
    "featured": false,
    "priority": 50
  },
  {
    "geonameId": 1068314,
    "name": "Befosa",
    "latitude": -14.8,
    "longitude": 48.71667,
    "category": "Mountain",
    "subcategory": "Mountain",
    "featured": false,
    "priority": 50
  },
  {
    "geonameId": 1068229,
    "name": "Beharaha",
    "latitude": -13.5,
    "longitude": 49.56667,
    "category": "Mountain",
    "subcategory": "Mountain",
    "featured": false,
    "priority": 50
  },
  {
    "geonameId": 1068186,
    "name": "Beheloka",
    "latitude": -16.91667,
    "longitude": 49.13333,
    "category": "Mountain",
    "subcategory": "Mountain",
    "featured": false,
    "priority": 50
  },
  {
    "geonameId": 1068138,
    "name": "Behivoka",
    "latitude": -23.83333,
    "longitude": 45.78333,
    "category": "Mountain",
    "subcategory": "Mountain",
    "featured": false,
    "priority": 50
  },
  {
    "geonameId": 1068130,
    "name": "Behompy",
    "latitude": -23.25,
    "longitude": 43.85,
    "category": "City",
    "subcategory": "City",
    "featured": false,
    "priority": 50
  },
  {
    "geonameId": 1068047,
    "name": "Bekapity",
    "latitude": -22.61667,
    "longitude": 45.21667,
    "category": "Mountain",
    "subcategory": "Mountain",
    "featured": false,
    "priority": 50
  },
  {
    "geonameId": 1067982,
    "name": "Bekily",
    "latitude": -24.21667,
    "longitude": 45.31667,
    "category": "City",
    "subcategory": "City",
    "featured": false,
    "priority": 50
  },
  {
    "geonameId": 1067930,
    "name": "Bekiraro",
    "latitude": -14.05703,
    "longitude": 48.5023,
    "category": "Mountain",
    "subcategory": "Mountain",
    "featured": false,
    "priority": 50
  },
  {
    "geonameId": 1067868,
    "name": "Bekolosy",
    "latitude": -14.01667,
    "longitude": 48.31667,
    "category": "Mountain",
    "subcategory": "Mountain",
    "featured": false,
    "priority": 50
  },
  {
    "geonameId": 1067836,
    "name": "Bekorontanana",
    "latitude": -16.53333,
    "longitude": 47.7,
    "category": "Mountain",
    "subcategory": "Mountain",
    "featured": false,
    "priority": 50
  },
  {
    "geonameId": 1067778,
    "name": "Belambo",
    "latitude": -13.91667,
    "longitude": 49.35,
    "category": "Mountain",
    "subcategory": "Mountain",
    "featured": false,
    "priority": 50
  },
  {
    "geonameId": 1067706,
    "name": "Belantira",
    "latitude": -19.31667,
    "longitude": 46.21667,
    "category": "Mountain",
    "subcategory": "Mountain",
    "featured": false,
    "priority": 50
  },
  {
    "geonameId": 1067643,
    "name": "Belengo",
    "latitude": -18.51667,
    "longitude": 44.56667,
    "category": "Mountain",
    "subcategory": "Mountain",
    "featured": false,
    "priority": 50
  },
  {
    "geonameId": 1067624,
    "name": "Belingay",
    "latitude": -13.43333,
    "longitude": 49.33333,
    "category": "Mountain",
    "subcategory": "Mountain",
    "featured": false,
    "priority": 50
  },
  {
    "geonameId": 1067604,
    "name": "Belio",
    "latitude": -24.9,
    "longitude": 46.55,
    "category": "Mountain",
    "subcategory": "Mountain",
    "featured": false,
    "priority": 50
  },
  {
    "geonameId": 1067531,
    "name": "Belo sur Tsiribihina",
    "latitude": -19.69787,
    "longitude": 44.54587,
    "category": "City",
    "subcategory": "City",
    "featured": false,
    "priority": 50
  },
  {
    "geonameId": 1067565,
    "name": "Beloha",
    "latitude": -25.16667,
    "longitude": 45.05,
    "category": "City",
    "subcategory": "City",
    "featured": false,
    "priority": 50
  },
  {
    "geonameId": 1067536,
    "name": "Belongozahely",
    "latitude": -13.68333,
    "longitude": 48.8,
    "category": "Mountain",
    "subcategory": "Mountain",
    "featured": false,
    "priority": 50
  },
  {
    "geonameId": 1067487,
    "name": "Bemaitso",
    "latitude": -17.06667,
    "longitude": 48.5,
    "category": "City",
    "subcategory": "City",
    "featured": false,
    "priority": 50
  },
  {
    "geonameId": 1067462,
    "name": "Bemananasy",
    "latitude": -13.75,
    "longitude": 48.58333,
    "category": "Mountain",
    "subcategory": "Mountain",
    "featured": false,
    "priority": 50
  },
  {
    "geonameId": 1067381,
    "name": "Bemanjea",
    "latitude": -16.58333,
    "longitude": 47.9,
    "category": "Mountain",
    "subcategory": "Mountain",
    "featured": false,
    "priority": 50
  },
  {
    "geonameId": 1067216,
    "name": "Bemolahy",
    "latitude": -15.8,
    "longitude": 48.8,
    "category": "Mountain",
    "subcategory": "Mountain",
    "featured": false,
    "priority": 50
  },
  {
    "geonameId": 1067143,
    "name": "Bengilo",
    "latitude": -19.75,
    "longitude": 45.73333,
    "category": "Mountain",
    "subcategory": "Mountain",
    "featured": false,
    "priority": 50
  },
  {
    "geonameId": 1067073,
    "name": "Bepatsy",
    "latitude": -24.66667,
    "longitude": 46.68333,
    "category": "Mountain",
    "subcategory": "Mountain",
    "featured": false,
    "priority": 50
  },
  {
    "geonameId": 1067039,
    "name": "Bepily",
    "latitude": -13.68333,
    "longitude": 48.88333,
    "category": "Mountain",
    "subcategory": "Mountain",
    "featured": false,
    "priority": 50
  },
  {
    "geonameId": 1067028,
    "name": "Berahara",
    "latitude": -24.41667,
    "longitude": 46.95,
    "category": "Mountain",
    "subcategory": "Mountain",
    "featured": false,
    "priority": 50
  },
  {
    "geonameId": 1066979,
    "name": "Beranonorankely",
    "latitude": -17.7,
    "longitude": 46.56667,
    "category": "Mountain",
    "subcategory": "Mountain",
    "featured": false,
    "priority": 50
  },
  {
    "geonameId": 1066831,
    "name": "Beroroha",
    "latitude": -21.66667,
    "longitude": 45.16667,
    "category": "City",
    "subcategory": "City",
    "featured": false,
    "priority": 50
  },
  {
    "geonameId": 1066786,
    "name": "Besakarivo",
    "latitude": -16.86667,
    "longitude": 47.76667,
    "category": "Mountain",
    "subcategory": "Mountain",
    "featured": false,
    "priority": 50
  },