[
  {
    "geonameId": 1085579,
    "name": "Albufeira de Cahora Bassa",
    "latitude": -15.68556,
    "longitude": 32.13167,
    "category": "Lake",
    "subcategory": "Lake",
    "featured": false,
    "priority": 50
  },
  {
    "geonameId": 1049833,
    "name": "Albufeira de Chicamba Real",
    "latitude": -19.11194,
    "longitude": 33.09,
    "category": "Lake",
    "subcategory": "Reservoir",
    "featured": false,
    "priority": 50
  },
  {
    "geonameId": 1100298,
    "name": "Albufeira De Massingir",
    "latitude": -23.91083,
    "longitude": 32,
    "category": "Lake",
    "subcategory": "Lake",
    "featured": false,
    "priority": 50
  },
  {
    "geonameId": 1053143,
    "name": "Alto Molocue",
    "latitude": -15.63556,
    "longitude": 37.68833,
    "category": "City",
    "subcategory": "City",
    "featured": false,
    "priority": 50
  },
  {
    "geonameId": 1052944,
    "name": "Angoche",
    "latitude": -16.2325,
    "longitude": 39.90861,
    "category": "City",
    "subcategory": "City",
    "featured": false,
    "priority": 50
  },
  {
    "geonameId": 11808039,
    "name": "Antares Island",
    "latitude": -10.99594,
    "longitude": 40.70822,
    "category": "Island",
    "subcategory": "Island",
    "featured": false,
    "priority": 50
  },
  {
    "geonameId": 1028401,
    "name": "Arquipélago das Querimbas",
    "latitude": -11.74234,
    "longitude": 40.63431,
    "category": "Island",
    "subcategory": "Island Group",
    "featured": false,
    "priority": 50
  },
  {
    "geonameId": 1106292,
    "name": "Bairro 25 de Junho A",
    "latitude": -25.90028,
    "longitude": 32.55556,
    "category": "City",
    "subcategory": "District Seat",
    "featured": false,
    "priority": 50
  },
  {
    "geonameId": 1106294,
    "name": "Bairro 25 de Junho B",
    "latitude": -25.90111,
    "longitude": 32.5775,
    "category": "City",
    "subcategory": "District Seat",
    "featured": false,
    "priority": 50
  },
  {
    "geonameId": 1086576,
    "name": "Balama",
    "latitude": -13.35722,
    "longitude": 38.54056,
    "category": "Mountain",
    "subcategory": "Mountain",
    "featured": false,
    "priority": 50
  },
  {
    "geonameId": 7874688,
    "name": "Banhine National Park",
    "latitude": -22.77618,
    "longitude": 32.79968,
    "category": "Park",
    "subcategory": "Park",
    "featured": false,
    "priority": 50
  },
  {
    "geonameId": 1094386,
    "name": "Barauro",
    "latitude": -17.85219,
    "longitude": 33.09599,
    "category": "Mountain",
    "subcategory": "Mountain",
    "featured": false,
    "priority": 50
  },
  {
    "geonameId": 6942134,
    "name": "Bazaruto Archipelago",
    "latitude": -21.63333,
    "longitude": 35.5,
    "category": "Island",
    "subcategory": "Island Group",
    "featured": false,
    "priority": 50
  },
  {
    "geonameId": 9256624,
    "name": "Bazaruto Archipelago National Park",
    "latitude": -21.66572,
    "longitude": 35.46593,
    "category": "Park",
    "subcategory": "Park",
    "featured": false,
    "priority": 50
  },
  {
    "geonameId": 1052373,
    "name": "Beira",
    "latitude": -19.84361,
    "longitude": 34.83889,
    "category": "City",
    "subcategory": "Regional Capital",
    "featured": false,
    "priority": 50
  },
  {
    "geonameId": 1052353,
    "name": "Bemba",
    "latitude": -13.04583,
    "longitude": 35.23139,
    "category": "Mountain",
    "subcategory": "Mountain",
    "featured": false,
    "priority": 50
  },
  {
    "geonameId": 1052327,
    "name": "Benguerra Island",
    "latitude": -21.87297,
    "longitude": 35.43795,
    "category": "Island",
    "subcategory": "Island",
    "featured": false,
    "priority": 50
  },
  {
    "geonameId": 1052295,
    "name": "Besinchambo",
    "latitude": -15.52111,
    "longitude": 33.87889,
    "category": "Mountain",
    "subcategory": "Mountain",
    "featured": false,
    "priority": 50
  },
  {
    "geonameId": 1028576,
    "name": "Bilene",
    "latitude": -25.27264,
    "longitude": 33.24205,
    "category": "City",
    "subcategory": "City",
    "featured": false,
    "priority": 50
  },
  {
    "geonameId": 1094290,
    "name": "Birgue",
    "latitude": -17.49611,
    "longitude": 33.89417,
    "category": "Mountain",
    "subcategory": "Mountain",
    "featured": false,
    "priority": 50
  },
  {
    "geonameId": 1052191,
    "name": "Boane",
    "latitude": -26.04236,
    "longitude": 32.33027,
    "category": "City",
    "subcategory": "City",
    "featured": false,
    "priority": 50
  },
  {
    "geonameId": 1052159,
    "name": "Bodezole",
    "latitude": -15.51278,
    "longitude": 33.94028,
    "category": "Mountain",
    "subcategory": "Mountain",
    "featured": false,
    "priority": 50
  },
  {
    "geonameId": 894931,
    "name": "Bomponi",
    "latitude": -19.1,
    "longitude": 32.88333,
    "category": "Mountain",
    "subcategory": "Mountain",
    "featured": false,
    "priority": 50
  },
  {
    "geonameId": 1103663,
    "name": "Brejo Canzilo",
    "latitude": -22.79056,
    "longitude": 34.24833,
    "category": "Lake",
    "subcategory": "Lake",
    "featured": false,
    "priority": 50
  },
  {
    "geonameId": 1103061,
    "name": "Brejo Chingatsi",
    "latitude": -23.18583,
    "longitude": 34.18806,
    "category": "Lake",
    "subcategory": "Lake",
    "featured": false,
    "priority": 50
  },
  {
    "geonameId": 1103661,
    "name": "Brejo Manzueni",
    "latitude": -22.78861,
    "longitude": 34.15056,
    "category": "Lake",
    "subcategory": "Lake",
    "featured": false,
    "priority": 50
  },
  {
    "geonameId": 1099684,
    "name": "Brejo Matucanzi",
    "latitude": -22.86,
    "longitude": 32.76167,
    "category": "Lake",
    "subcategory": "Lake",
    "featured": false,
    "priority": 50
  },
  {
    "geonameId": 1103662,
    "name": "Brejo Maulucutse",
    "latitude": -22.77917,
    "longitude": 34.21,
    "category": "Lake",
    "subcategory": "Lake",
    "featured": false,
    "priority": 50
  },
  {
    "geonameId": 1103959,
    "name": "Brejo Nhanguema",
    "latitude": -23.87806,
    "longitude": 33.36,
    "category": "Lake",
    "subcategory": "Lake",
    "featured": false,
    "priority": 50
  },
  {
    "geonameId": 1046893,
    "name": "Buane",
    "latitude": -24.58306,
    "longitude": 34.89417,
    "category": "Lake",
    "subcategory": "Lake",
    "featured": false,
    "priority": 50
  },
  {
    "geonameId": 1089180,
    "name": "Buarenga",
    "latitude": -15.56028,
    "longitude": 30.84833,
    "category": "Mountain",
    "subcategory": "Mountain",
    "featured": false,
    "priority": 50
  },
  {
    "geonameId": 1046554,
    "name": "Buchanan",
    "latitude": -26.40585,
    "longitude": 32.07764,
    "category": "Mountain",
    "subcategory": "Mountain",
    "featured": false,
    "priority": 50
  },
  {
    "geonameId": 1094385,
    "name": "Bumba",
    "latitude": -17.8391,
    "longitude": 32.98692,
    "category": "Mountain",
    "subcategory": "Mountain",
    "featured": false,
    "priority": 50
  },
  {
    "geonameId": 1051892,
    "name": "Bungo",
    "latitude": -12.57861,
    "longitude": 35.79667,
    "category": "Mountain",
    "subcategory": "Mountain",
    "featured": false,
    "priority": 50
  },
  {
    "geonameId": 12718693,
    "name": "Búzi",
    "latitude": -19.86439,
    "longitude": 34.46735,
    "category": "City",
    "subcategory": "City",
    "featured": false,
    "priority": 50
  },
  {
    "geonameId": 1051850,
    "name": "Búzi Mufu",
    "latitude": -20.02111,
    "longitude": 34.55083,
    "category": "Lake",
    "subcategory": "Lake",
    "featured": false,
    "priority": 50
  },
  {
    "geonameId": 1098754,
    "name": "Buzimufu Lagoa",
    "latitude": -19.94278,
    "longitude": 34.47028,
    "category": "Lake",
    "subcategory": "Lake",
    "featured": false,
    "priority": 50
  },
  {
    "geonameId": 1099796,
    "name": "C. Mantai",
    "latitude": -25.15333,
    "longitude": 33.17056,
    "category": "Lake",
    "subcategory": "Lake",
    "featured": false,
    "priority": 50
  },
  {
    "geonameId": 1096312,
    "name": "Cabeça do Velho",
    "latitude": -19.09861,
    "longitude": 33.505,
    "category": "Mountain",
    "subcategory": "Mountain",
    "featured": false,
    "priority": 50
  },
  {
    "geonameId": 1051788,
    "name": "Cachave",
    "latitude": -14.55444,
    "longitude": 40.52361,
    "category": "Mountain",
    "subcategory": "Mountain",
    "featured": false,
    "priority": 50
  },
  {
    "geonameId": 1051783,
    "name": "Cachenge",
    "latitude": -15.78361,
    "longitude": 33.31944,
    "category": "Mountain",
    "subcategory": "Mountain",
    "featured": false,
    "priority": 50
  },
  {
    "geonameId": 1085702,
    "name": "Cachimo",
    "latitude": -12.27139,
    "longitude": 40.2475,
    "category": "Lake",
    "subcategory": "Lake",
    "featured": false,
    "priority": 50
  },
  {
    "geonameId": 1024692,
    "name": "Caia",
    "latitude": -17.82028,
    "longitude": 35.34417,
    "category": "City",
    "subcategory": "City",
    "featured": false,
    "priority": 50
  },
  {
    "geonameId": 1051509,
    "name": "Camacoro",
    "latitude": -15.465,
    "longitude": 30.7,
    "category": "Mountain",
    "subcategory": "Mountain",
    "featured": false,
    "priority": 50
  },
  {
    "geonameId": 12718694,
    "name": "Caniçado",
    "latitude": -24.41703,
    "longitude": 32.94287,
    "category": "City",
    "subcategory": "City",
    "featured": false,
    "priority": 50
  },
  {
    "geonameId": 1050871,
    "name": "Catandica",
    "latitude": -18.0575,
    "longitude": 33.17361,
    "category": "City",
    "subcategory": "City",
    "featured": false,
    "priority": 50
  },
  {
    "geonameId": 1089184,
    "name": "Cauè",
    "latitude": -15.05528,
    "longitude": 30.745,
    "category": "Mountain",
    "subcategory": "Mountain",
    "featured": false,
    "priority": 50
  },
  {
    "geonameId": 1050653,
    "name": "Cecil Kop",
    "latitude": -18.93333,
    "longitude": 32.7,
    "category": "Mountain",
    "subcategory": "Mountain",
    "featured": false,
    "priority": 50
  },
  {
    "geonameId": 1050611,
    "name": "Chacamitala",
    "latitude": -14.81667,
    "longitude": 37.5,
    "category": "Mountain",
    "subcategory": "Mountain",
    "featured": false,
    "priority": 50
  },
  {
    "geonameId": 1104479,
    "name": "Changazive",
    "latitude": -23.53556,
    "longitude": 33.33611,
    "category": "Lake",
    "subcategory": "Lake",
    "featured": false,
    "priority": 50
  },
  {
    "geonameId": 1050333,
    "name": "Changosa",
    "latitude": -15.56667,
    "longitude": 33.88333,
    "category": "Mountain",
    "subcategory": "Mountain",
    "featured": false,
    "priority": 50
  },
  {
    "geonameId": 1096259,
    "name": "Chara",
    "latitude": -19.22778,
    "longitude": 33.16861,
    "category": "Mountain",
    "subcategory": "Mountain",
    "featured": false,
    "priority": 50
  },
  {
    "geonameId": 1050143,
    "name": "Checúngoè",
    "latitude": -14.12667,
    "longitude": 33.00556,
    "category": "Mountain",
    "subcategory": "Mountain",
    "featured": false,
    "priority": 50
  },
  {
    "geonameId": 1050000,
    "name": "Chesulo Hill",
    "latitude": -14.27083,
    "longitude": 35.53167,
    "category": "Mountain",
    "subcategory": "Mountain",
    "featured": false,
    "priority": 50
  },
  {
    "geonameId": 1049861,
    "name": "Chibuto",
    "latitude": -24.68667,
    "longitude": 33.53056,
    "category": "City",
    "subcategory": "City",
    "featured": false,
    "priority": 50
  },
  {
    "geonameId": 1096263,
    "name": "Chicamba Real",
    "latitude": -19.14667,
    "longitude": 33.17806,
    "category": "Mountain",
    "subcategory": "Mountain",
    "featured": false,
    "priority": 50
  },
  {
    "geonameId": 1103301,
    "name": "Chichangui",
    "latitude": -23.91583,
    "longitude": 34.41806,
    "category": "Lake",
    "subcategory": "Lake",
    "featured": false,
    "priority": 50
  },
  {
    "geonameId": 1100137,
    "name": "Chiculucumba",
    "latitude": -22.80694,
    "longitude": 33.12083,
    "category": "Lake",
    "subcategory": "Lake",
    "featured": false,
    "priority": 50
  },
  {
    "geonameId": 1049551,
    "name": "Chicuvali",
    "latitude": -24.51028,
    "longitude": 32.71583,
    "category": "Lake",
    "subcategory": "Lake",
    "featured": false,
    "priority": 50
  },
  {
    "geonameId": 1050055,
    "name": "Chienguetele",
    "latitude": -23.32778,
    "longitude": 33.90389,
    "category": "Lake",
    "subcategory": "Lake",
    "featured": false,
    "priority": 50
  },
  {
    "geonameId": 9257578,
    "name": "Chimanimani Conservation Area",
    "latitude": -19.8795,
    "longitude": 33.24369,
    "category": "Park",
    "subcategory": "Park",
    "featured": false,
    "priority": 50
  },
  {
    "geonameId": 11258288,
    "name": "Chimanimani National Reserve",
    "latitude": -19.795,
    "longitude": 33.08917,
    "category": "Park",
    "subcategory": "Nature Reserve",
    "featured": false,
    "priority": 50
  },
  {
    "geonameId": 7874682,
    "name": "Chimanimani TFCA",
    "latitude": -19.82743,
    "longitude": 33.09494,
    "category": "Park",
    "subcategory": "Park",
    "featured": false,
    "priority": 50
  },
  {
    "geonameId": 1049261,
    "name": "Chimoio",
    "latitude": -19.11639,
    "longitude": 33.48333,
    "category": "City",
    "subcategory": "Regional Capital",
    "featured": false,
    "priority": 50
  },
  {
    "geonameId": 1049205,
    "name": "Chinanazembe",
    "latitude": -19.35,
    "longitude": 32.78333,
    "category": "Mountain",
    "subcategory": "Mountain",
    "featured": false,
    "priority": 50
  },
  {
    "geonameId": 1024697,
    "name": "Chinde",
    "latitude": -18.58111,
    "longitude": 36.45861,
    "category": "City",
    "subcategory": "City",
    "featured": false,
    "priority": 50
  },
  {
    "geonameId": 1096301,
    "name": "Chingaura",
    "latitude": -19.45222,
    "longitude": 33.53111,
    "category": "Mountain",
    "subcategory": "Mountain",
    "featured": false,
    "priority": 50
  },
  {
    "geonameId": 1048930,
    "name": "Chipiri",
    "latitude": -15.76667,
    "longitude": 33.51667,
    "category": "Mountain",
    "subcategory": "Mountain",
    "featured": false,
    "priority": 50
  },
  {
    "geonameId": 1048895,
    "name": "Chipucuto",
    "latitude": -12.40444,
    "longitude": 35.20472,
    "category": "Mountain",
    "subcategory": "Mountain",
    "featured": false,
    "priority": 50
  },
  {
    "geonameId": 930552,
    "name": "Chirobwe Hill",
    "latitude": -14.55,
    "longitude": 34.53333,
    "category": "Mountain",
    "subcategory": "Mountain",
    "featured": false,
    "priority": 50
  },
  {
    "geonameId": 1048766,
    "name": "Chirunga",
    "latitude": -15.30111,
    "longitude": 33.86472,
    "category": "Mountain",
    "subcategory": "Mountain",
    "featured": false,
    "priority": 50
  },
  {
    "geonameId": 1096298,
    "name": "Chissui",
    "latitude": -19.14778,
    "longitude": 33.44944,
    "category": "Mountain",
    "subcategory": "Mountain",
    "featured": false,
    "priority": 50
  },
  {
    "geonameId": 1048559,
    "name": "Chitope",
    "latitude": -15.16333,
    "longitude": 33.5225,
    "category": "Mountain",
    "subcategory": "Mountain",
    "featured": false,
    "priority": 50
  },
  {
    "geonameId": 1048468,
    "name": "Chiúre",
    "latitude": -13.3825,
    "longitude": 39.78167,
    "category": "City",
    "subcategory": "City",
    "featured": false,
    "priority": 50
  },
  {
    "geonameId": 1048402,
    "name": "Chizine",
    "latitude": -21.3625,
    "longitude": 34.25944,
    "category": "Lake",
    "subcategory": "Lake",
    "featured": false,
    "priority": 50
  },
  {
    "geonameId": 1048399,
    "name": "Chizita",
    "latitude": -15.94778,
    "longitude": 33.97833,
    "category": "Mountain",
    "subcategory": "Mountain",
    "featured": false,
    "priority": 50
  },
  {
    "geonameId": 1096296,
    "name": "Chizumbeiro",
    "latitude": -19.06806,
    "longitude": 33.49,
    "category": "Mountain",
    "subcategory": "Mountain",
    "featured": false,
    "priority": 50
  },
  {
    "geonameId": 1048364,
    "name": "Chokwé",
    "latitude": -24.53333,
    "longitude": 32.98333,
    "category": "City",
    "subcategory": "County Seat",
    "featured": false,
    "priority": 50
  },
  {
    "geonameId": 1051519,
    "name": "Cholansano Hill",
    "latitude": -14.15,
    "longitude": 33.28333,
    "category": "Mountain",
    "subcategory": "Mountain",
    "featured": false,
    "priority": 50
  },
  {
    "geonameId": 1086475,
    "name": "Chopa",
    "latitude": -13.70861,
    "longitude": 38.78056,
    "category": "Mountain",
    "subcategory": "Mountain",
    "featured": false,
    "priority": 50
  },
  {
    "geonameId": 1048295,
    "name": "Chóuo",
    "latitude": -13,
    "longitude": 37.63333,
    "category": "Mountain",
    "subcategory": "Mountain",
    "featured": false,
    "priority": 50
  },
  {
    "geonameId": 1092792,
    "name": "Cirazulo",
    "latitude": -16.83389,
    "longitude": 34.9375,
    "category": "Mountain",
    "subcategory": "Mountain",
    "featured": false,
    "priority": 50
  },
  {
    "geonameId": 1047908,
    "name": "Comone",
    "latitude": -14.65,
    "longitude": 37.46667,
    "category": "Mountain",
    "subcategory": "Mountain",
    "featured": false,
    "priority": 50
  },
  {
    "geonameId": 1047732,
    "name": "Cóssue",
    "latitude": -14.59583,
    "longitude": 33.99944,
    "category": "Mountain",
    "subcategory": "Mountain",
    "featured": false,
    "priority": 50
  },
  {
    "geonameId": 1103495,
    "name": "Coutola",
    "latitude": -21.13083,
    "longitude": 34.56278,
    "category": "Lake",
    "subcategory": "Lake",
    "featured": false,
    "priority": 50
  },
  {
    "geonameId": 1047660,
    "name": "Cuamba",
    "latitude": -14.80306,
    "longitude": 36.53722,
    "category": "City",
    "subcategory": "City",
    "featured": false,
    "priority": 50
  },
  {
    "geonameId": 1047591,
    "name": "Cuero",
    "latitude": -12.575,
    "longitude": 39.64056,
    "category": "Mountain",
    "subcategory": "Mountain",
    "featured": false,
    "priority": 50
  },
  {
    "geonameId": 1047526,
    "name": "Culumé",
    "latitude": -14.28333,
    "longitude": 40.46667,
    "category": "Mountain",
    "subcategory": "Mountain",
    "featured": false,
    "priority": 50
  },
  {
    "geonameId": 1087696,
    "name": "Curripo",
    "latitude": -13.09333,
    "longitude": 39.02111,
    "category": "Mountain",
    "subcategory": "Mountain",
    "featured": false,
    "priority": 50
  },
  {
    "geonameId": 1047161,
    "name": "Demene",
    "latitude": -20.09734,
    "longitude": 32.93924,
    "category": "Mountain",
    "subcategory": "Mountain",
    "featured": false,
    "priority": 50
  },
  {
    "geonameId": 1047139,
    "name": "Desaue",
    "latitude": -15.14278,
    "longitude": 33.46278,
    "category": "Mountain",
    "subcategory": "Mountain",
    "featured": false,
    "priority": 50
  },
  {
    "geonameId": 1046921,
    "name": "Dómuè",
    "latitude": -14.47528,
    "longitude": 34.22194,
    "category": "Mountain",
    "subcategory": "Mountain",
    "featured": false,
    "priority": 50
  },
  {
    "geonameId": 1024696,
    "name": "Dondo",
    "latitude": -19.60944,
    "longitude": 34.74306,
    "category": "City",
    "subcategory": "City",
    "featured": false,
    "priority": 50
  },
  {
    "geonameId": 1089090,
    "name": "Dzamboé",
    "latitude": -15.10389,
    "longitude": 30.82361,
    "category": "Mountain",
    "subcategory": "Mountain",
    "featured": false,
    "priority": 50
  },
  {
    "geonameId": 1046765,
    "name": "Dzobwe Hill",
    "latitude": -15.61667,
    "longitude": 34.46667,
    "category": "Mountain",
    "subcategory": "Mountain",
    "featured": false,
    "priority": 50
  },
  {
    "geonameId": 1046648,
    "name": "Entumbe",
    "latitude": -14.78111,
    "longitude": 33.42917,
    "category": "Mountain",
    "subcategory": "Mountain",
    "featured": false,
    "priority": 50
  },
  {
    "geonameId": 1046646,
    "name": "Énui",
    "latitude": -14.86222,
    "longitude": 37.32611,
    "category": "Mountain",
    "subcategory": "Mountain",
    "featured": false,
    "priority": 50
  },
  {
    "geonameId": 1046534,
    "name": "Estungulo",
    "latitude": -21.91667,
    "longitude": 34.21667,
    "category": "Lake",
    "subcategory": "Lake",
    "featured": false,
    "priority": 50
  },
  {
    "geonameId": 1097525,
    "name": "Fuma",
    "latitude": -24.31583,
    "longitude": 34.37917,
    "category": "Lake",
    "subcategory": "Lake",
    "featured": false,
    "priority": 50
  },
  {
    "geonameId": 1087125,
    "name": "Furancungo",
    "latitude": -14.91361,
    "longitude": 33.59361,
    "category": "Mountain",
    "subcategory": "Mountain",
    "featured": false,
    "priority": 50
  },
  {
    "geonameId": 7874684,
    "name": "Futi Corridor",
    "latitude": -26.68428,
    "longitude": 32.67609,
    "category": "Park",
    "subcategory": "Park",
    "featured": false,
    "priority": 50
  },
  {
    "geonameId": 1099731,
    "name": "Gaganhemba",
    "latitude": -22.70139,
    "longitude": 32.93778,
    "category": "Lake",
    "subcategory": "Lake",
    "featured": false,
    "priority": 50
  },
  {
    "geonameId": 1046132,
    "name": "Gamba",
    "latitude": -12.53333,
    "longitude": 40.61667,
    "category": "Island",
    "subcategory": "Island Group",
    "featured": false,
    "priority": 50
  },
  {
    "geonameId": 1046068,
    "name": "Gaúma",
    "latitude": -13.83306,
    "longitude": 35.31,
    "category": "Mountain",
    "subcategory": "Mountain",
    "featured": false,
    "priority": 50
  },
  {
    "geonameId": 1045826,
    "name": "Gondola",
    "latitude": -19.08833,
    "longitude": 33.64861,
    "category": "City",
    "subcategory": "City",
    "featured": false,
    "priority": 50
  },
  {
    "geonameId": 1024680,
    "name": "Gorongosa",
    "latitude": -18.67556,
    "longitude": 34.07278,
    "category": "City",
    "subcategory": "City",
    "featured": false,
    "priority": 50
  },
  {
    "geonameId": 6941935,
    "name": "Gorongosa National Park",
    "latitude": -18.68333,
    "longitude": 34.06667,
    "category": "Park",
    "subcategory": "Park",
    "featured": false,
    "priority": 50
  },
  {
    "geonameId": 1045785,
    "name": "Gorungue",
    "latitude": -18.68694,
    "longitude": 32.96167,
    "category": "Mountain",
    "subcategory": "Mountain",
    "featured": false,
    "priority": 50
  },
  {
    "geonameId": 1089179,
    "name": "Guma",
    "latitude": -15.435,
    "longitude": 30.99917,
    "category": "Mountain",
    "subcategory": "Mountain",
    "featured": false,
    "priority": 50
  },
  {
    "geonameId": 1045529,
    "name": "Gungua",
    "latitude": -16.44133,
    "longitude": 32.03882,
    "category": "Mountain",
    "subcategory": "Mountain",
    "featured": false,
    "priority": 50
  },
  {
    "geonameId": 1094262,
    "name": "Guro",
    "latitude": -17.40361,
    "longitude": 33.33278,
    "category": "Mountain",
    "subcategory": "Mountain",
    "featured": false,
    "priority": 50
  },
  {
    "geonameId": 1045512,
    "name": "Gurúè",
    "latitude": -15.46694,
    "longitude": 36.97778,
    "category": "City",
    "subcategory": "City",
    "featured": false,
    "priority": 50
  },
  {
    "geonameId": 1045449,
    "name": "Homoíne",
    "latitude": -23.88444,
    "longitude": 35.15139,
    "category": "City",
    "subcategory": "City",
    "featured": false,
    "priority": 50
  },
  {
    "geonameId": 1091197,
    "name": "Iapala",
    "latitude": -15.025,
    "longitude": 38.0425,
    "category": "City",
    "subcategory": "City",
    "featured": false,
    "priority": 50
  },
  {
    "geonameId": 1024695,
    "name": "Ibo",
    "latitude": -12.3426,
    "longitude": 40.5859,
    "category": "City",
    "subcategory": "City",
    "featured": false,
    "priority": 50
  },
  {
    "geonameId": 1053021,
    "name": "Ilha Ampite",
    "latitude": -14.55,
    "longitude": 40.83333,
    "category": "Island",
    "subcategory": "Island",
    "featured": false,
    "priority": 50
  },
  {
    "geonameId": 1052993,
    "name": "Ilha Ancuaze",
    "latitude": -14.54167,
    "longitude": 40.84389,
    "category": "Island",
    "subcategory": "Island",
    "featured": false,
    "priority": 50
  },
  {
    "geonameId": 1052943,
    "name": "Ilha Angoche",
    "latitude": -16.33333,
    "longitude": 39.85,
    "category": "Island",
    "subcategory": "Island",
    "featured": false,
    "priority": 50
  },
  {
    "geonameId": 1052506,
    "name": "Ilha Bangue",
    "latitude": -22.03889,
    "longitude": 35.45278,
    "category": "Island",
    "subcategory": "Island",
    "featured": false,
    "priority": 50
  },
  {
    "geonameId": 1052449,
    "name": "Ilha Bartolomeu Dias",
    "latitude": -21.17556,
    "longitude": 35.12667,
    "category": "Island",
    "subcategory": "Island",
    "featured": false,
    "priority": 50
  },
  {
    "geonameId": 1052332,
    "name": "Ilha Bengalena",
    "latitude": -25.78306,
    "longitude": 32.70667,
    "category": "Island",
    "subcategory": "Island",
    "featured": false,
    "priority": 50
  },
  {
    "geonameId": 1051953,
    "name": "Ilha Buene",
    "latitude": -20.45972,
    "longitude": 34.68667,
    "category": "Island",
    "subcategory": "Island",
    "featured": false,
    "priority": 50
  },
  {
    "geonameId": 1051587,
    "name": "Ilha Caldeira",
    "latitude": -16.61611,
    "longitude": 39.72722,
    "category": "Island",
    "subcategory": "Island",
    "featured": false,
    "priority": 50
  },
  {
    "geonameId": 1051532,
    "name": "Ilha Caluco",
    "latitude": -17.47806,
    "longitude": 35.07083,
    "category": "Island",
    "subcategory": "Island",
    "featured": false,
    "priority": 50
  },
  {
    "geonameId": 1051515,
    "name": "Ilha Cama",
    "latitude": -17.81333,
    "longitude": 35.39972,
    "category": "Island",
    "subcategory": "Island",
    "featured": false,
    "priority": 50
  },
  {
    "geonameId": 1050892,
    "name": "Ilha Casuarina",
    "latitude": -17.12012,
    "longitude": 39.07176,
    "category": "Island",
    "subcategory": "Island",
    "featured": false,
    "priority": 50
  },
  {
    "geonameId": 1050066,
    "name": "Ilha Chengam",
    "latitude": -11.305,
    "longitude": 37.85528,
    "category": "Island",
    "subcategory": "Island",
    "featured": false,
    "priority": 50
  },
  {
    "geonameId": 1049535,
    "name": "Ilha Chidica",
    "latitude": -21.06222,
    "longitude": 35.08972,
    "category": "Island",
    "subcategory": "Island",
    "featured": false,
    "priority": 50
  },
  {
    "geonameId": 1049456,
    "name": "Ilha Chigogori",
    "latitude": -20.65,
    "longitude": 34.94222,
    "category": "Island",
    "subcategory": "Island",
    "featured": false,
    "priority": 50
  },
  {
    "geonameId": 1049450,
    "name": "Ilha Chigomba",
    "latitude": -16.73417,
    "longitude": 34.46028,
    "category": "Island",
    "subcategory": "Island",
    "featured": false,
    "priority": 50
  },
  {
    "geonameId": 1090030,
    "name": "Ilha Chilembene",
    "latitude": -25.52556,
    "longitude": 32.7725,
    "category": "Island",
    "subcategory": "Island",
    "featured": false,
    "priority": 50
  },
  {
    "geonameId": 1049362,
    "name": "Ilha Chiloane",
    "latitude": -20.64556,
    "longitude": 34.92,
    "category": "Island",
    "subcategory": "Island",
    "featured": false,
    "priority": 50
  },
  {
    "geonameId": 1049349,
    "name": "Ilha Chilonzuíne",
    "latitude": -22.17667,
    "longitude": 35.52361,
    "category": "Island",
    "subcategory": "Island",
    "featured": false,
    "priority": 50
  },
  {
    "geonameId": 1049204,
    "name": "Ilha Chinanazi",
    "latitude": -17.08333,
    "longitude": 34.88333,
    "category": "Island",
    "subcategory": "Island",
    "featured": false,
    "priority": 50
  },
  {
    "geonameId": 1049116,
    "name": "Ilha Chinguingue",
    "latitude": -17.12778,
    "longitude": 34.92139,
    "category": "Island",
    "subcategory": "Island",
    "featured": false,
    "priority": 50
  },
  {
    "geonameId": 1049030,
    "name": "Ilha Chipafa",
    "latitude": -19.91472,
    "longitude": 34.66528,
    "category": "Island",
    "subcategory": "Island",
    "featured": false,
    "priority": 50
  },
  {
    "geonameId": 1048736,
    "name": "Ilha Chissanga",
    "latitude": -19.77722,
    "longitude": 34.76194,
    "category": "Island",
    "subcategory": "Island",
    "featured": false,
    "priority": 50
  },
  {
    "geonameId": 1048330,
    "name": "Ilha Chogolombe",
    "latitude": -11.61667,
    "longitude": 37.55472,
    "category": "Island",
    "subcategory": "Island",
    "featured": false,
    "priority": 50
  },
  {
    "geonameId": 1048329,
    "name": "Ilha Chongorgue",
    "latitude": -19.73389,
    "longitude": 34.74528,
    "category": "Island",
    "subcategory": "Island",
    "featured": false,
    "priority": 50
  },
  {
    "geonameId": 1047926,
    "name": "Ilha Comezi",
    "latitude": -10.83523,
    "longitude": 40.64733,
    "category": "Island",
    "subcategory": "Island",
    "featured": false,
    "priority": 50
  },
  {
    "geonameId": 1047915,
    "name": "Ilha Cômo",
    "latitude": -20.21889,
    "longitude": 34.73833,
    "category": "Island",
    "subcategory": "Island",
    "featured": false,
    "priority": 50
  },
  {
    "geonameId": 1047844,
    "name": "Ilha Congo",
    "latitude": -11.27667,
    "longitude": 40.50611,
    "category": "Island",
    "subcategory": "Island",
    "featured": false,
    "priority": 50
  },
  {
    "geonameId": 1047779,
    "name": "Ilha Coroa",
    "latitude": -17.18528,
    "longitude": 38.94278,
    "category": "Island",
    "subcategory": "Island",
    "featured": false,
    "priority": 50
  },
  {
    "geonameId": 1047685,
    "name": "Ilha Crusse",
    "latitude": -14.79556,
    "longitude": 40.83722,
    "category": "Island",
    "subcategory": "Island",
    "featured": false,
    "priority": 50
  },
  {
    "geonameId": 1047641,
    "name": "Ilha Cuassa",
    "latitude": -16.68528,
    "longitude": 34.22944,
    "category": "Island",
    "subcategory": "Island",
    "featured": false,
    "priority": 50
  },
  {
    "geonameId": 1047456,
    "name": "Ilha Cunguni",
    "latitude": -17.13333,
    "longitude": 35.88333,
    "category": "Island",
    "subcategory": "Island",
    "featured": false,
    "priority": 50
  },
  {
    "geonameId": 1045187,
    "name": "Ilha da Inhaca",
    "latitude": -26.01707,
    "longitude": 32.94482,
    "category": "Island",
    "subcategory": "Island",
    "featured": false,
    "priority": 50
  },
  {
    "geonameId": 1027967,
    "name": "Ilha das Rotas",
    "latitude": -12.14641,
    "longitude": 40.56118,
    "category": "Island",
    "subcategory": "Island",
    "featured": false,
    "priority": 50
  },
  {
    "geonameId": 1053030,
    "name": "Ilha De Amores",
    "latitude": -18.61556,
    "longitude": 36.25639,
    "category": "Island",
    "subcategory": "Island",
    "featured": false,
    "priority": 50
  },
  {
    "geonameId": 1045955,
    "name": "Ilha de Goa",
    "latitude": -15.05289,
    "longitude": 40.78421,
    "category": "Island",
    "subcategory": "Island",
    "featured": false,
    "priority": 50
  },
  {
    "geonameId": 1045634,
    "name": "Ilha de Guidjavane",
    "latitude": -23.84083,
    "longitude": 35.40167,
    "category": "Island",
    "subcategory": "Island",
    "featured": false,
    "priority": 50
  },
  {
    "geonameId": 1045296,
    "name": "Ilha de Incanine",
    "latitude": -25.67056,
    "longitude": 32.69083,
    "category": "Island",
    "subcategory": "Island",
    "featured": false,
    "priority": 50
  },
  {
    "geonameId": 1045044,
    "name": "Ilha de Inhangoma",
    "latitude": -17.43194,
    "longitude": 35.21111,
    "category": "Island",
    "subcategory": "Island",
    "featured": false,
    "priority": 50
  },
  {
    "geonameId": 1042053,
    "name": "Ilha de Mafamede",
    "latitude": -16.35292,
    "longitude": 40.02937,
    "category": "Island",
    "subcategory": "Island",
    "featured": false,
    "priority": 50
  },
  {
    "geonameId": 1037221,
    "name": "Ilha de Moma",
    "latitude": -16.85833,
    "longitude": 39.52,
    "category": "Island",
    "subcategory": "Island",
    "featured": false,
    "priority": 50
  },
  {
    "geonameId": 1027095,
    "name": "Ilha de Sena",
    "latitude": -15.08361,
    "longitude": 40.76194,
    "category": "Island",
    "subcategory": "Island",
    "featured": false,
    "priority": 50
  },
  {
    "geonameId": 1047199,
    "name": "Ilha Deia",
    "latitude": -18.2225,
    "longitude": 36.815,
    "category": "Island",
    "subcategory": "Island",
    "featured": false,
    "priority": 50
  },
  {
    "geonameId": 1047182,
    "name": "Ilha Dejumbe",
    "latitude": -11.8175,
    "longitude": 40.60167,
    "category": "Island",
    "subcategory": "Island",
    "featured": false,
    "priority": 50
  },
  {
    "geonameId": 1047166,
    "name": "Ilha Dembe",
    "latitude": -17.95528,
    "longitude": 35.48028,
    "category": "Island",
    "subcategory": "Island",
    "featured": false,
    "priority": 50
  },
  {
    "geonameId": 1052387,
    "name": "Ilha do Bazaruto",
    "latitude": -21.66278,
    "longitude": 35.46778,
    "category": "Island",
    "subcategory": "Island",
    "featured": false,
    "priority": 50
  },
  {
    "geonameId": 1051849,
    "name": "Ilha do Búzio",
    "latitude": -16.275,
    "longitude": 39.94778,
    "category": "Island",
    "subcategory": "Island",
    "featured": false,
    "priority": 50
  },
  {
    "geonameId": 1046310,
    "name": "Ilha do Fogo",
    "latitude": -17.23306,
    "longitude": 38.87778,
    "category": "Island",
    "subcategory": "Island",
    "featured": false,
    "priority": 50
  },
  {
    "geonameId": 1045382,
    "name": "Ilha do Ibo",
    "latitude": -12.33967,
    "longitude": 40.60092,
    "category": "Island",
    "subcategory": "Island",
    "featured": false,
    "priority": 50
  },
  {
    "geonameId": 1028122,
    "name": "Ilha do Refúgio",
    "latitude": -26,
    "longitude": 32.48333,
    "category": "Island",
    "subcategory": "Island",
    "featured": false,
    "priority": 50
  },
  {
    "geonameId": 1028099,
    "name": "Ilha do Remédio",
    "latitude": -17.57861,
    "longitude": 35.14722,
    "category": "Island",
    "subcategory": "Island",
    "featured": false,
    "priority": 50
  },
  {
    "geonameId": 1096082,
    "name": "Ilha Dos Bons Sinais",
    "latitude": -17.94611,
    "longitude": 36.9075,
    "category": "Island",
    "subcategory": "Island",
    "featured": false,
    "priority": 50
  },
  {
    "geonameId": 1099312,
    "name": "Ilha dos Flamingos",
    "latitude": -25.30333,
    "longitude": 33.25583,
    "category": "Island",
    "subcategory": "Island",
    "featured": false,
    "priority": 50
  },
  {
    "geonameId": 1043739,
    "name": "Ilha dos Limões",
    "latitude": -25.69278,
    "longitude": 32.69444,
    "category": "Island",
    "subcategory": "Island",
    "featured": false,
    "priority": 50
  },
  {
    "geonameId": 1028609,
    "name": "Ilha dos Porcos",
    "latitude": -23.79639,
    "longitude": 35.43028,
    "category": "Island",
    "subcategory": "Island",
    "featured": false,
    "priority": 50
  },
  {
    "geonameId": 1028598,
    "name": "Ilha dos Portugueses",
    "latitude": -25.97525,
    "longitude": 32.91088,
    "category": "Island",
    "subcategory": "Island",
    "featured": false,
    "priority": 50
  },
  {
    "geonameId": 1028156,
    "name": "Ilha dos Ratos",
    "latitude": -23.81639,
    "longitude": 35.42667,
    "category": "Island",
    "subcategory": "Island",
    "featured": false,
    "priority": 50
  },
  {
    "geonameId": 1025677,
    "name": "Ilha dos Toscanos",
    "latitude": -19.87778,
    "longitude": 34.75806,
    "category": "Island",
    "subcategory": "Island",
    "featured": false,
    "priority": 50
  },
  {
    "geonameId": 1046878,
    "name": "Ilha Dôto",
    "latitude": -18.66667,
    "longitude": 36.2,
    "category": "Island",
    "subcategory": "Island",
    "featured": false,
    "priority": 50
  },
  {
    "geonameId": 1046840,
    "name": "Ilha Ducuta",
    "latitude": -17.65028,
    "longitude": 35.19083,
    "category": "Island",
    "subcategory": "Island",
    "featured": false,
    "priority": 50
  },
  {
    "geonameId": 1046815,
    "name": "Ilha Dumba",
    "latitude": -19.15528,
    "longitude": 35.65611,
    "category": "Island",
    "subcategory": "Island",
    "featured": false,
    "priority": 50
  },
  {
    "geonameId": 1046640,
    "name": "Ilha Epidendron",
    "latitude": -17.08932,
    "longitude": 39.12021,
    "category": "Island",
    "subcategory": "Island",
    "featured": false,
    "priority": 50
  },
  {
    "geonameId": 1046324,
    "name": "Ilha Fion",
    "latitude": -12.36667,
    "longitude": 40.53333,
    "category": "Island",
    "subcategory": "Island",
    "featured": false,
    "priority": 50
  },
  {
    "geonameId": 1046226,
    "name": "Ilha Fumar",
    "latitude": -18.74722,
    "longitude": 36.23944,
    "category": "Island",
    "subcategory": "Island",
    "featured": false,
    "priority": 50
  },
  {
    "geonameId": 1046165,
    "name": "Ilha Gaga",
    "latitude": -19.20306,
    "longitude": 35.61833,
    "category": "Island",
    "subcategory": "Island",
    "featured": false,
    "priority": 50
  },
  {
    "geonameId": 1046077,
    "name": "Ilha Gatamane",
    "latitude": -16.95194,
    "longitude": 34.80611,
    "category": "Island",
    "subcategory": "Island",
    "featured": false,
    "priority": 50
  },
  {
    "geonameId": 1045862,
    "name": "Ilha Gomene",
    "latitude": -14.32417,
    "longitude": 40.73944,
    "category": "Island",
    "subcategory": "Island",
    "featured": false,
    "priority": 50
  },
  {
    "geonameId": 1045366,
    "name": "Ilha Idugo",
    "latitude": -17.73167,
    "longitude": 37.14056,
    "category": "Island",
    "subcategory": "Island",
    "featured": false,
    "priority": 50
  },
  {
    "geonameId": 1045344,
    "name": "Ilha Iluane",
    "latitude": -18.09333,
    "longitude": 36.80028,
    "category": "Island",
    "subcategory": "Island",
    "featured": false,
    "priority": 50
  },
  {
    "geonameId": 1045251,
    "name": "Ilha Infusse",
    "latitude": -15.51667,
    "longitude": 40.55,
    "category": "Island",
    "subcategory": "Island",
    "featured": false,
    "priority": 50
  },
  {
    "geonameId": 1045186,
    "name": "Ilha Inhacamba",
    "latitude": -18.66806,
    "longitude": 36.30167,
    "category": "Island",
    "subcategory": "Island",
    "featured": false,
    "priority": 50
  },
  {
    "geonameId": 1045184,
    "name": "Ilha Inhacatenga",
    "latitude": -15.48333,
    "longitude": 30.38333,
    "category": "Island",
    "subcategory": "Island",
    "featured": false,
    "priority": 50
  },
  {
    "geonameId": 1096192,
    "name": "Ilha Inhamissengo",
    "latitude": -18.87528,
    "longitude": 36.11,
    "category": "Island",
    "subcategory": "Island",
    "featured": false,
    "priority": 50
  },
  {
    "geonameId": 1045156,
    "name": "Ilha Inhanguaia",
    "latitude": -20.66444,
    "longitude": 34.96222,
    "category": "Island",
    "subcategory": "Island",
    "featured": false,
    "priority": 50
  },
  {
    "geonameId": 1045034,
    "name": "Ilha Inhangurué",
    "latitude": -18.87833,
    "longitude": 36.22944,
    "category": "Island",
    "subcategory": "Island",
    "featured": false,
    "priority": 50
  },
  {
    "geonameId": 1044957,
    "name": "Ilha Injaca",
    "latitude": -14.99889,
    "longitude": 40.8,
    "category": "Island",
    "subcategory": "Island",
    "featured": false,
    "priority": 50
  },
  {
    "geonameId": 1044956,
    "name": "Ilha Injaca Pequena",
    "latitude": -15.00944,
    "longitude": 40.77361,
    "category": "Island",
    "subcategory": "Island",
    "featured": false,
    "priority": 50
  },
  {
    "geonameId": 1044906,
    "name": "Ilha Ionge",
    "latitude": -17.69056,
    "longitude": 37.10889,
    "category": "Island",
    "subcategory": "Island",
    "featured": false,
    "priority": 50
  },
  {
    "geonameId": 1044831,
    "name": "Ilha Iuse",
    "latitude": -17.12611,
    "longitude": 38.54528,
    "category": "Island",
    "subcategory": "Island",
    "featured": false,
    "priority": 50
  },
  {
    "geonameId": 1028333,
    "name": "Ilha Kiramba",
    "latitude": -12.36139,
    "longitude": 40.53417,
    "category": "Island",
    "subcategory": "Island",
    "featured": false,
    "priority": 50
  },
  {
    "geonameId": 1043228,
    "name": "Ilha Lenene",
    "latitude": -22.14591,
    "longitude": 35.52524,
    "category": "Island",
    "subcategory": "Island",
    "featured": false,
    "priority": 50
  },
  {
    "geonameId": 1043951,
    "name": "Ilha Letumba",
    "latitude": -11,
    "longitude": 40.53333,
    "category": "Island",
    "subcategory": "Island",
    "featured": false,
    "priority": 50
  },
  {
    "geonameId": 1043667,
    "name": "Ilha Lipulula",
    "latitude": -11.34389,
    "longitude": 40.38417,
    "category": "Island",
    "subcategory": "Island",
    "featured": false,
    "priority": 50
  },
  {
    "geonameId": 1043547,
    "name": "Ilha Livexa",
    "latitude": -11.6125,
    "longitude": 37.54056,
    "category": "Island",
    "subcategory": "Island",
    "featured": false,
    "priority": 50
  },
  {
    "geonameId": 1042913,
    "name": "Ilha Macaloé",
    "latitude": -11.98306,
    "longitude": 40.58333,
    "category": "Island",
    "subcategory": "Island",
    "featured": false,
    "priority": 50
  },
  {
    "geonameId": 1042858,
    "name": "Ilha Macanha",
    "latitude": -11.56667,
    "longitude": 36.81278,
    "category": "Island",
    "subcategory": "Island",
    "featured": false,
    "priority": 50
  },
  {
    "geonameId": 1042799,
    "name": "Ilha Macatrina",
    "latitude": -16.53472,
    "longitude": 33.39806,
    "category": "Island",
    "subcategory": "Island",
    "featured": false,
    "priority": 50
  },
  {
    "geonameId": 1042796,
    "name": "Ilha Macau",
    "latitude": -20.93278,
    "longitude": 35.08528,
    "category": "Island",
    "subcategory": "Island",
    "featured": false,
    "priority": 50
  },
  {
    "geonameId": 1041330,
    "name": "Ilha Malungulo",
    "latitude": -14.55,
    "longitude": 40.83333,
    "category": "Island",
    "subcategory": "Island",
    "featured": false,
    "priority": 50
  },
  {
    "geonameId": 1041199,
    "name": "Ilha Mandenga",
    "latitude": -22.14167,
    "longitude": 35.53056,
    "category": "Island",
    "subcategory": "Island",
    "featured": false,
    "priority": 50
  },
  {
    "geonameId": 1040901,
    "name": "Ilha Mantiquisse",
    "latitude": -17.28861,
    "longitude": 34.98056,
    "category": "Island",
    "subcategory": "Island",
    "featured": false,
    "priority": 50
  },
  {
    "geonameId": 1040849,
    "name": "Ilha Manuel",
    "latitude": -17.60389,
    "longitude": 35.15972,
    "category": "Island",
    "subcategory": "Island",
    "featured": false,
    "priority": 50
  },
  {
    "geonameId": 1040847,
    "name": "Ilha Manuel da Silva",
    "latitude": -12.23417,
    "longitude": 40.62556,
    "category": "Island",
    "subcategory": "Island",
    "featured": false,
    "priority": 50
  },
  {
    "geonameId": 1040777,
    "name": "Ilha Mapanga",
    "latitude": -11.61278,
    "longitude": 37.52306,
    "category": "Island",
    "subcategory": "Island",
    "featured": false,
    "priority": 50
  },
  {
    "geonameId": 1040541,
    "name": "Ilha Mariana",
    "latitude": -25.20667,
    "longitude": 32.96389,
    "category": "Island",
    "subcategory": "Island",
    "featured": false,
    "priority": 50
  },
  {
    "geonameId": 1040539,
    "name": "Ilha Mariangona",
    "latitude": -17.72194,
    "longitude": 35.29139,
    "category": "Island",
    "subcategory": "Island",
    "featured": false,
    "priority": 50
  },
  {
    "geonameId": 1040474,
    "name": "Ilha Marora",
    "latitude": -19.93333,
    "longitude": 34.66667,
    "category": "Island",
    "subcategory": "Island",
    "featured": false,
    "priority": 50
  },
  {
    "geonameId": 1040213,
    "name": "Ilha Massilumba",
    "latitude": -16.31583,
    "longitude": 33.72722,
    "category": "Island",
    "subcategory": "Island",
    "featured": false,
    "priority": 50
  },
  {
    "geonameId": 1040208,
    "name": "Ilha Massimbo",
    "latitude": -11.61667,
    "longitude": 37.46667,
    "category": "Island",
    "subcategory": "Island",
    "featured": false,
    "priority": 50
  },
  {
    "geonameId": 1040606,
    "name": "Ilha Matabau",
    "latitude": -18.66306,
    "longitude": 36.22611,
    "category": "Island",
    "subcategory": "Island",
    "featured": false,
    "priority": 50
  },
  {
    "geonameId": 1039997,
    "name": "Ilha Matemo",
    "latitude": -12.21303,
    "longitude": 40.59483,
    "category": "Island",
    "subcategory": "Island",
    "featured": false,
    "priority": 50
  },
  {
    "geonameId": 1039302,
    "name": "Ilha Mechanga",
    "latitude": -11.35611,
    "longitude": 40.52556,
    "category": "Island",
    "subcategory": "Island",
    "featured": false,
    "priority": 50
  },
  {
    "geonameId": 1039173,
    "name": "Ilha Mecuandária",
    "latitude": -18.55722,
    "longitude": 36.325,
    "category": "Island",
    "subcategory": "Island",
    "featured": false,
    "priority": 50
  },
  {
    "geonameId": 1039040,
    "name": "Ilha Mefunvo",
    "latitude": -12.54694,
    "longitude": 40.60083,
    "category": "Island",
    "subcategory": "Island",
    "featured": false,
    "priority": 50
  },
  {
    "geonameId": 1038588,
    "name": "Ilha Mequeli",
    "latitude": -16.33028,
    "longitude": 39.93361,
    "category": "Island",
    "subcategory": "Island",
    "featured": false,
    "priority": 50
  },
  {
    "geonameId": 1037954,
    "name": "Ilha Metundo",
    "latitude": -11.16444,
    "longitude": 40.68278,
    "category": "Island",
    "subcategory": "Island",
    "featured": false,
    "priority": 50
  },
  {
    "geonameId": 1037770,
    "name": "Ilha Micune",
    "latitude": -16.77917,
    "longitude": 34.515,
    "category": "Island",
    "subcategory": "Island",
    "featured": false,
    "priority": 50
  },
  {
    "geonameId": 1037769,
    "name": "Ilha Micungune",
    "latitude": -18.79778,
    "longitude": 36.2,
    "category": "Island",
    "subcategory": "Island",
    "featured": false,
    "priority": 50
  },
  {
    "geonameId": 1037630,
    "name": "Ilha Mionge",
    "latitude": -11.42265,
    "longitude": 40.52633,
    "category": "Island",
    "subcategory": "Island",
    "featured": false,
    "priority": 50
  },
  {
    "geonameId": 1037511,
    "name": "Ilha Mitaone",
    "latitude": -18.54806,
    "longitude": 36.44111,
    "category": "Island",
    "subcategory": "Island",
    "featured": false,
    "priority": 50
  },
  {
    "geonameId": 1037407,
    "name": "Ilha Moana Balame",
    "latitude": -18.21306,
    "longitude": 36.75,
    "category": "Island",
    "subcategory": "Island",
    "featured": false,
    "priority": 50
  },
  {
    "geonameId": 1037405,
    "name": "Ilha Moanacolongo",
    "latitude": -18.6925,
    "longitude": 36.18278,
    "category": "Island",
    "subcategory": "Island",
    "featured": false,
    "priority": 50
  },
  {
    "geonameId": 1037387,
    "name": "Ilha Moçambique",
    "latitude": -16.58333,
    "longitude": 33.98333,
    "category": "Island",
    "subcategory": "Island",
    "featured": false,
    "priority": 50
  },
  {
    "geonameId": 1037327,
    "name": "Ilha Mocucuri",
    "latitude": -23.84639,
    "longitude": 35.39139,
    "category": "Island",
    "subcategory": "Island",
    "featured": false,
    "priority": 50
  },
  {
    "geonameId": 1037326,
    "name": "Ilha Mocucuri Cé",
    "latitude": -23.85417,
    "longitude": 35.44222,
    "category": "Island",
    "subcategory": "Island",
    "featured": false,
    "priority": 50
  },
  {
    "geonameId": 1037277,
    "name": "Ilha Mogudula",
    "latitude": -12.04536,
    "longitude": 40.54401,
    "category": "Island",
    "subcategory": "Island",
    "featured": false,
    "priority": 50
  },
  {
    "geonameId": 1037184,
    "name": "Ilha Monaco",
    "latitude": -17.05,
    "longitude": 38.66667,
    "category": "Island",
    "subcategory": "Island",
    "featured": false,
    "priority": 50
  },
  {
    "geonameId": 1036744,
    "name": "Ilha Muananhoca",
    "latitude": -17.96139,
    "longitude": 35.49722,
    "category": "Island",
    "subcategory": "Island",
    "featured": false,
    "priority": 50
  },
  {
    "geonameId": 1036700,
    "name": "Ilha Muaninhosa",
    "latitude": -18.32806,
    "longitude": 36.03806,
    "category": "Island",
    "subcategory": "Island",
    "featured": false,
    "priority": 50
  },
  {
    "geonameId": 1036491,
    "name": "Ilha Muceve",
    "latitude": -20.97667,
    "longitude": 35.10944,
    "category": "Island",
    "subcategory": "Island",
    "featured": false,
    "priority": 50
  },
  {
    "geonameId": 1035885,
    "name": "Ilha Mujaca",
    "latitude": -12.33333,
    "longitude": 40.61667,
    "category": "Island",
    "subcategory": "Island",
    "featured": false,
    "priority": 50
  },
  {
    "geonameId": 1035250,
    "name": "Ilha Mutirrane",
    "latitude": -16.78333,
    "longitude": 39.25,
    "category": "Island",
    "subcategory": "Island",
    "featured": false,
    "priority": 50
  },
  {
    "geonameId": 1100302,
    "name": "Ilha Muvabane",
    "latitude": -22.15625,
    "longitude": 35.54378,
    "category": "Island",
    "subcategory": "Island",
    "featured": false,
    "priority": 50
  },
  {
    "geonameId": 1035176,
    "name": "Ilha Muvinges",
    "latitude": -21.1,
    "longitude": 35.06667,
    "category": "Island",
    "subcategory": "Island",
    "featured": false,
    "priority": 50
  },
  {
    "geonameId": 1035086,
    "name": "Ilha Nabzulo",
    "latitude": -16.70556,
    "longitude": 34.28722,
    "category": "Island",
    "subcategory": "Island",
    "featured": false,
    "priority": 50
  },
  {
    "geonameId": 1088820,
    "name": "Ilha Namanf",
    "latitude": -14.10944,
    "longitude": 40.62444,
    "category": "Island",
    "subcategory": "Island",
    "featured": false,
    "priority": 50
  },
  {
    "geonameId": 1033082,
    "name": "Ilha Nanguco",
    "latitude": -11.53333,
    "longitude": 37.75,
    "category": "Island",
    "subcategory": "Island",
    "featured": false,
    "priority": 50
  },
  {
    "geonameId": 1032343,
    "name": "Ilha Naxipopopo",
    "latitude": -14.55,
    "longitude": 40.83333,
    "category": "Island",
    "subcategory": "Island",
    "featured": false,
    "priority": 50
  },
  {
    "geonameId": 1032188,
    "name": "Ilha Nejovo",
    "latitude": -16.55861,
    "longitude": 39.80778,
    "category": "Island",
    "subcategory": "Island",
    "featured": false,
    "priority": 50
  },
  {
    "geonameId": 1032003,
    "name": "Ilha Nhaadjire",
    "latitude": -16.68694,
    "longitude": 33.06417,
    "category": "Island",
    "subcategory": "Island",
    "featured": false,
    "priority": 50
  },
  {
    "geonameId": 1031877,
    "name": "Ilha Nhacarâmbue",
    "latitude": -16.83278,
    "longitude": 34.57583,
    "category": "Island",
    "subcategory": "Island",
    "featured": false,
    "priority": 50
  },
  {
    "geonameId": 1031869,
    "name": "Ilha Nhacassango",
    "latitude": -16.24333,
    "longitude": 33.66278,
    "category": "Island",
    "subcategory": "Island",
    "featured": false,
    "priority": 50
  },
  {
    "geonameId": 1031837,
    "name": "Ilha Nhachecamba",
    "latitude": -20.52861,
    "longitude": 34.73139,
    "category": "Island",
    "subcategory": "Island",
    "featured": false,
    "priority": 50
  },
  {
    "geonameId": 1031784,
    "name": "Ilha Nhacoro",
    "latitude": -16.97222,
    "longitude": 34.82139,
    "category": "Island",
    "subcategory": "Island",
    "featured": false,
    "priority": 50
  },
  {
    "geonameId": 1031535,
    "name": "Ilha Nhamacosa",
    "latitude": -16.71806,
    "longitude": 34.33083,
    "category": "Island",
    "subcategory": "Island",
    "featured": false,
    "priority": 50
  },
  {
    "geonameId": 1031306,
    "name": "Ilha Nhamatanga",
    "latitude": -17.21667,
    "longitude": 34.95,
    "category": "Island",
    "subcategory": "Island",
    "featured": false,
    "priority": 50
  },
  {
    "geonameId": 1031304,
    "name": "Ilha Nhamatarara",
    "latitude": -19.10778,
    "longitude": 35.70556,
    "category": "Island",
    "subcategory": "Island",
    "featured": false,
    "priority": 50
  },
  {
    "geonameId": 1031287,
    "name": "Ilha Nhamatica",
    "latitude": -17.49333,
    "longitude": 35.09028,
    "category": "Island",
    "subcategory": "Island",
    "featured": false,
    "priority": 50
  },
  {
    "geonameId": 1031205,
    "name": "Ilha Nhambeuá",
    "latitude": -17.08333,
    "longitude": 34.9,
    "category": "Island",
    "subcategory": "Island",
    "featured": false,
    "priority": 50
  },
  {
    "geonameId": 1031182,
    "name": "Ilha Nhambize",
    "latitude": -16.91167,
    "longitude": 34.76889,
    "category": "Island",
    "subcategory": "Island",
    "featured": false,
    "priority": 50
  },
  {
    "geonameId": 1031007,
    "name": "Ilha Nhamisseco",
    "latitude": -17.3825,
    "longitude": 35.03944,
    "category": "Island",
    "subcategory": "Island",
    "featured": false,
    "priority": 50
  },
  {
    "geonameId": 1030992,
    "name": "Ilha Nhamitanda",
    "latitude": -16.70278,
    "longitude": 34.23444,
    "category": "Island",
    "subcategory": "Island",
    "featured": false,
    "priority": 50
  },
  {
    "geonameId": 1030754,
    "name": "Ilha Nhandaze",
    "latitude": -19.02611,
    "longitude": 35.77944,
    "category": "Island",
    "subcategory": "Island",
    "featured": false,
    "priority": 50
  },
  {
    "geonameId": 1030739,
    "name": "Ilha Nhandjali",
    "latitude": -16.88667,
    "longitude": 34.70972,
    "category": "Island",
    "subcategory": "Island",
    "featured": false,
    "priority": 50
  },
  {
    "geonameId": 1030737,
    "name": "Ilha Nhandjuxe",
    "latitude": -16.985,
    "longitude": 34.80833,
    "category": "Island",
    "subcategory": "Island",
    "featured": false,
    "priority": 50
  },
  {
    "geonameId": 1045052,
    "name": "Ilha Nhanduje",
    "latitude": -20.93361,
    "longitude": 35.12778,
    "category": "Island",
    "subcategory": "Island",
    "featured": false,
    "priority": 50
  },
  {
    "geonameId": 1030716,
    "name": "Ilha Nhandundundo",
    "latitude": -17.61194,
    "longitude": 35.14528,
    "category": "Island",
    "subcategory": "Island",
    "featured": false,
    "priority": 50
  },
  {
    "geonameId": 1030681,
    "name": "Ilha Nhangango",
    "latitude": -17.01083,
    "longitude": 34.85111,
    "category": "Island",
    "subcategory": "Island",
    "featured": false,
    "priority": 50
  },
  {
    "geonameId": 1030611,
    "name": "Ilha Nhangumba",
    "latitude": -17.25,
    "longitude": 34.98333,
    "category": "Island",
    "subcategory": "Island",
    "featured": false,
    "priority": 50
  },
  {
    "geonameId": 1030600,
    "name": "Ilha Nhanhe",
    "latitude": -17.70694,
    "longitude": 35.34472,
    "category": "Island",
    "subcategory": "Island",
    "featured": false,
    "priority": 50
  },
  {
    "geonameId": 1030578,
    "name": "Ilha Nhansana",
    "latitude": -16.65472,
    "longitude": 34.17,
    "category": "Island",
    "subcategory": "Island",
    "featured": false,
    "priority": 50
  },
  {
    "geonameId": 1030572,
    "name": "Ilha Nhansate",
    "latitude": -17.17361,
    "longitude": 34.92,
    "category": "Island",
    "subcategory": "Island",
    "featured": false,
    "priority": 50
  },
  {
    "geonameId": 1030566,
    "name": "Ilha Nhanserere",
    "latitude": -17.36972,
    "longitude": 35.0225,
    "category": "Island",
    "subcategory": "Island",
    "featured": false,
    "priority": 50
  },
  {
    "geonameId": 1030490,
    "name": "Ilha Nhanzona",
    "latitude": -17.93389,
    "longitude": 35.48556,
    "category": "Island",
    "subcategory": "Island",
    "featured": false,
    "priority": 50
  },
  {
    "geonameId": 1030274,
    "name": "Ilha Nhatitiri",
    "latitude": -16.93528,
    "longitude": 34.78056,
    "category": "Island",
    "subcategory": "Island",
    "featured": false,
    "priority": 50
  },
  {
    "geonameId": 1029695,
    "name": "Ilha Niuni",
    "latitude": -11.2748,
    "longitude": 40.62684,
    "category": "Island",
    "subcategory": "Island",
    "featured": false,
    "priority": 50
  },
  {
    "geonameId": 1029430,
    "name": "Ilha Olinda",
    "latitude": -18.12583,
    "longitude": 36.90028,
    "category": "Island",
    "subcategory": "Island",
    "featured": false,
    "priority": 50
  },
  {
    "geonameId": 1029230,
    "name": "Ilha Pambane",
    "latitude": -18.67583,
    "longitude": 36.40194,
    "category": "Island",
    "subcategory": "Island",
    "featured": false,
    "priority": 50
  },
  {
    "geonameId": 1028536,
    "name": "Ilha Puga-Puga",
    "latitude": -16.44333,
    "longitude": 39.95083,
    "category": "Island",
    "subcategory": "Island",
    "featured": false,
    "priority": 50
  },
  {
    "geonameId": 1028404,
    "name": "Ilha Queramimbi",
    "latitude": -10.91612,
    "longitude": 40.62542,
    "category": "Island",
    "subcategory": "Island",
    "featured": false,
    "priority": 50
  },
  {
    "geonameId": 1028400,
    "name": "Ilha Quero Niuni",
    "latitude": -11.63866,
    "longitude": 40.56032,
    "category": "Island",
    "subcategory": "Island",
    "featured": false,
    "priority": 50
  },
  {
    "geonameId": 1028377,
    "name": "Ilha Quifula",
    "latitude": -12.0175,
    "longitude": 40.54111,
    "category": "Island",
    "subcategory": "Island",
    "featured": false,
    "priority": 50
  },
  {
    "geonameId": 1028376,
    "name": "Ilha Quifuqui",
    "latitude": -11.18833,
    "longitude": 40.61472,
    "category": "Island",
    "subcategory": "Island",
    "featured": false,
    "priority": 50
  },
  {
    "geonameId": 1028373,
    "name": "Ilha Quilaluia",
    "latitude": -12.49306,
    "longitude": 40.60722,
    "category": "Island",
    "subcategory": "Island",
    "featured": false,
    "priority": 50
  },
  {
    "geonameId": 1095385,
    "name": "Ilha Quilua",
    "latitude": -16.34583,
    "longitude": 39.85639,
    "category": "Island",
    "subcategory": "Island",
    "featured": false,
    "priority": 50
  },
  {
    "geonameId": 1028340,
    "name": "Ilha Quipaco",
    "latitude": -12.68194,
    "longitude": 40.61333,
    "category": "Island",
    "subcategory": "Island",
    "featured": false,
    "priority": 50
  },
  {
    "geonameId": 1028330,
    "name": "Ilha Quirimba",
    "latitude": -12.42639,
    "longitude": 40.60694,
    "category": "Island",
    "subcategory": "Island",
    "featured": false,
    "priority": 50
  },
  {
    "geonameId": 1028320,
    "name": "Ilha Quisiva",
    "latitude": -12.59972,
    "longitude": 40.61556,
    "category": "Island",
    "subcategory": "Island",
    "featured": false,
    "priority": 50
  },
  {
    "geonameId": 1028314,
    "name": "Ilha Quissanga",
    "latitude": -11.82335,
    "longitude": 40.56534,
    "category": "Island",
    "subcategory": "Island",
    "featured": false,
    "priority": 50
  },
  {
    "geonameId": 1028289,
    "name": "Ilha Quisungo",
    "latitude": -17.28333,
    "longitude": 38.05,
    "category": "Island",
    "subcategory": "Island",
    "featured": false,
    "priority": 50
  },
  {
    "geonameId": 1028288,
    "name": "Ilha Quisungura",
    "latitude": -11.1625,
    "longitude": 40.61028,
    "category": "Island",
    "subcategory": "Island",
    "featured": false,
    "priority": 50
  },
  {
    "geonameId": 1044768,
    "name": "Ilha Quitangonha",
    "latitude": -14.86306,
    "longitude": 40.8275,
    "category": "Island",
    "subcategory": "Island",
    "featured": false,
    "priority": 50
  },
  {
    "geonameId": 1027945,
    "name": "Ilha Rongui",
    "latitude": -10.8543,
    "longitude": 40.66186,
    "category": "Island",
    "subcategory": "Island",
    "featured": false,
    "priority": 50
  },
  {
    "geonameId": 1027594,
    "name": "Ilha Salia",
    "latitude": -18.61861,
    "longitude": 36.17917,
    "category": "Island",
    "subcategory": "Island",
    "featured": false,
    "priority": 50
  },
  {
    "geonameId": 1027372,
    "name": "Ilha Sangueze",
    "latitude": -19.09833,
    "longitude": 35.72167,
    "category": "Island",
    "subcategory": "Island",
    "featured": false,
    "priority": 50
  },
  {
    "geonameId": 1027368,
    "name": "Ilha Sanguimbe",
    "latitude": -17.98972,
    "longitude": 35.53611,
    "category": "Island",
    "subcategory": "Island",
    "featured": false,
    "priority": 50
  },
  {
    "geonameId": 1027367,
    "name": "Ilha Sanguiza",
    "latitude": -17.86167,
    "longitude": 35.42278,
    "category": "Island",
    "subcategory": "Island",
    "featured": false,
    "priority": 50
  },
  {
    "geonameId": 1027338,
    "name": "Ilha Santa Carolina",
    "latitude": -21.61556,
    "longitude": 35.34111,
    "category": "Island",
    "subcategory": "Island",
    "featured": false,
    "priority": 50
  },
  {
    "geonameId": 1027073,
    "name": "Ilha Sengar",
    "latitude": -12.48028,
    "longitude": 40.635,
    "category": "Island",
    "subcategory": "Island",
    "featured": false,
    "priority": 50
  },
  {
    "geonameId": 1027033,
    "name": "Ilha Sete Paus",
    "latitude": -14.98167,
    "longitude": 40.80111,
    "category": "Island",
    "subcategory": "Island",
    "featured": false,
    "priority": 50
  },
  {
    "geonameId": 1105539,
    "name": "Ilha Sichalo",
    "latitude": -25.01222,
    "longitude": 32.93056,
    "category": "Island",
    "subcategory": "Island",
    "featured": false,
    "priority": 50
  },
  {
    "geonameId": 1026945,
    "name": "Ilha Silva",
    "latitude": -17.27306,
    "longitude": 38.79361,
    "category": "Island",
    "subcategory": "Island",
    "featured": false,
    "priority": 50
  },
  {
    "geonameId": 1026791,
    "name": "Ilha Solimane",
    "latitude": -18.54806,
    "longitude": 36.41361,
    "category": "Island",
    "subcategory": "Island",
    "featured": false,
    "priority": 50
  },
  {
    "geonameId": 1026768,
    "name": "Ilha Sombreiro",
    "latitude": -14.89472,
    "longitude": 40.78611,
    "category": "Island",
    "subcategory": "Island",
    "featured": false,
    "priority": 50
  },
  {
    "geonameId": 1026694,
    "name": "Ilha Suafo",
    "latitude": -10.53333,
    "longitude": 40.53333,
    "category": "Island",
    "subcategory": "Island",
    "featured": false,
    "priority": 50
  },
  {
    "geonameId": 1026620,
    "name": "Ilha Suna",
    "latitude": -11.31234,
    "longitude": 40.58126,
    "category": "Island",
    "subcategory": "Island",
    "featured": false,
    "priority": 50
  },
  {
    "geonameId": 1026598,
    "name": "Ilha Suo",
    "latitude": -14.55,
    "longitude": 35.9,
    "category": "Island",
    "subcategory": "Island",
    "featured": false,
    "priority": 50
  },
  {
    "geonameId": 1026445,
    "name": "Ilha Tambuzi",
    "latitude": -11.36914,
    "longitude": 40.63989,
    "category": "Island",
    "subcategory": "Island",
    "featured": false,
    "priority": 50
  },
  {
    "geonameId": 1026184,
    "name": "Ilha Tebo",
    "latitude": -14.08722,
    "longitude": 40.64306,
    "category": "Island",
    "subcategory": "Island",
    "featured": false,
    "priority": 50
  },
  {
    "geonameId": 1026139,
    "name": "Ilha Tecomaji",
    "latitude": -10.77716,
    "longitude": 40.64909,
    "category": "Island",
    "subcategory": "Island",
    "featured": false,
    "priority": 50
  },
  {
    "geonameId": 1025948,
    "name": "Ilha Timbué",
    "latitude": -18.81861,
    "longitude": 36.30611,
    "category": "Island",
    "subcategory": "Island",
    "featured": false,
    "priority": 50
  },
  {
    "geonameId": 1024885,
    "name": "Ilha Utanhe",
    "latitude": -19.78833,
    "longitude": 34.80472,
    "category": "Island",
    "subcategory": "Island",
    "featured": false,
    "priority": 50
  },
  {
    "geonameId": 1024821,
    "name": "Ilha Vamizi",
    "latitude": -11.02924,
    "longitude": 40.66684,
    "category": "Island",
    "subcategory": "Island",
    "featured": false,
    "priority": 50
  },
  {
    "geonameId": 1024601,
    "name": "Ilha Vumba",
    "latitude": -11.13028,
    "longitude": 40.60528,
    "category": "Island",
    "subcategory": "Island",
    "featured": false,
    "priority": 50
  },
  {
    "geonameId": 1024508,
    "name": "Ilha Xefina do Meio",
    "latitude": -25.875,
    "longitude": 32.72528,
    "category": "Island",
    "subcategory": "Island",
    "featured": false,
    "priority": 50
  },
  {
    "geonameId": 1024507,
    "name": "Ilha Xefina Grande",
    "latitude": -25.92686,
    "longitude": 32.68518,
    "category": "Island",
    "subcategory": "Island",
    "featured": false,
    "priority": 50
  },
  {
    "geonameId": 1024506,
    "name": "Ilha Xefina Pequena",
    "latitude": -25.83917,
    "longitude": 32.71611,
    "category": "Island",
    "subcategory": "Island",
    "featured": false,
    "priority": 50
  },
  {
    "geonameId": 1024061,
    "name": "Ilha Zunda",
    "latitude": -11.37139,
    "longitude": 37.82444,
    "category": "Island",
    "subcategory": "Island",
    "featured": false,
    "priority": 50
  },
  {
    "geonameId": 1052942,
    "name": "Ilhas de Angoche",
    "latitude": -16.54806,
    "longitude": 39.81944,
    "category": "Island",
    "subcategory": "Island Group",
    "featured": false,
    "priority": 50
  },
  {
    "geonameId": 1028565,
    "name": "Ilhas Primeiras",
    "latitude": -17.21667,
    "longitude": 39.13333,
    "category": "Island",
    "subcategory": "Island Group",
    "featured": false,
    "priority": 50
  },
  {
    "geonameId": 1028329,
    "name": "Ilhas Quirimba",
    "latitude": -12.25,
    "longitude": 40.66667,
    "category": "Island",
    "subcategory": "Island Group",
    "featured": false,
    "priority": 50
  },
  {
    "geonameId": 1027288,
    "name": "Ilhéu de São Lourenço",
    "latitude": -15.03333,
    "longitude": 40.71667,
    "category": "Island",
    "subcategory": "Island",
    "featured": false,
    "priority": 50
  },
  {
    "geonameId": 1028297,
    "name": "Ilhéu Quissindja",
    "latitude": -14,
    "longitude": 40.6,
    "category": "Island",
    "subcategory": "Island",
    "featured": false,
    "priority": 50
  },
  {
    "geonameId": 1044901,
    "name": "Impoyi",
    "latitude": -26.51667,
    "longitude": 32.15,
    "category": "Mountain",
    "subcategory": "Mountain",
    "featured": false,
    "priority": 50
  },
  {
    "geonameId": 1092891,
    "name": "Inhakakari",
    "latitude": -16.29083,
    "longitude": 33.00083,
    "category": "Mountain",
    "subcategory": "Mountain",
    "featured": false,
    "priority": 50
  },
  {
    "geonameId": 1045114,
    "name": "Inhambane",
    "latitude": -23.865,
    "longitude": 35.38333,
    "category": "City",
    "subcategory": "Regional Capital",
    "featured": false,
    "priority": 50
  },
  {
    "geonameId": 1045105,
    "name": "Inhambuteze",
    "latitude": -24.08806,
    "longitude": 35.02556,
    "category": "Lake",
    "subcategory": "Lake",
    "featured": false,
    "priority": 50
  },
  {
    "geonameId": 1045088,
    "name": "Inhaminga",
    "latitude": -18.41528,
    "longitude": 35.0225,
    "category": "City",
    "subcategory": "City",
    "featured": false,
    "priority": 50
  },
  {
    "geonameId": 1045007,
    "name": "Inharrime",
    "latitude": -24.47694,
    "longitude": 35.03028,
    "category": "City",
    "subcategory": "City",
    "featured": false,
    "priority": 50
  },
  {
    "geonameId": 1044995,
    "name": "Inhassoro",
    "latitude": -21.53472,
    "longitude": 35.20222,
    "category": "City",
    "subcategory": "City",
    "featured": false,
    "priority": 50
  },
  {
    "geonameId": 1093014,
    "name": "Inrule",
    "latitude": -15.95667,
    "longitude": 38.29667,
    "category": "Mountain",
    "subcategory": "Mountain",
    "featured": false,
    "priority": 50
  },
  {
    "geonameId": 12718695,
    "name": "Insaca",
    "latitude": -15.19783,
    "longitude": 35.87091,
    "category": "City",
    "subcategory": "City",
    "featured": false,
    "priority": 50
  },
  {
    "geonameId": 1044915,
    "name": "Iocolo",
    "latitude": -13.21083,
    "longitude": 40.12972,
    "category": "Mountain",
    "subcategory": "Mountain",
    "featured": false,
    "priority": 50
  },
  {
    "geonameId": 1098026,
    "name": "Jamacombo",
    "latitude": -23.75333,
    "longitude": 32.88056,
    "category": "Lake",
    "subcategory": "Lake",
    "featured": false,
    "priority": 50
  },
  {
    "geonameId": 1050715,
    "name": "Kabvalanthenga",
    "latitude": -16.99278,
    "longitude": 35.06333,
    "category": "Mountain",
    "subcategory": "Mountain",
    "featured": false,
    "priority": 50
  },
  {
    "geonameId": 992947,
    "name": "Kaliquoqua",
    "latitude": -25.71667,
    "longitude": 31.96667,
    "category": "Mountain",
    "subcategory": "Mountain",
    "featured": false,
    "priority": 50
  },
  {
    "geonameId": 1044186,
    "name": "Kambironjo",
    "latitude": -14.93333,
    "longitude": 34.58333,
    "category": "Mountain",
    "subcategory": "Mountain",
    "featured": false,
    "priority": 50
  },
  {
    "geonameId": 1051029,
    "name": "Karera",
    "latitude": -17.08333,
    "longitude": 32.95,
    "category": "Mountain",
    "subcategory": "Mountain",
    "featured": false,
    "priority": 50
  },
  {
    "geonameId": 1049990,
    "name": "Katemere",
    "latitude": -16.53333,
    "longitude": 32.56667,
    "category": "Mountain",
    "subcategory": "Mountain",
    "featured": false,
    "priority": 50
  },
  {
    "geonameId": 1044173,
    "name": "Krogh",
    "latitude": -26.16064,
    "longitude": 32.10445,
    "category": "Mountain",
    "subcategory": "Mountain",
    "featured": false,
    "priority": 50
  },
  {
    "geonameId": 986043,
    "name": "Kuzilonde",
    "latitude": -26.86667,
    "longitude": 32.86667,
    "category": "Lake",
    "subcategory": "Lake",
    "featured": false,
    "priority": 50
  },
  {
    "geonameId": 1102406,
    "name": "L. Chitsalane",
    "latitude": -23.42861,
    "longitude": 35.39667,
    "category": "Lake",
    "subcategory": "Lake",
    "featured": false,
    "priority": 50
  },
  {
    "geonameId": 1102748,
    "name": "L. Nhamusse",
    "latitude": -23.64111,
    "longitude": 35.07278,
    "category": "Lake",
    "subcategory": "Lake",
    "featured": false,
    "priority": 50
  },
  {
    "geonameId": 1103884,
    "name": "Lafgo Fuane",
    "latitude": -24.44083,
    "longitude": 32.24917,
    "category": "Lake",
    "subcategory": "Lake",
    "featured": false,
    "priority": 50
  },
  {
    "geonameId": 1103414,
    "name": "Lago Alarine",
    "latitude": -23.85944,
    "longitude": 35.47861,
    "category": "Lake",
    "subcategory": "Lake",
    "featured": false,
    "priority": 50
  },
  {
    "geonameId": 1053087,
    "name": "Lago Amaramba",
    "latitude": -14.5,
    "longitude": 35.91667,
    "category": "Lake",
    "subcategory": "Lake",
    "featured": false,
    "priority": 50
  },
  {
    "geonameId": 1053077,
    "name": "Lago Ambiti",
    "latitude": -14.80111,
    "longitude": 40.79139,
    "category": "Lake",
    "subcategory": "Lake",
    "featured": false,
    "priority": 50
  },
  {
    "geonameId": 1052947,
    "name": "Lago Angalala",
    "latitude": -10.86667,
    "longitude": 40.23333,
    "category": "Lake",
    "subcategory": "Lake",
    "featured": false,
    "priority": 50
  },
  {
    "geonameId": 1052935,
    "name": "Lago Anguamite",
    "latitude": -20.75111,
    "longitude": 34.42278,
    "category": "Lake",
    "subcategory": "Lake",
    "featured": false,
    "priority": 50
  },
  {
    "geonameId": 1052929,
    "name": "Lago Anhane",
    "latitude": -23.5225,
    "longitude": 33.26028,
    "category": "Lake",
    "subcategory": "Lake",
    "featured": false,
    "priority": 50
  },
  {
    "geonameId": 1103001,
    "name": "Lago Ape",
    "latitude": -23.57639,
    "longitude": 34.36861,
    "category": "Lake",
    "subcategory": "Lake",
    "featured": false,
    "priority": 50
  },
  {
    "geonameId": 1101074,
    "name": "Lago Aracane",
    "latitude": -22.50028,
    "longitude": 35.46028,
    "category": "Lake",
    "subcategory": "Lake",
    "featured": false,
    "priority": 50
  },
  {
    "geonameId": 1052807,
    "name": "Lago Arivangue",
    "latitude": -24.98,
    "longitude": 33.00611,
    "category": "Lake",
    "subcategory": "Lake",
    "featured": false,
    "priority": 50
  },
  {
    "geonameId": 1052719,
    "name": "Lago Atondoa",
    "latitude": -10.75972,
    "longitude": 40.1675,
    "category": "Lake",
    "subcategory": "Lake",
    "featured": false,
    "priority": 50
  },
  {
    "geonameId": 1099043,
    "name": "Lago Azungunzungo",
    "latitude": -22.32556,
    "longitude": 32.96194,
    "category": "Lake",
    "subcategory": "Lake",
    "featured": false,
    "priority": 50
  },
  {
    "geonameId": 1052676,
    "name": "Lago Babalala",
    "latitude": -25.29722,
    "longitude": 32.37361,
    "category": "Lake",
    "subcategory": "Lake",
    "featured": false,
    "priority": 50
  },
  {
    "geonameId": 1089845,
    "name": "Lago Babatilene",
    "latitude": -26.2725,
    "longitude": 32.78056,
    "category": "Lake",
    "subcategory": "Lake",
    "featured": false,
    "priority": 50
  },
  {
    "geonameId": 1052653,
    "name": "Lago Baco",
    "latitude": -21.18806,
    "longitude": 33.99472,
    "category": "Lake",
    "subcategory": "Lake",
    "featured": false,
    "priority": 50
  },
  {
    "geonameId": 1052627,
    "name": "Lago Baladezivo",
    "latitude": -23.53278,
    "longitude": 32.91361,
    "category": "Lake",
    "subcategory": "Lake",
    "featured": false,
    "priority": 50
  },
  {
    "geonameId": 1100389,
    "name": "Lago Balaja",
    "latitude": -21.07389,
    "longitude": 34.11222,
    "category": "Lake",
    "subcategory": "Lake",
    "featured": false,
    "priority": 50
  },
  {
    "geonameId": 1097860,
    "name": "Lago Balala",
    "latitude": -24.44694,
    "longitude": 34.07222,
    "category": "Lake",
    "subcategory": "Lake",
    "featured": false,
    "priority": 50
  },
  {
    "geonameId": 1098043,
    "name": "Lago Balalene",
    "latitude": -24.68667,
    "longitude": 33.69028,
    "category": "Lake",
    "subcategory": "Lake",
    "featured": false,
    "priority": 50
  },
  {
    "geonameId": 1052616,
    "name": "Lago Balango",
    "latitude": -23.97056,
    "longitude": 34.3375,
    "category": "Lake",
    "subcategory": "Lake",
    "featured": false,
    "priority": 50
  },
  {
    "geonameId": 1098690,
    "name": "Lago Balavale",
    "latitude": -24.85028,
    "longitude": 33.1,
    "category": "Lake",
    "subcategory": "Lake",
    "featured": false,
    "priority": 50
  },
  {
    "geonameId": 1052606,
    "name": "Lago Bale",
    "latitude": -21.98611,
    "longitude": 33.29167,
    "category": "Lake",
    "subcategory": "Lake",
    "featured": false,
    "priority": 50
  },
  {
    "geonameId": 1103019,
    "name": "Lago Balela",
    "latitude": -23.07472,
    "longitude": 34.31694,
    "category": "Lake",
    "subcategory": "Lake",
    "featured": false,
    "priority": 50
  },
  {
    "geonameId": 1104638,
    "name": "Lago Balene",
    "latitude": -22.55556,
    "longitude": 34.76556,
    "category": "Lake",
    "subcategory": "Lake",
    "featured": false,
    "priority": 50
  },
  {
    "geonameId": 1052603,
    "name": "Lago Baligua",
    "latitude": -22.73167,
    "longitude": 32.48278,
    "category": "Lake",
    "subcategory": "Lake",
    "featured": false,
    "priority": 50
  },
  {
    "geonameId": 1052566,
    "name": "Lago Banamana",
    "latitude": -22.15111,
    "longitude": 33.9125,
    "category": "Lake",
    "subcategory": "Lake",
    "featured": false,
    "priority": 50
  },
  {
    "geonameId": 1100022,
    "name": "Lago Banamane",
    "latitude": -22.77833,
    "longitude": 32.05528,
    "category": "Lake",
    "subcategory": "Lake",
    "featured": false,
    "priority": 50
  },
  {
    "geonameId": 1052562,
    "name": "Lago Bananhana",
    "latitude": -25.06667,
    "longitude": 32.83333,
    "category": "Lake",
    "subcategory": "Lake",
    "featured": false,
    "priority": 50
  },
  {
    "geonameId": 1097014,
    "name": "Lago Bandazira",
    "latitude": -24.35944,
    "longitude": 33.01056,
    "category": "Lake",
    "subcategory": "Lake",
    "featured": false,
    "priority": 50
  },
  {
    "geonameId": 1097757,
    "name": "Lago Bande",
    "latitude": -24.51944,
    "longitude": 33.83583,
    "category": "Lake",
    "subcategory": "Lake",
    "featured": false,
    "priority": 50
  },
  {
    "geonameId": 1100326,
    "name": "Lago Bane",
    "latitude": -22.14861,
    "longitude": 35.45306,
    "category": "Lake",
    "subcategory": "Lake",
    "featured": false,
    "priority": 50
  },
  {
    "geonameId": 1097115,
    "name": "Lago Banga",
    "latitude": -23.06889,
    "longitude": 31.91167,
    "category": "Lake",
    "subcategory": "Lake",
    "featured": false,
    "priority": 50
  },
  {
    "geonameId": 1099819,
    "name": "Lago Bangoene",
    "latitude": -22.7575,
    "longitude": 33.27917,
    "category": "Lake",
    "subcategory": "Lake",
    "featured": false,
    "priority": 50
  },
  {
    "geonameId": 1098887,
    "name": "Lago Bangotsi",
    "latitude": -22.13639,
    "longitude": 32.62333,
    "category": "Lake",
    "subcategory": "Lake",
    "featured": false,
    "priority": 50
  },
  {
    "geonameId": 1052509,
    "name": "Lago Bangua",
    "latitude": -21.33056,
    "longitude": 33.91806,
    "category": "Lake",
    "subcategory": "Lake",
    "featured": false,
    "priority": 50
  },
  {
    "geonameId": 1097474,
    "name": "Lago Bangula",
    "latitude": -23.22389,
    "longitude": 32.55444,
    "category": "Lake",
    "subcategory": "Lake",
    "featured": false,
    "priority": 50
  },
  {
    "geonameId": 1052484,
    "name": "Lago Banzau",
    "latitude": -22.68306,
    "longitude": 32.53,
    "category": "Lake",
    "subcategory": "Lake",
    "featured": false,
    "priority": 50
  },
  {
    "geonameId": 1101714,
    "name": "Lago Banzuanine",
    "latitude": -21.67361,
    "longitude": 34.02222,
    "category": "Lake",
    "subcategory": "Lake",
    "featured": false,
    "priority": 50
  },
  {
    "geonameId": 1101715,
    "name": "Lago Banzuine",
    "latitude": -21.67778,
    "longitude": 34.01667,
    "category": "Lake",
    "subcategory": "Lake",
    "featured": false,
    "priority": 50
  },
  {
    "geonameId": 1098212,
    "name": "Lago Baquine",
    "latitude": -24.74056,
    "longitude": 33.15528,
    "category": "Lake",
    "subcategory": "Lake",
    "featured": false,
    "priority": 50
  },
  {
    "geonameId": 1052471,
    "name": "Lago Baranja",
    "latitude": -20.61667,
    "longitude": 34.8,
    "category": "Lake",
    "subcategory": "Lake",
    "featured": false,
    "priority": 50
  },
  {
    "geonameId": 1052442,
    "name": "Lago Bassanhe",
    "latitude": -22.24389,
    "longitude": 33.5075,
    "category": "Lake",
    "subcategory": "Lake",
    "featured": false,
    "priority": 50
  },
  {
    "geonameId": 1098688,
    "name": "Lago Batine",
    "latitude": -24.84111,
    "longitude": 33.09722,
    "category": "Lake",
    "subcategory": "Lake",
    "featured": false,
    "priority": 50
  },
  {
    "geonameId": 1052414,
    "name": "Lago Bauala",
    "latitude": -11.11222,
    "longitude": 40.12944,
    "category": "Lake",
    "subcategory": "Lake",
    "featured": false,
    "priority": 50
  },
  {
    "geonameId": 1099851,
    "name": "Lago Bauchau",
    "latitude": -22.65306,
    "longitude": 32.53528,
    "category": "Lake",
    "subcategory": "Lake",
    "featured": false,
    "priority": 50
  },
  {
    "geonameId": 1099899,
    "name": "Lago Bavave",
    "latitude": -22.77833,
    "longitude": 33.56222,
    "category": "Lake",
    "subcategory": "Lake",
    "featured": false,
    "priority": 50
  },
  {
    "geonameId": 1052392,
    "name": "Lago Baxavane",
    "latitude": -24.36,
    "longitude": 34.2275,
    "category": "Lake",
    "subcategory": "Lake",
    "featured": false,
    "priority": 50
  },
  {
    "geonameId": 1102590,
    "name": "Lago Bebene",
    "latitude": -22.79806,
    "longitude": 34.1875,
    "category": "Lake",
    "subcategory": "Lake",
    "featured": false,
    "priority": 50
  },
  {
    "geonameId": 1103369,
    "name": "Lago Becane",
    "latitude": -21.88889,
    "longitude": 34.43833,
    "category": "Lake",
    "subcategory": "Lake",
    "featured": false,
    "priority": 50
  },
  {
    "geonameId": 1099090,
    "name": "Lago Bemululu",
    "latitude": -22.36667,
    "longitude": 33.40194,
    "category": "Lake",
    "subcategory": "Lake",
    "featured": false,
    "priority": 50
  },
  {
    "geonameId": 1089867,
    "name": "Lago Benego",
    "latitude": -26.195,
    "longitude": 32.36222,
    "category": "Lake",
    "subcategory": "Lake",
    "featured": false,
    "priority": 50
  },
  {
    "geonameId": 1105671,
    "name": "Lago Bengalanine",
    "latitude": -25.445,
    "longitude": 32.60083,
    "category": "Lake",
    "subcategory": "Lake",
    "featured": false,
    "priority": 50
  },
  {
    "geonameId": 1104224,
    "name": "Lago Bengo",
    "latitude": -23.70083,
    "longitude": 33.13611,
    "category": "Lake",
    "subcategory": "Lake",
    "featured": false,
    "priority": 50
  },
  {
    "geonameId": 1051889,
    "name": "Lago Benguane",
    "latitude": -21.28278,
    "longitude": 34.43889,
    "category": "Lake",
    "subcategory": "Lake",
    "featured": false,
    "priority": 50
  },
  {
    "geonameId": 1051891,
    "name": "Lago Bengue",
    "latitude": -21.29306,
    "longitude": 34.4425,
    "category": "Lake",
    "subcategory": "Lake",
    "featured": false,
    "priority": 50
  },
  {
    "geonameId": 1104622,
    "name": "Lago Beningo",
    "latitude": -24.19611,
    "longitude": 32.99528,
    "category": "Lake",
    "subcategory": "Lake",
    "featured": false,
    "priority": 50
  },
  {
    "geonameId": 1052323,
    "name": "Lago Beniningo",
    "latitude": -24.34861,
    "longitude": 32.96556,
    "category": "Lake",
    "subcategory": "Lake",
    "featured": false,
    "priority": 50
  },
  {
    "geonameId": 1099767,
    "name": "Lago Benzane",
    "latitude": -24.96944,
    "longitude": 33.61611,
    "category": "Lake",
    "subcategory": "Lake",
    "featured": false,
    "priority": 50
  },
  {
    "geonameId": 1052311,
    "name": "Lago Benzele",
    "latitude": -22.005,
    "longitude": 33.81833,
    "category": "Lake",
    "subcategory": "Lake",
    "featured": false,
    "priority": 50
  },
  {
    "geonameId": 1052309,
    "name": "Lago Bepo",
    "latitude": -20.52,
    "longitude": 33.66139,
    "category": "Lake",
    "subcategory": "Lake",
    "featured": false,
    "priority": 50
  },
  {
    "geonameId": 1052283,
    "name": "Lago Beze",
    "latitude": -21.20194,
    "longitude": 34.61278,
    "category": "Lake",
    "subcategory": "Lake",
    "featured": false,
    "priority": 50
  },
  {
    "geonameId": 1052281,
    "name": "Lago Biane",
    "latitude": -22.04389,
    "longitude": 34.13694,
    "category": "Lake",
    "subcategory": "Lake",
    "featured": false,
    "priority": 50
  },
  {
    "geonameId": 1052276,
    "name": "Lago Bida",
    "latitude": -10.67222,
    "longitude": 40.25389,
    "category": "Lake",
    "subcategory": "Lake",
    "featured": false,
    "priority": 50
  },
  {
    "geonameId": 1052274,
    "name": "Lago Bidimbe",
    "latitude": -11.21472,
    "longitude": 40.12222,
    "category": "Lake",
    "subcategory": "Lake",
    "featured": false,
    "priority": 50
  },
  {
    "geonameId": 1098681,
    "name": "Lago Bila",
    "latitude": -23.82333,
    "longitude": 32.24389,
    "category": "Lake",
    "subcategory": "Lake",
    "featured": false,
    "priority": 50
  },
  {
    "geonameId": 1105117,
    "name": "Lago Bilanguane",
    "latitude": -24.03861,
    "longitude": 32.72694,
    "category": "Lake",
    "subcategory": "Lake",
    "featured": false,
    "priority": 50
  },
  {
    "geonameId": 1105115,
    "name": "Lago Bilanguene",
    "latitude": -24.01361,
    "longitude": 32.72361,
    "category": "Lake",
    "subcategory": "Lake",
    "featured": false,
    "priority": 50
  },
  {
    "geonameId": 1103578,
    "name": "Lago Biluíne",
    "latitude": -24.57639,
    "longitude": 32.82389,
    "category": "Lake",
    "subcategory": "Lake",
    "featured": false,
    "priority": 50
  },
  {
    "geonameId": 1097239,
    "name": "Lago Bimbine",
    "latitude": -24.45833,
    "longitude": 33.10278,
    "category": "Lake",
    "subcategory": "Lake",
    "featured": false,
    "priority": 50
  },
  {
    "geonameId": 1026843,
    "name": "Lago Bissane",
    "latitude": -21.92222,
    "longitude": 34.78111,
    "category": "Lake",
    "subcategory": "Lake",
    "featured": false,
    "priority": 50
  },
  {
    "geonameId": 1052169,
    "name": "Lago Bocana",
    "latitude": -24.33944,
    "longitude": 32.36167,
    "category": "Lake",
    "subcategory": "Lake",
    "featured": false,
    "priority": 50
  },
  {
    "geonameId": 1052153,
    "name": "Lago Boene",
    "latitude": -21.81694,
    "longitude": 33.87361,
    "category": "Lake",
    "subcategory": "Lake",
    "featured": false,
    "priority": 50
  },
  {
    "geonameId": 1052146,
    "name": "Lago Bofine",
    "latitude": -22.52333,
    "longitude": 35.45528,
    "category": "Lake",
    "subcategory": "Lake",
    "featured": false,
    "priority": 50
  },
  {
    "geonameId": 1103885,
    "name": "Lago Bole",
    "latitude": -24.44111,
    "longitude": 32.2825,
    "category": "Lake",
    "subcategory": "Lake",
    "featured": false,
    "priority": 50
  },
  {
    "geonameId": 1052130,
    "name": "Lago Bolitilile",
    "latitude": -21.71667,
    "longitude": 34.43333,
    "category": "Lake",
    "subcategory": "Lake",
    "featured": false,
    "priority": 50
  },
  {
    "geonameId": 1100498,
    "name": "Lago Bomboane",
    "latitude": -21.19917,
    "longitude": 34.03694,
    "category": "Lake",
    "subcategory": "Lake",
    "featured": false,
    "priority": 50
  },
  {
    "geonameId": 1103666,
    "name": "Lago Bomopomo",
    "latitude": -21.85611,
    "longitude": 35.44972,
    "category": "Lake",
    "subcategory": "Lake",
    "featured": false,
    "priority": 50
  },
  {
    "geonameId": 1052100,
    "name": "Lago Bona",
    "latitude": -21.81167,
    "longitude": 34.19361,
    "category": "Lake",
    "subcategory": "Lake",
    "featured": false,
    "priority": 50
  },
  {
    "geonameId": 1103776,
    "name": "Lago Bonanuale",
    "latitude": -21.18972,
    "longitude": 34.85944,
    "category": "Lake",
    "subcategory": "Lake",
    "featured": false,
    "priority": 50
  },
  {
    "geonameId": 1101405,
    "name": "Lago Bonfine",
    "latitude": -23.09889,
    "longitude": 35.50167,
    "category": "Lake",
    "subcategory": "Lake",
    "featured": false,
    "priority": 50
  },
  {
    "geonameId": 1052074,
    "name": "Lago Bongodeziva",
    "latitude": -23.41,
    "longitude": 33.03694,
    "category": "Lake",
    "subcategory": "Lake",
    "featured": false,
    "priority": 50
  },
  {
    "geonameId": 1052070,
    "name": "Lago Bongosiva",
    "latitude": -22.59917,
    "longitude": 32.58806,
    "category": "Lake",
    "subcategory": "Lake",
    "featured": false,
    "priority": 50
  },
  {
    "geonameId": 1104463,
    "name": "Lago Bongoziva",
    "latitude": -23.66194,
    "longitude": 33.1175,
    "category": "Lake",
    "subcategory": "Lake",
    "featured": false,
    "priority": 50
  },
  {
    "geonameId": 1052068,
    "name": "Lago Bonguane",
    "latitude": -21.29583,
    "longitude": 33.98361,
    "category": "Lake",
    "subcategory": "Lake",
    "featured": false,
    "priority": 50
  },
  {
    "geonameId": 1103334,
    "name": "Lago Bongue",
    "latitude": -23.70111,
    "longitude": 34.22778,
    "category": "Lake",
    "subcategory": "Lake",
    "featured": false,
    "priority": 50
  },
  {
    "geonameId": 1097388,
    "name": "Lago Bonguene",
    "latitude": -23.11611,
    "longitude": 32.07472,
    "category": "Lake",
    "subcategory": "Lake",
    "featured": false,
    "priority": 50
  },
  {
    "geonameId": 1104017,
    "name": "Lago Bonvane",
    "latitude": -21.25167,
    "longitude": 34.68722,
    "category": "Lake",
    "subcategory": "Lake",
    "featured": false,
    "priority": 50
  },
  {
    "geonameId": 1102730,
    "name": "Lago Bonzane",
    "latitude": -23.60611,
    "longitude": 35.19889,
    "category": "Lake",
    "subcategory": "Lake",
    "featured": false,
    "priority": 50
  },
  {
    "geonameId": 1103041,
    "name": "Lago Bonzuana",
    "latitude": -21.91972,
    "longitude": 34.10944,
    "category": "Lake",
    "subcategory": "Lake",
    "featured": false,
    "priority": 50
  },
  {
    "geonameId": 1102057,
    "name": "Lago Bovu",
    "latitude": -23.5225,
    "longitude": 34.72167,
    "category": "Lake",
    "subcategory": "Lake",
    "featured": false,
    "priority": 50
  },
  {
    "geonameId": 1052008,
    "name": "Lago Brizizo",
    "latitude": -21.81639,
    "longitude": 33.25111,
    "category": "Lake",
    "subcategory": "Lake",
    "featured": false,
    "priority": 50
  },
  {
    "geonameId": 1051989,
    "name": "Lago Buanduane",
    "latitude": -21.20722,
    "longitude": 34.05639,
    "category": "Lake",
    "subcategory": "Lake",
    "featured": false,
    "priority": 50
  },
  {
    "geonameId": 1051987,
    "name": "Lago Buane",
    "latitude": -24.57444,
    "longitude": 34.93139,
    "category": "Lake",
    "subcategory": "Lake",
    "featured": false,
    "priority": 50
  },
  {
    "geonameId": 1097116,
    "name": "Lago Buarinhama",
    "latitude": -23.00722,
    "longitude": 31.83417,
    "category": "Lake",
    "subcategory": "Lake",
    "featured": false,
    "priority": 50
  },
  {
    "geonameId": 1101076,
    "name": "Lago Buarro",
    "latitude": -22.49417,
    "longitude": 35.41556,
    "category": "Lake",
    "subcategory": "Lake",
    "featured": false,
    "priority": 50
  },
  {
    "geonameId": 1099542,
    "name": "Lago Bucobuco",
    "latitude": -24.61917,
    "longitude": 34.24889,
    "category": "Lake",
    "subcategory": "Lake",
    "featured": false,
    "priority": 50
  },
  {
    "geonameId": 1103405,
    "name": "Lago Bucucha",
    "latitude": -23.91611,
    "longitude": 35.4725,
    "category": "Lake",
    "subcategory": "Lake",
    "featured": false,
    "priority": 50
  },
  {
    "geonameId": 1098451,
    "name": "Lago Bucútezo",
    "latitude": -24.77278,
    "longitude": 33.58,
    "category": "Lake",
    "subcategory": "Lake",
    "featured": false,
    "priority": 50
  },
  {
    "geonameId": 1051957,
    "name": "Lago Buembué",
    "latitude": -21.19833,
    "longitude": 33.19306,
    "category": "Lake",
    "subcategory": "Lake",
    "featured": false,
    "priority": 50
  },
  {
    "geonameId": 1099739,
    "name": "Lago Buíne",
    "latitude": -22.64972,
    "longitude": 33.29556,
    "category": "Lake",
    "subcategory": "Lake",
    "featured": false,
    "priority": 50
  },
  {
    "geonameId": 1103909,
    "name": "Lago Buio-Uio",
    "latitude": -23.93194,
    "longitude": 33.08806,
    "category": "Lake",
    "subcategory": "Lake",
    "featured": false,
    "priority": 50
  },
  {
    "geonameId": 1103771,
    "name": "Lago Buja",
    "latitude": -21.17139,
    "longitude": 34.92361,
    "category": "Lake",
    "subcategory": "Lake",
    "featured": false,
    "priority": 50
  },
  {
    "geonameId": 1097397,
    "name": "Lago Bulamacuta",
    "latitude": -23.14944,
    "longitude": 32.10667,
    "category": "Lake",
    "subcategory": "Lake",
    "featured": false,
    "priority": 50
  },
  {
    "geonameId": 1101458,
    "name": "Lago Búlue",
    "latitude": -23.14972,
    "longitude": 35.41278,
    "category": "Lake",
    "subcategory": "Lake",
    "featured": false,
    "priority": 50
  },
  {
    "geonameId": 1102354,
    "name": "Lago Bumbe",
    "latitude": -23.40972,
    "longitude": 35.28889,
    "category": "Lake",
    "subcategory": "Lake",
    "featured": false,
    "priority": 50
  },
  {
    "geonameId": 1100069,
    "name": "Lago Bume",
    "latitude": -22.79222,
    "longitude": 33.69833,
    "category": "Lake",
    "subcategory": "Lake",
    "featured": false,
    "priority": 50
  },
  {
    "geonameId": 1051904,
    "name": "Lago Bunga",
    "latitude": -20.93028,
    "longitude": 34.30333,
    "category": "Lake",
    "subcategory": "Lake",
    "featured": false,
    "priority": 50
  },
  {
    "geonameId": 1051890,
    "name": "Lago Bungue",
    "latitude": -21.22083,
    "longitude": 34.7325,
    "category": "Lake",
    "subcategory": "Lake",
    "featured": false,
    "priority": 50
  },
  {
    "geonameId": 1103918,
    "name": "Lago Bunguele",
    "latitude": -23.90667,
    "longitude": 33.12111,
    "category": "Lake",
    "subcategory": "Lake",
    "featured": false,
    "priority": 50
  },
  {
    "geonameId": 1051887,
    "name": "Lago Bungul",
    "latitude": -21.86972,
    "longitude": 35.20306,
    "category": "Lake",
    "subcategory": "Lake",
    "featured": false,
    "priority": 50
  },
  {
    "geonameId": 1051886,
    "name": "Lago Bungul Pequeno",
    "latitude": -21.88417,
    "longitude": 35.21278,
    "category": "Lake",
    "subcategory": "Lake",
    "featured": false,
    "priority": 50
  },
  {
    "geonameId": 1095909,
    "name": "Lago Bustune",
    "latitude": -17.345,
    "longitude": 37.19944,
    "category": "Lake",
    "subcategory": "Lake",
    "featured": false,
    "priority": 50
  },
  {
    "geonameId": 1051861,
    "name": "Lago Buti",
    "latitude": -26.15667,
    "longitude": 32.92583,
    "category": "Lake",
    "subcategory": "Lake",
    "featured": false,
    "priority": 50
  },
  {
    "geonameId": 1100096,
    "name": "Lago Buve",
    "latitude": -24.70028,
    "longitude": 34.89167,
    "category": "Lake",
    "subcategory": "Lake",
    "featured": false,
    "priority": 50
  },
  {
    "geonameId": 1051715,
    "name": "Lago Cadonga",
    "latitude": -17.66028,
    "longitude": 36.20889,
    "category": "Lake",
    "subcategory": "Lake",
    "featured": false,
    "priority": 50
  },
  {
    "geonameId": 1098961,
    "name": "Lago Calachacha",
    "latitude": -22.11167,
    "longitude": 32.98528,
    "category": "Lake",
    "subcategory": "Lake",
    "featured": false,
    "priority": 50
  },
  {
    "geonameId": 1101129,
    "name": "Lago Cálaúle",
    "latitude": -22.58,
    "longitude": 35.36667,
    "category": "Lake",
    "subcategory": "Lake",
    "featured": false,
    "priority": 50
  },
  {
    "geonameId": 1094800,
    "name": "Lago Calomoa",
    "latitude": -16.18806,
    "longitude": 39.5325,
    "category": "Lake",
    "subcategory": "Lake",
    "featured": false,
    "priority": 50
  },
  {
    "geonameId": 1092887,
    "name": "Lago Calue",
    "latitude": -16.92028,
    "longitude": 35.33167,
    "category": "Lake",
    "subcategory": "Lake",
    "featured": false,
    "priority": 50
  },
  {
    "geonameId": 1051478,
    "name": "Lago Cambadje",
    "latitude": -22.66667,
    "longitude": 32.26667,
    "category": "Lake",
    "subcategory": "Lake",
    "featured": false,
    "priority": 50
  },
  {
    "geonameId": 1051421,
    "name": "Lago Cametuze",
    "latitude": -24.56917,
    "longitude": 33.97417,
    "category": "Lake",
    "subcategory": "Lake",
    "featured": false,
    "priority": 50
  },
  {
    "geonameId": 1051321,
    "name": "Lago Canda",
    "latitude": -24.83972,
    "longitude": 34.52,
    "category": "Lake",
    "subcategory": "Lake",
    "featured": false,
    "priority": 50
  },
  {
    "geonameId": 1104620,
    "name": "Lago Candage",
    "latitude": -21.49389,
    "longitude": 34.98722,
    "category": "Lake",
    "subcategory": "Lake",
    "featured": false,
    "priority": 50
  },
  {
    "geonameId": 1104145,
    "name": "Lago Cangalavara",
    "latitude": -22.88833,
    "longitude": 34.78889,
    "category": "Lake",
    "subcategory": "Lake",
    "featured": false,
    "priority": 50
  },
  {
    "geonameId": 1104386,
    "name": "Lago Canguela",
    "latitude": -23.69694,
    "longitude": 33.98667,
    "category": "Lake",
    "subcategory": "Lake",
    "featured": false,
    "priority": 50
  },
  {
    "geonameId": 1097919,
    "name": "Lago Canhane",
    "latitude": -24.46833,
    "longitude": 34.09639,
    "category": "Lake",
    "subcategory": "Lake",
    "featured": false,
    "priority": 50
  },
  {
    "geonameId": 1089862,
    "name": "Lago Canhanine",
    "latitude": -26.22222,
    "longitude": 32.44278,
    "category": "Lake",
    "subcategory": "Lake",
    "featured": false,
    "priority": 50
  },
  {
    "geonameId": 1051039,
    "name": "Lago Carápia",
    "latitude": -17.6425,
    "longitude": 36.68278,
    "category": "Lake",
    "subcategory": "Lake",
    "featured": false,
    "priority": 50
  },
  {
    "geonameId": 1100758,
    "name": "Lago Cassative",
    "latitude": -22.925,
    "longitude": 35.44389,
    "category": "Lake",
    "subcategory": "Lake",
    "featured": false,
    "priority": 50
  },
  {
    "geonameId": 1050818,
    "name": "Lago Catine",
    "latitude": -21.88389,
    "longitude": 34.19972,
    "category": "Lake",
    "subcategory": "Lake",
    "featured": false,
    "priority": 50
  },
  {
    "geonameId": 1103058,
    "name": "Lago Catinhane",
    "latitude": -21.89028,
    "longitude": 34.19444,
    "category": "Lake",
    "subcategory": "Lake",
    "featured": false,
    "priority": 50
  },
  {
    "geonameId": 1050795,
    "name": "Lago Catuíne",
    "latitude": -26.83028,
    "longitude": 32.24917,
    "category": "Lake",
    "subcategory": "Lake",
    "featured": false,
    "priority": 50
  },
  {
    "geonameId": 1050775,
    "name": "Lago Catzembene",
    "latitude": -23.80167,
    "longitude": 32.98917,
    "category": "Lake",
    "subcategory": "Lake",
    "featured": false,
    "priority": 50
  },