[
  {
    "geonameId": 6848560,
    "name": "Abada",
    "latitude": 14.2155,
    "longitude": 1.41216,
    "category": "Island",
    "subcategory": "Island",
    "featured": false,
    "priority": 50
  },
  {
    "geonameId": 2448246,
    "name": "Abala",
    "latitude": 14.9369,
    "longitude": 3.4336,
    "category": "City",
    "subcategory": "City",
    "featured": false,
    "priority": 50
  },
  {
    "geonameId": 2448245,
    "name": "Abalak",
    "latitude": 15.4509,
    "longitude": 6.2793,
    "category": "City",
    "subcategory": "County Seat",
    "featured": false,
    "priority": 50
  },
  {
    "geonameId": 2448222,
    "name": "Abdagtaït",
    "latitude": 18.13806,
    "longitude": 7.69167,
    "category": "Mountain",
    "subcategory": "Mountain Pass",
    "featured": false,
    "priority": 50
  },
  {
    "geonameId": 6398082,
    "name": "Aberad",
    "latitude": 18.05472,
    "longitude": 8.64611,
    "category": "Mountain",
    "subcategory": "Mountain",
    "featured": false,
    "priority": 50
  },
  {
    "geonameId": 2448197,
    "name": "Aboudia",
    "latitude": 14.61656,
    "longitude": 0.95734,
    "category": "Island",
    "subcategory": "Island",
    "featured": false,
    "priority": 50
  },
  {
    "geonameId": 2448150,
    "name": "Adérbissinat",
    "latitude": 15.6275,
    "longitude": 7.8945,
    "category": "City",
    "subcategory": "City",
    "featured": false,
    "priority": 50
  },
  {
    "geonameId": 2448146,
    "name": "Adrar Adès",
    "latitude": 19.11667,
    "longitude": 8.08333,
    "category": "Mountain",
    "subcategory": "Mountain",
    "featured": false,
    "priority": 50
  },
  {
    "geonameId": 2447618,
    "name": "Adrar Aonfoud",
    "latitude": 17.53333,
    "longitude": 8.83333,
    "category": "Mountain",
    "subcategory": "Mountain",
    "featured": false,
    "priority": 50
  },
  {
    "geonameId": 2447583,
    "name": "Adrar Arraki",
    "latitude": 17.7295,
    "longitude": 9.3877,
    "category": "Mountain",
    "subcategory": "Mountain",
    "featured": false,
    "priority": 50
  },
  {
    "geonameId": 2447553,
    "name": "Adrar Arreï",
    "latitude": 17.6896,
    "longitude": 9.4438,
    "category": "Mountain",
    "subcategory": "Mountain",
    "featured": false,
    "priority": 50
  },
  {
    "geonameId": 2446822,
    "name": "Adrar Bichnao",
    "latitude": 18.15,
    "longitude": 9.38333,
    "category": "Mountain",
    "subcategory": "Mountain",
    "featured": false,
    "priority": 50
  },
  {
    "geonameId": 2445315,
    "name": "Adrar Egala",
    "latitude": 16.60972,
    "longitude": 6.68361,
    "category": "Mountain",
    "subcategory": "Mountain",
    "featured": false,
    "priority": 50
  },
  {
    "geonameId": 6400135,
    "name": "Adrar Mari",
    "latitude": 18.06222,
    "longitude": 9.03917,
    "category": "Mountain",
    "subcategory": "Mountain",
    "featured": false,
    "priority": 50
  },
  {
    "geonameId": 2598125,
    "name": "Adrar Tchirèlissene",
    "latitude": 19.14722,
    "longitude": 8.68056,
    "category": "Mountain",
    "subcategory": "Mountain",
    "featured": false,
    "priority": 50
  },
  {
    "geonameId": 2438966,
    "name": "Adrar Tchirellami",
    "latitude": 19.81583,
    "longitude": 8.16333,
    "category": "Mountain",
    "subcategory": "Mountain",
    "featured": false,
    "priority": 50
  },
  {
    "geonameId": 2438873,
    "name": "Adrar Temouroudout",
    "latitude": 19.68333,
    "longitude": 8.5,
    "category": "Mountain",
    "subcategory": "Mountain",
    "featured": false,
    "priority": 50
  },
  {
    "geonameId": 6398026,
    "name": "Adrar Tessouf",
    "latitude": 18.00333,
    "longitude": 8.15278,
    "category": "Mountain",
    "subcategory": "Mountain",
    "featured": false,
    "priority": 50
  },
  {
    "geonameId": 2447617,
    "name": "Adrar ti-n-Aouak",
    "latitude": 18.98333,
    "longitude": 8.43333,
    "category": "Mountain",
    "subcategory": "Mountain",
    "featured": false,
    "priority": 50
  },
  {
    "geonameId": 2437823,
    "name": "Adrar Zelîne",
    "latitude": 19.80889,
    "longitude": 8.07778,
    "category": "Mountain",
    "subcategory": "Mountain",
    "featured": false,
    "priority": 50
  },
  {
    "geonameId": 2597726,
    "name": "Afagag",
    "latitude": 20.005,
    "longitude": 7.51806,
    "category": "Mountain",
    "subcategory": "Mountain",
    "featured": false,
    "priority": 50
  },
  {
    "geonameId": 6578621,
    "name": "Afatene",
    "latitude": 17.6831,
    "longitude": 8.4448,
    "category": "Mountain",
    "subcategory": "Mountain",
    "featured": false,
    "priority": 50
  },
  {
    "geonameId": 6306101,
    "name": "Afnou",
    "latitude": 16.40194,
    "longitude": 7.82194,
    "category": "Mountain",
    "subcategory": "Mountain",
    "featured": false,
    "priority": 50
  },
  {
    "geonameId": 2448085,
    "name": "Agadez",
    "latitude": 16.97333,
    "longitude": 7.99111,
    "category": "City",
    "subcategory": "Regional Capital",
    "featured": false,
    "priority": 50
  },
  {
    "geonameId": 6851377,
    "name": "Agaloua",
    "latitude": 17.8666,
    "longitude": 8.2935,
    "category": "Mountain",
    "subcategory": "Mountain",
    "featured": false,
    "priority": 50
  },
  {
    "geonameId": 2598122,
    "name": "Agareroum",
    "latitude": 19.19,
    "longitude": 8.84944,
    "category": "Mountain",
    "subcategory": "Mountain",
    "featured": false,
    "priority": 50
  },
  {
    "geonameId": 6578709,
    "name": "Agha",
    "latitude": 17.7043,
    "longitude": 8.5504,
    "category": "Mountain",
    "subcategory": "Mountain",
    "featured": false,
    "priority": 50
  },
  {
    "geonameId": 2447542,
    "name": "Aghalgou",
    "latitude": 17.09917,
    "longitude": 7.92833,
    "category": "Mountain",
    "subcategory": "Mountain",
    "featured": false,
    "priority": 50
  },
  {
    "geonameId": 2445323,
    "name": "Agharabreb",
    "latitude": 19.43,
    "longitude": 8.35444,
    "category": "Mountain",
    "subcategory": "Mountain",
    "featured": false,
    "priority": 50
  },
  {
    "geonameId": 6397949,
    "name": "Agharamgheram",
    "latitude": 18.35333,
    "longitude": 8.53,
    "category": "Mountain",
    "subcategory": "Mountain",
    "featured": false,
    "priority": 50
  },
  {
    "geonameId": 2597731,
    "name": "Aghil",
    "latitude": 20.17167,
    "longitude": 7.36944,
    "category": "Mountain",
    "subcategory": "Mountain",
    "featured": false,
    "priority": 50
  },
  {
    "geonameId": 2445230,
    "name": "Aguerâguer",
    "latitude": 18.64389,
    "longitude": 8.73389,
    "category": "Mountain",
    "subcategory": "Mountain",
    "featured": false,
    "priority": 50
  },
  {
    "geonameId": 2448024,
    "name": "Aguié",
    "latitude": 13.50601,
    "longitude": 7.77863,
    "category": "City",
    "subcategory": "County Seat",
    "featured": false,
    "priority": 50
  },
  {
    "geonameId": 10344523,
    "name": "Air and Tenere National Nature Reserve",
    "latitude": 18,
    "longitude": 9,
    "category": "Park",
    "subcategory": "Nature Reserve",
    "featured": false,
    "priority": 50
  },
  {
    "geonameId": 2597696,
    "name": "Akâra",
    "latitude": 20.05167,
    "longitude": 7.23611,
    "category": "Mountain",
    "subcategory": "Mountain",
    "featured": false,
    "priority": 50
  },
  {
    "geonameId": 6578370,
    "name": "Akerkoui",
    "latitude": 17.2966,
    "longitude": 8.4761,
    "category": "Mountain",
    "subcategory": "Mountain",
    "featured": false,
    "priority": 50
  },
  {
    "geonameId": 2447938,
    "name": "Alaghsas",
    "latitude": 17.0187,
    "longitude": 8.0168,
    "category": "City",
    "subcategory": "City",
    "featured": false,
    "priority": 50
  },
  {
    "geonameId": 2447922,
    "name": "Alésdarf",
    "latitude": 16.80861,
    "longitude": 6.75389,
    "category": "Mountain",
    "subcategory": "Mountain",
    "featured": false,
    "priority": 50
  },
  {
    "geonameId": 2447862,
    "name": "Aloguissoghi",
    "latitude": 16.9761,
    "longitude": 8.75,
    "category": "Mountain",
    "subcategory": "Mountain",
    "featured": false,
    "priority": 50
  },
  {
    "geonameId": 6306029,
    "name": "Alouat",
    "latitude": 16.92833,
    "longitude": 7.89639,
    "category": "Mountain",
    "subcategory": "Mountain",
    "featured": false,
    "priority": 50
  },
  {
    "geonameId": 2447805,
    "name": "Amatassa",
    "latitude": 17.66667,
    "longitude": 8.35,
    "category": "Mountain",
    "subcategory": "Mountain",
    "featured": false,
    "priority": 50
  },
  {
    "geonameId": 6578456,
    "name": "Amdid",
    "latitude": 17.54194,
    "longitude": 8.77333,
    "category": "Mountain",
    "subcategory": "Mountain",
    "featured": false,
    "priority": 50
  },
  {
    "geonameId": 2598141,
    "name": "Amédrou",
    "latitude": 19.25806,
    "longitude": 8.53389,
    "category": "Mountain",
    "subcategory": "Mountain",
    "featured": false,
    "priority": 50
  },
  {
    "geonameId": 6397915,
    "name": "Amedrous",
    "latitude": 18.35278,
    "longitude": 8.19917,
    "category": "Mountain",
    "subcategory": "Mountain",
    "featured": false,
    "priority": 50
  },
  {
    "geonameId": 2447788,
    "name": "Amguita",
    "latitude": 18.14611,
    "longitude": 8.03139,
    "category": "Mountain",
    "subcategory": "Mountain",
    "featured": false,
    "priority": 50
  },
  {
    "geonameId": 2597727,
    "name": "Amouar",
    "latitude": 20.11306,
    "longitude": 7.5625,
    "category": "Mountain",
    "subcategory": "Mountain",
    "featured": false,
    "priority": 50
  },
  {
    "geonameId": 6407664,
    "name": "Amzeguer",
    "latitude": 17.4772,
    "longitude": 9.5487,
    "category": "Mountain",
    "subcategory": "Mountain",
    "featured": false,
    "priority": 50
  },
  {
    "geonameId": 2447760,
    "name": "Anari Grehin",
    "latitude": 21.30842,
    "longitude": 14.68381,
    "category": "Mountain",
    "subcategory": "Mountain",
    "featured": false,
    "priority": 50
  },
  {
    "geonameId": 2447740,
    "name": "Ang Amma see Albout",
    "latitude": 22.33333,
    "longitude": 14.5,
    "category": "Mountain",
    "subcategory": "Mountain",
    "featured": false,
    "priority": 50
  },
  {
    "geonameId": 2597721,
    "name": "Angour",
    "latitude": 20.36944,
    "longitude": 7.80083,
    "category": "Mountain",
    "subcategory": "Mountain",
    "featured": false,
    "priority": 50
  },
  {
    "geonameId": 2447625,
    "name": "Aodelbi",
    "latitude": 18.09722,
    "longitude": 7.70306,
    "category": "Mountain",
    "subcategory": "Mountain",
    "featured": false,
    "priority": 50
  },
  {
    "geonameId": 2597992,
    "name": "Aoussene",
    "latitude": 19.4725,
    "longitude": 8.39444,
    "category": "Mountain",
    "subcategory": "Mountain",
    "featured": false,
    "priority": 50
  },
  {
    "geonameId": 2447545,
    "name": "Areschima Nord",
    "latitude": 18.51472,
    "longitude": 10.12306,
    "category": "Mountain",
    "subcategory": "Mountain",
    "featured": false,
    "priority": 50
  },
  {
    "geonameId": 2447544,
    "name": "Areschima Sud",
    "latitude": 18.17806,
    "longitude": 10.09333,
    "category": "Mountain",
    "subcategory": "Mountain",
    "featured": false,
    "priority": 50
  },
  {
    "geonameId": 6397965,
    "name": "Arik",
    "latitude": 18.29444,
    "longitude": 8.76056,
    "category": "Mountain",
    "subcategory": "Mountain",
    "featured": false,
    "priority": 50
  },
  {
    "geonameId": 6397934,
    "name": "Arimir",
    "latitude": 18.41,
    "longitude": 8.38694,
    "category": "Mountain",
    "subcategory": "Mountain",
    "featured": false,
    "priority": 50
  },
  {
    "geonameId": 2447514,
    "name": "Arli",
    "latitude": 16.7575,
    "longitude": 7.56,
    "category": "Mountain",
    "subcategory": "Mountain",
    "featured": false,
    "priority": 50
  },
  {
    "geonameId": 2447513,
    "name": "Arlit",
    "latitude": 18.73694,
    "longitude": 7.38528,
    "category": "City",
    "subcategory": "County Seat",
    "featured": false,
    "priority": 50
  },
  {
    "geonameId": 2447503,
    "name": "Aroyane",
    "latitude": 18.08333,
    "longitude": 8.81667,
    "category": "Mountain",
    "subcategory": "Mountain",
    "featured": false,
    "priority": 50
  },
  {
    "geonameId": 6307457,
    "name": "Assakalene",
    "latitude": 17.23306,
    "longitude": 7.0525,
    "category": "Mountain",
    "subcategory": "Mountain",
    "featured": false,
    "priority": 50
  },
  {
    "geonameId": 2597722,
    "name": "Assener",
    "latitude": 20.22556,
    "longitude": 7.72278,
    "category": "Mountain",
    "subcategory": "Mountain",
    "featured": false,
    "priority": 50
  },
  {
    "geonameId": 6397808,
    "name": "Assetour",
    "latitude": 18.56861,
    "longitude": 8.12389,
    "category": "Mountain",
    "subcategory": "Mountain",
    "featured": false,
    "priority": 50
  },
  {
    "geonameId": 6397912,
    "name": "Ates",
    "latitude": 18.2825,
    "longitude": 8.07583,
    "category": "Mountain",
    "subcategory": "Mountain",
    "featured": false,
    "priority": 50
  },
  {
    "geonameId": 6851362,
    "name": "Atkaki",
    "latitude": 17.6079,
    "longitude": 8.7537,
    "category": "Mountain",
    "subcategory": "Mountain",
    "featured": false,
    "priority": 50
  },
  {
    "geonameId": 2447416,
    "name": "Ayorou",
    "latitude": 14.73075,
    "longitude": 0.91739,
    "category": "City",
    "subcategory": "City",
    "featured": false,
    "priority": 50
  },
  {
    "geonameId": 2447415,
    "name": "Ayorou Goungo Koré",
    "latitude": 14.72121,
    "longitude": 0.90924,
    "category": "Island",
    "subcategory": "Island",
    "featured": false,
    "priority": 50
  },
  {
    "geonameId": 2447403,
    "name": "Azaoua",
    "latitude": 13.9724,
    "longitude": 3.4491,
    "category": "Desert",
    "subcategory": "Desert",
    "featured": false,
    "priority": 50
  },
  {
    "geonameId": 6578700,
    "name": "Azeghoueï",
    "latitude": 17.7979,
    "longitude": 8.5622,
    "category": "Mountain",
    "subcategory": "Mountain",
    "featured": false,
    "priority": 50
  },
  {
    "geonameId": 2447378,
    "name": "Azouza",
    "latitude": 17.54611,
    "longitude": 6.99889,
    "category": "Mountain",
    "subcategory": "Mountain",
    "featured": false,
    "priority": 50
  },
  {
    "geonameId": 6578483,
    "name": "Badardèr",
    "latitude": 17.4071,
    "longitude": 8.4496,
    "category": "Mountain",
    "subcategory": "Mountain",
    "featured": false,
    "priority": 50
  },
  {
    "geonameId": 2447291,
    "name": "Bagaroua",
    "latitude": 14.63616,
    "longitude": 4.34896,
    "category": "City",
    "subcategory": "City",
    "featured": false,
    "priority": 50
  },
  {
    "geonameId": 6397944,
    "name": "Bagzane",
    "latitude": 18.39472,
    "longitude": 8.51694,
    "category": "Mountain",
    "subcategory": "Mountain",
    "featured": false,
    "priority": 50
  },
  {
    "geonameId": 6578657,
    "name": "Bagzane-n-Âmmas",
    "latitude": 17.71306,
    "longitude": 8.74139,
    "category": "Mountain",
    "subcategory": "Mountain",
    "featured": false,
    "priority": 50
  },
  {
    "geonameId": 2598147,
    "name": "Balarsès",
    "latitude": 19.1375,
    "longitude": 8.58944,
    "category": "Mountain",
    "subcategory": "Mountain",
    "featured": false,
    "priority": 50
  },
  {
    "geonameId": 2447223,
    "name": "Baléyara",
    "latitude": 13.7838,
    "longitude": 2.9523,
    "category": "City",
    "subcategory": "City",
    "featured": false,
    "priority": 50
  },
  {
    "geonameId": 2447218,
    "name": "Baliam",
    "latitude": 14.7094,
    "longitude": 0.90536,
    "category": "Island",
    "subcategory": "Island",
    "featured": false,
    "priority": 50
  },
  {
    "geonameId": 6305867,
    "name": "Balise",
    "latitude": 21.84472,
    "longitude": 10.80306,
    "category": "Mountain",
    "subcategory": "Mountain",
    "featured": false,
    "priority": 50
  },
  {
    "geonameId": 2447132,
    "name": "Bani Bangou",
    "latitude": 15.0416,
    "longitude": 2.7037,
    "category": "City",
    "subcategory": "City",
    "featured": false,
    "priority": 50
  },
  {
    "geonameId": 2447078,
    "name": "Bankilaré",
    "latitude": 14.57653,
    "longitude": 0.72669,
    "category": "City",
    "subcategory": "City",
    "featured": false,
    "priority": 50
  },
  {
    "geonameId": 2446878,
    "name": "Bélbéji",
    "latitude": 14.6769,
    "longitude": 7.98282,
    "category": "City",
    "subcategory": "City",
    "featured": false,
    "priority": 50
  },
  {
    "geonameId": 6855110,
    "name": "Bélo Goungou",
    "latitude": 12.51781,
    "longitude": 2.66454,
    "category": "Island",
    "subcategory": "Island",
    "featured": false,
    "priority": 50
  },
  {
    "geonameId": 6578480,
    "name": "Béroguene",
    "latitude": 17.4149,
    "longitude": 8.511,
    "category": "Mountain",
    "subcategory": "Mountain",
    "featured": false,
    "priority": 50
  },
  {
    "geonameId": 6578586,
    "name": "Beteghmatas",
    "latitude": 17.64247,
    "longitude": 8.36502,
    "category": "Mountain",
    "subcategory": "Mountain",
    "featured": false,
    "priority": 50
  },
  {
    "geonameId": 2446796,
    "name": "Bilma",
    "latitude": 18.68532,
    "longitude": 12.91643,
    "category": "City",
    "subcategory": "County Seat",
    "featured": false,
    "priority": 50
  },
  {
    "geonameId": 6855111,
    "name": "Bira Goungou",
    "latitude": 12.6061,
    "longitude": 2.5222,
    "category": "Island",
    "subcategory": "Island",
    "featured": false,
    "priority": 50
  },
  {
    "geonameId": 2437732,
    "name": "Birni N Konni",
    "latitude": 13.79599,
    "longitude": 5.25026,
    "category": "City",
    "subcategory": "City",
    "featured": false,
    "priority": 50
  },
  {
    "geonameId": 2437731,
    "name": "Birnin Gaouré",
    "latitude": 13.08173,
    "longitude": 2.91099,
    "category": "City",
    "subcategory": "County Seat",
    "featured": false,
    "priority": 50
  },
  {
    "geonameId": 6851332,
    "name": "Bitet",
    "latitude": 17.9567,
    "longitude": 8.3725,
    "category": "Mountain",
    "subcategory": "Mountain",
    "featured": false,
    "priority": 50
  },
  {
    "geonameId": 6578491,
    "name": "Bokotane",
    "latitude": 17.49,
    "longitude": 8.4938,
    "category": "Mountain",
    "subcategory": "Mountain",
    "featured": false,
    "priority": 50
  },
  {
    "geonameId": 2446676,
    "name": "Bolboli",
    "latitude": 14.69967,
    "longitude": 0.91365,
    "category": "Island",
    "subcategory": "Island",
    "featured": false,
    "priority": 50
  },
  {
    "geonameId": 8516231,
    "name": "Bonkor Bangou",
    "latitude": 14.32548,
    "longitude": 1.54481,
    "category": "Lake",
    "subcategory": "Lake",
    "featured": false,
    "priority": 50
  },
  {
    "geonameId": 2446613,
    "name": "Bosso",
    "latitude": 13.69869,
    "longitude": 13.30951,
    "category": "City",
    "subcategory": "City",
    "featured": false,
    "priority": 50
  },
  {
    "geonameId": 2446597,
    "name": "Bouboulé",
    "latitude": 22.37224,
    "longitude": 11.19464,
    "category": "Mountain",
    "subcategory": "Mountain",
    "featured": false,
    "priority": 50
  },
  {
    "geonameId": 6578341,
    "name": "Boutouene",
    "latitude": 17.4363,
    "longitude": 8.4209,
    "category": "Mountain",
    "subcategory": "Mountain",
    "featured": false,
    "priority": 50
  },
  {
    "geonameId": 2446466,
    "name": "Bouza",
    "latitude": 14.42293,
    "longitude": 6.04278,
    "category": "City",
    "subcategory": "County Seat",
    "featured": false,
    "priority": 50
  },
  {
    "geonameId": 6578450,
    "name": "Chikéli",
    "latitude": 17.4341,
    "longitude": 8.7088,
    "category": "Mountain",
    "subcategory": "Mountain",
    "featured": false,
    "priority": 50
  },
  {
    "geonameId": 2444449,
    "name": "Col de Gobo",
    "latitude": 20.13333,
    "longitude": 15.11667,
    "category": "Mountain",
    "subcategory": "Mountain Pass",
    "featured": false,
    "priority": 50
  },
  {
    "geonameId": 6851353,
    "name": "Col de Guissat",
    "latitude": 17.8573,
    "longitude": 8.2789,
    "category": "Mountain",
    "subcategory": "Mountain Pass",
    "featured": false,
    "priority": 50
  },
  {
    "geonameId": 7095132,
    "name": "Col de Sara",
    "latitude": 20.6546,
    "longitude": 12.43545,
    "category": "Mountain",
    "subcategory": "Mountain Pass",
    "featured": false,
    "priority": 50
  },
  {
    "geonameId": 6578302,
    "name": "Dabaga",
    "latitude": 17.2888,
    "longitude": 8.1687,
    "category": "Mountain",
    "subcategory": "Mountain",
    "featured": false,
    "priority": 50
  },
  {
    "geonameId": 6578338,
    "name": "Dakat",
    "latitude": 17.3885,
    "longitude": 8.1963,
    "category": "Mountain",
    "subcategory": "Mountain",
    "featured": false,
    "priority": 50
  },
  {
    "geonameId": 2446267,
    "name": "Dakoro",
    "latitude": 14.51056,
    "longitude": 6.765,
    "category": "City",
    "subcategory": "County Seat",
    "featured": false,
    "priority": 50
  },
  {
    "geonameId": 7034951,
    "name": "Dengueri",
    "latitude": 18.2879,
    "longitude": 13.10438,
    "category": "Mountain",
    "subcategory": "Mountain",
    "featured": false,
    "priority": 50
  },
  {
    "geonameId": 2445704,
    "name": "Diffa",
    "latitude": 13.31536,
    "longitude": 12.61135,
    "category": "City",
    "subcategory": "Regional Capital",
    "featured": false,
    "priority": 50
  },
  {
    "geonameId": 2445645,
    "name": "Dioundiou",
    "latitude": 12.61677,
    "longitude": 3.54427,
    "category": "City",
    "subcategory": "City",
    "featured": false,
    "priority": 50
  },
  {
    "geonameId": 2445634,
    "name": "Dissillak",
    "latitude": 21.51667,
    "longitude": 11.91667,
    "category": "Mountain",
    "subcategory": "Mountain",
    "featured": false,
    "priority": 50
  },
  {
    "geonameId": 2441302,
    "name": "Djebel Maoud",
    "latitude": 23.06288,
    "longitude": 11.52801,
    "category": "Mountain",
    "subcategory": "Mountain",
    "featured": false,
    "priority": 50
  },
  {
    "geonameId": 6397789,
    "name": "Dodekel",
    "latitude": 18.60806,
    "longitude": 8.20194,
    "category": "Mountain",
    "subcategory": "Mountain",
    "featured": false,
    "priority": 50
  },
  {
    "geonameId": 6678157,
    "name": "Dodya",
    "latitude": 15.4137,
    "longitude": 3.0381,
    "category": "Lake",
    "subcategory": "Lake",
    "featured": false,
    "priority": 50
  },
  {
    "geonameId": 2445553,
    "name": "Dogondoutchi",
    "latitude": 13.6403,
    "longitude": 4.02649,
    "category": "City",
    "subcategory": "County Seat",
    "featured": false,
    "priority": 50
  },
  {
    "geonameId": 6855119,
    "name": "Dolé",
    "latitude": 12.96644,
    "longitude": 2.368,
    "category": "Island",
    "subcategory": "Island Group",
    "featured": false,
    "priority": 50
  },
  {
    "geonameId": 2445488,
    "name": "Dosso",
    "latitude": 13.049,
    "longitude": 3.1937,
    "category": "City",
    "subcategory": "Regional Capital",
    "featured": false,
    "priority": 50
  },
  {
    "geonameId": 2445466,
    "name": "Doulam",
    "latitude": 14.66551,
    "longitude": 0.90887,
    "category": "Island",
    "subcategory": "Island",
    "featured": false,
    "priority": 50
  },
  {
    "geonameId": 2445399,
    "name": "Dungas",
    "latitude": 13.06153,
    "longitude": 9.34342,
    "category": "City",
    "subcategory": "City",
    "featured": false,
    "priority": 50
  },
  {
    "geonameId": 6305984,
    "name": "Ebadaghjene",
    "latitude": 16.8605,
    "longitude": 8.9935,
    "category": "Mountain",
    "subcategory": "Mountain",
    "featured": false,
    "priority": 50
  },
  {
    "geonameId": 6407638,
    "name": "Ébalaghene",
    "latitude": 17.7227,
    "longitude": 9.1423,
    "category": "Mountain",
    "subcategory": "Mountain",
    "featured": false,
    "priority": 50
  },
  {
    "geonameId": 6407601,
    "name": "Ébanaouene Tchibararane",
    "latitude": 17.8361,
    "longitude": 9.0148,
    "category": "Mountain",
    "subcategory": "Mountain",
    "featured": false,
    "priority": 50
  },
  {
    "geonameId": 6397833,
    "name": "Ebazaouer",
    "latitude": 18.47639,
    "longitude": 8.34889,
    "category": "Mountain",
    "subcategory": "Mountain",
    "featured": false,
    "priority": 50
  },
  {
    "geonameId": 6578388,
    "name": "Ébéki",
    "latitude": 17.3127,
    "longitude": 8.2769,
    "category": "Mountain",
    "subcategory": "Mountain",
    "featured": false,
    "priority": 50
  },
  {
    "geonameId": 2445352,
    "name": "Ebenenanoua",
    "latitude": 18.83417,
    "longitude": 5.2625,
    "category": "Mountain",
    "subcategory": "Mountain",
    "featured": false,
    "priority": 50
  },
  {
    "geonameId": 6307430,
    "name": "Echgout",
    "latitude": 17.33167,
    "longitude": 7.5175,
    "category": "Mountain",
    "subcategory": "Mountain",
    "featured": false,
    "priority": 50
  },
  {
    "geonameId": 2598061,
    "name": "Échia",
    "latitude": 19.36139,
    "longitude": 8.24139,
    "category": "Mountain",
    "subcategory": "Mountain",
    "featured": false,
    "priority": 50
  },
  {
    "geonameId": 2445300,
    "name": "Èchkar",
    "latitude": 15.81499,
    "longitude": 9.15326,
    "category": "Mountain",
    "subcategory": "Mountain",
    "featured": false,
    "priority": 50
  },
  {
    "geonameId": 6578525,
    "name": "Édabdab",
    "latitude": 17.5905,
    "longitude": 8.2608,
    "category": "Mountain",
    "subcategory": "Mountain",
    "featured": false,
    "priority": 50
  },
  {
    "geonameId": 6578424,
    "name": "Édébélaga",
    "latitude": 17.51139,
    "longitude": 8.81806,
    "category": "Mountain",
    "subcategory": "Mountain",
    "featured": false,
    "priority": 50
  },
  {
    "geonameId": 6400127,
    "name": "Édemok",
    "latitude": 18.13111,
    "longitude": 9.43111,
    "category": "Mountain",
    "subcategory": "Mountain",
    "featured": false,
    "priority": 50
  },
  {
    "geonameId": 7009658,
    "name": "Edeyene de Mourzouk",
    "latitude": 23.3385,
    "longitude": 12.51922,
    "category": "Desert",
    "subcategory": "Desert",
    "featured": false,
    "priority": 50
  },
  {
    "geonameId": 6578426,
    "name": "Édîkel Mellene",
    "latitude": 17.5178,
    "longitude": 8.8972,
    "category": "Mountain",
    "subcategory": "Mountain",
    "featured": false,
    "priority": 50
  },
  {
    "geonameId": 2598099,
    "name": "Éfaf",
    "latitude": 19.05667,
    "longitude": 8.49556,
    "category": "Mountain",
    "subcategory": "Mountain",
    "featured": false,
    "priority": 50
  },
  {
    "geonameId": 6578352,
    "name": "Éfeï-n-Abôragh",
    "latitude": 17.3358,
    "longitude": 8.7737,
    "category": "Mountain",
    "subcategory": "Mountain",
    "featured": false,
    "priority": 50
  },
  {
    "geonameId": 2445334,
    "name": "Éfeï-n-Arane",
    "latitude": 20.75,
    "longitude": 7.95,
    "category": "Mountain",
    "subcategory": "Mountain",
    "featured": false,
    "priority": 50
  },
  {
    "geonameId": 6578277,
    "name": "Éferi",
    "latitude": 17.10707,
    "longitude": 8.12245,
    "category": "Mountain",
    "subcategory": "Mountain",
    "featured": false,
    "priority": 50
  },
  {
    "geonameId": 6578327,
    "name": "Éferi-n-Kantou",
    "latitude": 17.3732,
    "longitude": 8.2603,
    "category": "Mountain",
    "subcategory": "Mountain",
    "featured": false,
    "priority": 50
  },
  {
    "geonameId": 6578501,
    "name": "Éferi-n-Kassaka",
    "latitude": 17.56838,
    "longitude": 8.40702,
    "category": "Mountain",
    "subcategory": "Mountain",
    "featured": false,
    "priority": 50
  },
  {
    "geonameId": 2598025,
    "name": "Éferi-n-Tebourbounaï",
    "latitude": 19.44167,
    "longitude": 8.88333,
    "category": "Mountain",
    "subcategory": "Mountain",
    "featured": false,
    "priority": 50
  },
  {
    "geonameId": 2445319,
    "name": "Égef-Adrar",
    "latitude": 17.48722,
    "longitude": 7.52222,
    "category": "Mountain",
    "subcategory": "Mountain",
    "featured": false,
    "priority": 50
  },
  {
    "geonameId": 6397719,
    "name": "Égharghar",
    "latitude": 18.62417,
    "longitude": 8.88361,
    "category": "Mountain",
    "subcategory": "Mountain",
    "featured": false,
    "priority": 50
  },
  {
    "geonameId": 6400139,
    "name": "Éghazer Oua-n-Agar",
    "latitude": 18.00528,
    "longitude": 9.29972,
    "category": "Mountain",
    "subcategory": "Mountain",
    "featured": false,
    "priority": 50
  },
  {
    "geonameId": 6407692,
    "name": "Éguef-n-Igguir",
    "latitude": 17.3246,
    "longitude": 9.317,
    "category": "Mountain",
    "subcategory": "Mountain",
    "featured": false,
    "priority": 50
  },
  {
    "geonameId": 2442954,
    "name": "Ehi Kaba",
    "latitude": 19.80774,
    "longitude": 14.99857,
    "category": "Mountain",
    "subcategory": "Mountain",
    "featured": false,
    "priority": 50
  },
  {
    "geonameId": 2441628,
    "name": "Ehi Loga Dadekissi",
    "latitude": 20.91667,
    "longitude": 15.5,
    "category": "Mountain",
    "subcategory": "Mountain",
    "featured": false,
    "priority": 50
  },
  {
    "geonameId": 2439549,
    "name": "Ehi Sountellane Yalanga",
    "latitude": 16.76667,
    "longitude": 11.21667,
    "category": "Mountain",
    "subcategory": "Mountain",
    "featured": false,
    "priority": 50
  },
  {
    "geonameId": 2445302,
    "name": "Ekazan",
    "latitude": 17.12694,
    "longitude": 7.71444,
    "category": "Mountain",
    "subcategory": "Mountain",
    "featured": false,
    "priority": 50
  },
  {
    "geonameId": 2445289,
    "name": "Elaghlagh",
    "latitude": 18.09194,
    "longitude": 9.26611,
    "category": "Mountain",
    "subcategory": "Mountain",
    "featured": false,
    "priority": 50
  },
  {
    "geonameId": 2597713,
    "name": "Éloueïlaoua",
    "latitude": 20.04278,
    "longitude": 7.88861,
    "category": "Mountain",
    "subcategory": "Mountain",
    "featured": false,
    "priority": 50
  },
  {
    "geonameId": 6398060,
    "name": "Émarka",
    "latitude": 18.07306,
    "longitude": 8.36639,
    "category": "Mountain",
    "subcategory": "Mountain",
    "featured": false,
    "priority": 50
  },
  {
    "geonameId": 6578310,
    "name": "Embel Takouba",
    "latitude": 17.22083,
    "longitude": 8.37889,
    "category": "Mountain",
    "subcategory": "Mountain",
    "featured": false,
    "priority": 50
  },
  {
    "geonameId": 6407672,
    "name": "Émech",
    "latitude": 17.5427,
    "longitude": 9.2276,
    "category": "Mountain",
    "subcategory": "Mountain",
    "featured": false,
    "priority": 50
  },
  {
    "geonameId": 2446451,
    "name": "Emi Brao",
    "latitude": 21.16221,
    "longitude": 12.27974,
    "category": "Mountain",
    "subcategory": "Mountain",
    "featured": false,
    "priority": 50
  },
  {
    "geonameId": 2445008,
    "name": "Emi Fezzane",
    "latitude": 21.70277,
    "longitude": 14.24281,
    "category": "Mountain",
    "subcategory": "Mountain",
    "featured": false,
    "priority": 50
  },
  {
    "geonameId": 6407584,
    "name": "Émilene",
    "latitude": 17.963,
    "longitude": 9.012,
    "category": "Mountain",
    "subcategory": "Mountain",
    "featured": false,
    "priority": 50
  },
  {
    "geonameId": 6397890,
    "name": "Emouroudou",
    "latitude": 18.53611,
    "longitude": 8.55222,
    "category": "Mountain",
    "subcategory": "Mountain",
    "featured": false,
    "priority": 50
  },
  {
    "geonameId": 6578578,
    "name": "Éourkid",
    "latitude": 17.50674,
    "longitude": 8.34848,
    "category": "Mountain",
    "subcategory": "Mountain",
    "featured": false,
    "priority": 50
  },
  {
    "geonameId": 2597952,
    "name": "Eraouré",
    "latitude": 20.43833,
    "longitude": 8.46917,
    "category": "Mountain",
    "subcategory": "Mountain",
    "featured": false,
    "priority": 50
  },
  {
    "geonameId": 6578521,
    "name": "Érouak",
    "latitude": 17.4828,
    "longitude": 8.0738,
    "category": "Mountain",
    "subcategory": "Mountain",
    "featured": false,
    "priority": 50
  },
  {
    "geonameId": 2597965,
    "name": "Essa",
    "latitude": 19.92917,
    "longitude": 8.28333,
    "category": "Mountain",
    "subcategory": "Mountain",
    "featured": false,
    "priority": 50
  },
  {
    "geonameId": 2598023,
    "name": "Essidig",
    "latitude": 19.42222,
    "longitude": 8.62472,
    "category": "Mountain",
    "subcategory": "Mountain",
    "featured": false,
    "priority": 50
  },
  {
    "geonameId": 2445201,
    "name": "Étaouélt",
    "latitude": 18.18333,
    "longitude": 7.93333,
    "category": "Mountain",
    "subcategory": "Mountain",
    "featured": false,
    "priority": 50
  },
  {
    "geonameId": 2597695,
    "name": "Ezaghane",
    "latitude": 20.59389,
    "longitude": 7.52306,
    "category": "Mountain",
    "subcategory": "Mountain",
    "featured": false,
    "priority": 50
  },
  {
    "geonameId": 2597908,
    "name": "Ézaghane",
    "latitude": 20.9875,
    "longitude": 8.09944,
    "category": "Mountain",
    "subcategory": "Mountain",
    "featured": false,
    "priority": 50
  },
  {
    "geonameId": 6407716,
    "name": "Ézerza",
    "latitude": 20.1675,
    "longitude": 7.69639,
    "category": "Mountain",
    "subcategory": "Mountain",
    "featured": false,
    "priority": 50
  },
  {
    "geonameId": 2598024,
    "name": "Ezguinane",
    "latitude": 19.43139,
    "longitude": 8.79139,
    "category": "Mountain",
    "subcategory": "Mountain",
    "featured": false,
    "priority": 50
  },
  {
    "geonameId": 2445148,
    "name": "Falmey",
    "latitude": 12.59539,
    "longitude": 2.85112,
    "category": "City",
    "subcategory": "City",
    "featured": false,
    "priority": 50
  },
  {
    "geonameId": 6578560,
    "name": "Faoudeout",
    "latitude": 17.6243,
    "longitude": 8.136,
    "category": "Mountain",
    "subcategory": "Mountain",
    "featured": false,
    "priority": 50
  },
  {
    "geonameId": 6397820,
    "name": "Farazzakat",
    "latitude": 18.50222,
    "longitude": 8.12583,
    "category": "Mountain",
    "subcategory": "Mountain",
    "featured": false,
    "priority": 50
  },
  {
    "geonameId": 2445088,
    "name": "Faré",
    "latitude": 14.65468,
    "longitude": 0.89554,
    "category": "Island",
    "subcategory": "Island",
    "featured": false,
    "priority": 50
  },
  {
    "geonameId": 6848624,
    "name": "Farka",
    "latitude": 14.40123,
    "longitude": 1.14947,
    "category": "Island",
    "subcategory": "Island",
    "featured": false,
    "priority": 50
  },
  {
    "geonameId": 6578160,
    "name": "Fatataouát",
    "latitude": 17.9161,
    "longitude": 8.2232,
    "category": "Mountain",
    "subcategory": "Mountain",
    "featured": false,
    "priority": 50
  },
  {
    "geonameId": 2597782,
    "name": "Felou",
    "latitude": 19.99583,
    "longitude": 7.8875,
    "category": "Mountain",
    "subcategory": "Mountain",
    "featured": false,
    "priority": 50
  },
  {
    "geonameId": 2444995,
    "name": "Filingué",
    "latitude": 14.3521,
    "longitude": 3.3168,
    "category": "City",
    "subcategory": "County Seat",
    "featured": false,
    "priority": 50
  },
  {
    "geonameId": 2597918,
    "name": "Gaouartene",
    "latitude": 20.24028,
    "longitude": 8.08028,
    "category": "Mountain",
    "subcategory": "Mountain",
    "featured": false,
    "priority": 50
  },
  {
    "geonameId": 2444489,
    "name": "Gaya",
    "latitude": 11.88435,
    "longitude": 3.44919,
    "category": "City",
    "subcategory": "County Seat",
    "featured": false,
    "priority": 50
  },
  {
    "geonameId": 2444479,
    "name": "Gazaoua",
    "latitude": 13.52578,
    "longitude": 7.91398,
    "category": "City",
    "subcategory": "City",
    "featured": false,
    "priority": 50
  },
  {
    "geonameId": 2444402,
    "name": "Gomni",
    "latitude": 14.63169,
    "longitude": 0.93709,
    "category": "Island",
    "subcategory": "Island",
    "featured": false,
    "priority": 50
  },
  {
    "geonameId": 2444334,
    "name": "Gosso Lolom Bo",
    "latitude": 16.80405,
    "longitude": 11.41777,
    "category": "Mountain",
    "subcategory": "Mountain",
    "featured": false,
    "priority": 50
  },
  {
    "geonameId": 2444331,
    "name": "Gossolorom Yalanga",
    "latitude": 16.96667,
    "longitude": 11.23333,
    "category": "Mountain",
    "subcategory": "Mountain",
    "featured": false,
    "priority": 50
  },
  {
    "geonameId": 2444329,
    "name": "Gothèye",
    "latitude": 13.8559,
    "longitude": 1.56707,
    "category": "City",
    "subcategory": "City",
    "featured": false,
    "priority": 50
  },
  {
    "geonameId": 6578408,
    "name": "Goûda",
    "latitude": 17.34139,
    "longitude": 8.70083,
    "category": "Mountain",
    "subcategory": "Mountain",
    "featured": false,
    "priority": 50
  },
  {
    "geonameId": 6578487,
    "name": "Goûda Acha",
    "latitude": 17.3681,
    "longitude": 8.3921,
    "category": "Mountain",
    "subcategory": "Mountain",
    "featured": false,
    "priority": 50
  },
  {
    "geonameId": 2444298,
    "name": "Goudoumaria",
    "latitude": 13.7109,
    "longitude": 11.1885,
    "category": "City",
    "subcategory": "City",
    "featured": false,
    "priority": 50
  },
  {
    "geonameId": 2444219,
    "name": "Gouré",
    "latitude": 13.9835,
    "longitude": 10.27035,
    "category": "City",
    "subcategory": "County Seat",
    "featured": false,
    "priority": 50
  },
  {
    "geonameId": 6407594,
    "name": "Guénou",
    "latitude": 17.9248,
    "longitude": 9.1341,
    "category": "Mountain",
    "subcategory": "Mountain",
    "featured": false,
    "priority": 50
  },
  {
    "geonameId": 2443623,
    "name": "Guidan Roumdji",
    "latitude": 13.6576,
    "longitude": 6.69567,
    "category": "City",
    "subcategory": "County Seat",
    "featured": false,
    "priority": 50
  },
  {
    "geonameId": 6855128,
    "name": "Guigui Goungou",
    "latitude": 12.78828,
    "longitude": 2.45776,
    "category": "Island",
    "subcategory": "Island",
    "featured": false,
    "priority": 50
  },
  {
    "geonameId": 2598052,
    "name": "Guiret",
    "latitude": 19.44694,
    "longitude": 8.50194,
    "category": "Mountain",
    "subcategory": "Mountain",
    "featured": false,
    "priority": 50
  },
  {
    "geonameId": 2443473,
    "name": "Guissat",
    "latitude": 17.8517,
    "longitude": 8.2406,
    "category": "Mountain",
    "subcategory": "Mountain",
    "featured": false,
    "priority": 50
  },
  {
    "geonameId": 6578652,
    "name": "I-m-Bezzegaine",
    "latitude": 17.60033,
    "longitude": 8.69732,
    "category": "Mountain",
    "subcategory": "Mountain",
    "featured": false,
    "priority": 50
  },
  {
    "geonameId": 2443218,
    "name": "I-n-Daouannat",
    "latitude": 19.48306,
    "longitude": 8.63972,
    "category": "Mountain",
    "subcategory": "Mountain",
    "featured": false,
    "priority": 50
  },
  {
    "geonameId": 2598110,
    "name": "I-n-Debîrene",
    "latitude": 19.09167,
    "longitude": 8.55,
    "category": "Mountain",
    "subcategory": "Mountain",
    "featured": false,
    "priority": 50
  },
  {
    "geonameId": 2443210,
    "name": "I-n-Edebouk",
    "latitude": 16.87722,
    "longitude": 6.46611,
    "category": "Mountain",
    "subcategory": "Mountain",
    "featured": false,
    "priority": 50
  },
  {
    "geonameId": 2443192,
    "name": "I-n-Gall",
    "latitude": 16.78778,
    "longitude": 6.93417,
    "category": "City",
    "subcategory": "City",
    "featured": false,
    "priority": 50
  },
  {
    "geonameId": 6400067,
    "name": "I-n-Guézou",
    "latitude": 18.78639,
    "longitude": 9.175,
    "category": "Mountain",
    "subcategory": "Mountain",
    "featured": false,
    "priority": 50
  },
  {
    "geonameId": 7500580,
    "name": "I-n-Habat",
    "latitude": 16.89444,
    "longitude": 5.07361,
    "category": "Mountain",
    "subcategory": "Mountain",
    "featured": false,
    "priority": 50
  },
  {
    "geonameId": 2443132,
    "name": "I-n-Ougourén",
    "latitude": 17.45611,
    "longitude": 7.39361,
    "category": "Mountain",
    "subcategory": "Mountain",
    "featured": false,
    "priority": 50
  },
  {
    "geonameId": 6397642,
    "name": "I-n-Oumii",
    "latitude": 18.83028,
    "longitude": 8.51444,
    "category": "Mountain",
    "subcategory": "Mountain",
    "featured": false,
    "priority": 50
  },
  {
    "geonameId": 6400091,
    "name": "I-n-Tabôra",
    "latitude": 18.47639,
    "longitude": 9.19111,
    "category": "Mountain",
    "subcategory": "Mountain",
    "featured": false,
    "priority": 50
  },
  {
    "geonameId": 6578372,
    "name": "I-n-Tajèt",
    "latitude": 17.3187,
    "longitude": 8.5382,
    "category": "Mountain",
    "subcategory": "Mountain",
    "featured": false,
    "priority": 50
  },
  {
    "geonameId": 6578378,
    "name": "I-n-Takakatene",
    "latitude": 17.26237,
    "longitude": 8.37707,
    "category": "Mountain",
    "subcategory": "Mountain",
    "featured": false,
    "priority": 50
  },
  {
    "geonameId": 6400130,
    "name": "I-n-Tanguet",
    "latitude": 18.24389,
    "longitude": 9.045,
    "category": "Mountain",
    "subcategory": "Mountain",
    "featured": false,
    "priority": 50
  },
  {
    "geonameId": 2443089,
    "name": "I-n-Tchilik",
    "latitude": 14.9362,
    "longitude": 8.525,
    "category": "Lake",
    "subcategory": "Lake",
    "featured": false,
    "priority": 50
  },
  {
    "geonameId": 6578360,
    "name": "I-n-Tebolarine",
    "latitude": 17.338,
    "longitude": 8.3226,
    "category": "Mountain",
    "subcategory": "Mountain",
    "featured": false,
    "priority": 50
  },
  {
    "geonameId": 6578251,
    "name": "I-n-Tilamene",
    "latitude": 17.1049,
    "longitude": 8.3408,
    "category": "Mountain",
    "subcategory": "Mountain",
    "featured": false,
    "priority": 50
  },
  {
    "geonameId": 6699529,
    "name": "I-n-Touhount",
    "latitude": 15.4863,
    "longitude": 5.7738,
    "category": "Mountain",
    "subcategory": "Mountain",
    "featured": false,
    "priority": 50
  },
  {
    "geonameId": 6400095,
    "name": "I-n-Touina",
    "latitude": 18.45861,
    "longitude": 9.22694,
    "category": "Mountain",
    "subcategory": "Mountain",
    "featured": false,
    "priority": 50
  },
  {
    "geonameId": 6307429,
    "name": "I-n-Zouager",
    "latitude": 17.40583,
    "longitude": 7.595,
    "category": "Mountain",
    "subcategory": "Mountain",
    "featured": false,
    "priority": 50
  },
  {
    "geonameId": 6407687,
    "name": "Iaoutane",
    "latitude": 17.3433,
    "longitude": 9.0138,
    "category": "Mountain",
    "subcategory": "Mountain",
    "featured": false,
    "priority": 50
  },
  {
    "geonameId": 2443370,
    "name": "Ibini",
    "latitude": 14.70466,
    "longitude": 0.89631,
    "category": "Island",
    "subcategory": "Island",
    "featured": false,
    "priority": 50
  },
  {
    "geonameId": 2597765,
    "name": "Ichighlâmîne",
    "latitude": 19.675,
    "longitude": 7.97778,
    "category": "Mountain",
    "subcategory": "Mountain",
    "featured": false,
    "priority": 50
  },
  {
    "geonameId": 2443363,
    "name": "Ichina-Naekar",
    "latitude": 18.18028,
    "longitude": 7.66722,
    "category": "Mountain",
    "subcategory": "Mountain Pass",
    "featured": false,
    "priority": 50
  },
  {
    "geonameId": 2597978,
    "name": "Idabdaba",
    "latitude": 19.54861,
    "longitude": 8.49778,
    "category": "Mountain",
    "subcategory": "Mountain",
    "featured": false,
    "priority": 50
  },
  {
    "geonameId": 6397906,
    "name": "Idebîrene",
    "latitude": 18.50861,
    "longitude": 8.27528,
    "category": "Mountain",
    "subcategory": "Mountain",
    "featured": false,
    "priority": 50
  },
  {
    "geonameId": 6397816,
    "name": "Idoukäl",
    "latitude": 18.42556,
    "longitude": 8.0125,
    "category": "Mountain",
    "subcategory": "Mountain",
    "featured": false,
    "priority": 50
  },
  {
    "geonameId": 2443354,
    "name": "Idoûkâl-n-Taghès",
    "latitude": 17.8359,
    "longitude": 8.7174,
    "category": "Mountain",
    "subcategory": "Mountain",
    "featured": false,
    "priority": 50
  },
  {
    "geonameId": 6397806,
    "name": "Iékadeot",
    "latitude": 18.5825,
    "longitude": 8.11944,
    "category": "Mountain",
    "subcategory": "Mountain",
    "featured": false,
    "priority": 50
  },
  {
    "geonameId": 2598100,
    "name": "Ifallatatene",
    "latitude": 19.15861,
    "longitude": 8.515,
    "category": "Mountain",
    "subcategory": "Mountain",
    "featured": false,
    "priority": 50
  },
  {
    "geonameId": 2443348,
    "name": "Ifefâne-n-Téjet",
    "latitude": 17.5354,
    "longitude": 8.3032,
    "category": "Mountain",
    "subcategory": "Mountain",
    "featured": false,
    "priority": 50
  },
  {
    "geonameId": 2443347,
    "name": "Ifek Anagbour",
    "latitude": 18.3,
    "longitude": 9.35,
    "category": "Mountain",
    "subcategory": "Mountain",
    "featured": false,
    "priority": 50
  },
  {
    "geonameId": 2443049,
    "name": "Ighajélébene",
    "latitude": 20.27833,
    "longitude": 8.32944,
    "category": "Mountain",
    "subcategory": "Mountain",
    "featured": false,
    "priority": 50
  },
  {
    "geonameId": 2597729,
    "name": "Iguèlélene",
    "latitude": 20.05306,
    "longitude": 7.41028,
    "category": "Mountain",
    "subcategory": "Mountain",
    "featured": false,
    "priority": 50
  },
  {
    "geonameId": 2443326,
    "name": "Ihouilene",
    "latitude": 19.91667,
    "longitude": 8.7,
    "category": "Mountain",
    "subcategory": "Mountain",
    "featured": false,
    "priority": 50
  },
  {
    "geonameId": 6578292,
    "name": "Ilane-n-Kachmama",
    "latitude": 17.1557,
    "longitude": 8.1858,
    "category": "Mountain",
    "subcategory": "Mountain",
    "featured": false,
    "priority": 50
  },
  {
    "geonameId": 2597966,
    "name": "Ilem",
    "latitude": 19.96472,
    "longitude": 8.32528,
    "category": "Mountain",
    "subcategory": "Mountain",
    "featured": false,
    "priority": 50
  },
  {
    "geonameId": 2443304,
    "name": "Illéla",
    "latitude": 14.4605,
    "longitude": 5.2437,
    "category": "City",
    "subcategory": "County Seat",
    "featured": false,
    "priority": 50
  },
  {
    "geonameId": 2597936,
    "name": "Imédérene",
    "latitude": 20.23028,
    "longitude": 8.2175,
    "category": "Mountain",
    "subcategory": "Mountain",
    "featured": false,
    "priority": 50
  },
  {
    "geonameId": 2443232,
    "name": "Inas",
    "latitude": 22.14302,
    "longitude": 11.60008,
    "category": "Mountain",
    "subcategory": "Mountain",
    "featured": false,
    "priority": 50
  },
  {
    "geonameId": 2443145,
    "name": "Inouadad",
    "latitude": 18.31667,
    "longitude": 8.95,
    "category": "Mountain",
    "subcategory": "Mountain",
    "featured": false,
    "priority": 50
  },
  {
    "geonameId": 2443029,
    "name": "Issokenouali",
    "latitude": 17.26944,
    "longitude": 7.64889,
    "category": "Mountain",
    "subcategory": "Mountain",
    "featured": false,
    "priority": 50
  },
  {
    "geonameId": 2443016,
    "name": "Izane",
    "latitude": 16.91306,
    "longitude": 6.3875,
    "category": "Mountain",
    "subcategory": "Mountain",
    "featured": false,
    "priority": 50
  },
  {
    "geonameId": 2443012,
    "name": "Izegouandan",
    "latitude": 17.76944,
    "longitude": 7.84333,
    "category": "Mountain",
    "subcategory": "Mountain",
    "featured": false,
    "priority": 50
  },
  {
    "geonameId": 2597735,
    "name": "Izerouâne",
    "latitude": 20.49528,
    "longitude": 7.21333,
    "category": "Mountain",
    "subcategory": "Mountain",
    "featured": false,
    "priority": 50
  },
  {
    "geonameId": 2597982,
    "name": "Izirzaene",
    "latitude": 19.775,
    "longitude": 8.12472,
    "category": "Mountain",
    "subcategory": "Mountain",
    "featured": false,
    "priority": 50
  },
  {
    "geonameId": 6804252,
    "name": "Kabararèye",
    "latitude": 14.9779,
    "longitude": 9.0135,
    "category": "Mountain",
    "subcategory": "Mountain",
    "featured": false,
    "priority": 50
  },
  {
    "geonameId": 2442939,
    "name": "Kabeyfou Bangou",
    "latitude": 14.31492,
    "longitude": 1.69159,
    "category": "Lake",
    "subcategory": "Lake",
    "featured": false,
    "priority": 50
  },
  {
    "geonameId": 6578626,
    "name": "Kaghak",
    "latitude": 17.72805,
    "longitude": 8.40394,
    "category": "Mountain",
    "subcategory": "Mountain",
    "featured": false,
    "priority": 50
  },
  {
    "geonameId": 7060956,
    "name": "Kalala",
    "latitude": 18.69704,
    "longitude": 12.89891,
    "category": "Lake",
    "subcategory": "Lake",
    "featured": false,
    "priority": 50
  },
  {
    "geonameId": 6855131,
    "name": "Kambatya",
    "latitude": 12.65041,
    "longitude": 2.49698,
    "category": "Island",
    "subcategory": "Island",
    "featured": false,
    "priority": 50
  },
  {
    "geonameId": 2442705,
    "name": "Kantché",
    "latitude": 13.53926,
    "longitude": 8.46293,
    "category": "City",
    "subcategory": "County Seat",
    "featured": false,
    "priority": 50
  },
  {
    "geonameId": 7034949,
    "name": "Kao Kalabita",
    "latitude": 18.40429,
    "longitude": 13.01512,
    "category": "Mountain",
    "subcategory": "Mountain",
    "featured": false,
    "priority": 50
  },
  {
    "geonameId": 6803686,
    "name": "Kao Maya",
    "latitude": 14.0551,
    "longitude": 9.6541,
    "category": "Mountain",
    "subcategory": "Mountain",
    "featured": false,
    "priority": 50
  },
  {
    "geonameId": 2442688,
    "name": "Kao Sarva",
    "latitude": 18.08333,
    "longitude": 11.65,
    "category": "Mountain",
    "subcategory": "Mountain",
    "featured": false,
    "priority": 50
  },
  {
    "geonameId": 2442676,
    "name": "Kaou Kanibé",
    "latitude": 20.80311,
    "longitude": 12.55283,
    "category": "Mountain",
    "subcategory": "Mountain",
    "featured": false,
    "priority": 50
  },
  {
    "geonameId": 2442599,
    "name": "Karkarno",
    "latitude": 14.9231,
    "longitude": 8.7264,
    "category": "Mountain",
    "subcategory": "Mountain",
    "featured": false,
    "priority": 50
  },
  {
    "geonameId": 2442478,
    "name": "Keïta",
    "latitude": 14.7551,
    "longitude": 5.7749,
    "category": "City",
    "subcategory": "County Seat",
    "featured": false,
    "priority": 50
  },
  {
    "geonameId": 2442476,
    "name": "Kékachagora",
    "latitude": 14.9202,
    "longitude": 8.772,
    "category": "Mountain",
    "subcategory": "Mountain",
    "featured": false,
    "priority": 50
  },
  {
    "geonameId": 2442470,
    "name": "Kéléourou",
    "latitude": 16.35722,
    "longitude": 7.86806,
    "category": "Mountain",
    "subcategory": "Mountain",
    "featured": false,
    "priority": 50
  },
  {
    "geonameId": 2442450,
    "name": "Keurjisou",
    "latitude": 20.48333,
    "longitude": 13.03333,
    "category": "Mountain",
    "subcategory": "Mountain",
    "featured": false,
    "priority": 50
  },
  {
    "geonameId": 6397793,
    "name": "Kézebi",
    "latitude": 18.56722,
    "longitude": 8.18639,
    "category": "Mountain",
    "subcategory": "Mountain",
    "featured": false,
    "priority": 50
  },
  {
    "geonameId": 2442433,
    "name": "Kifa",
    "latitude": 14.63048,
    "longitude": 0.96516,
    "category": "Island",
    "subcategory": "Island",
    "featured": false,
    "priority": 50
  },
  {
    "geonameId": 2442295,
    "name": "Ko Karama",
    "latitude": 22.04568,
    "longitude": 13.80136,
    "category": "Mountain",
    "subcategory": "Mountain",
    "featured": false,
    "priority": 50
  },
  {
    "geonameId": 6855136,
    "name": "Koabara",
    "latitude": 12.42948,
    "longitude": 2.76699,
    "category": "Island",
    "subcategory": "Island",
    "featured": false,
    "priority": 50
  },
  {
    "geonameId": 6578609,
    "name": "Kodri",
    "latitude": 17.7414,
    "longitude": 8.2505,
    "category": "Mountain",
    "subcategory": "Mountain",
    "featured": false,
    "priority": 50
  },
  {
    "geonameId": 7034950,
    "name": "Kokalambouleya",
    "latitude": 18.35522,
    "longitude": 13.0479,
    "category": "Mountain",
    "subcategory": "Mountain",
    "featured": false,
    "priority": 50
  },
  {
    "geonameId": 2442248,
    "name": "Kollo",
    "latitude": 13.3043,
    "longitude": 2.339,
    "category": "City",
    "subcategory": "County Seat",
    "featured": false,
    "priority": 50
  },
  {
    "geonameId": 6849369,
    "name": "Korén Mayata",
    "latitude": 14.84989,
    "longitude": 6.47501,
    "category": "Mountain",
    "subcategory": "Canyon",
    "featured": false,
    "priority": 50
  },
  {
    "geonameId": 2442128,
    "name": "Korgui",
    "latitude": 14.91679,
    "longitude": 0.78775,
    "category": "Island",
    "subcategory": "Island",
    "featured": false,
    "priority": 50
  },
  {
    "geonameId": 2442113,
    "name": "Koro Goungou",
    "latitude": 12.58728,
    "longitude": 2.51055,
    "category": "Island",
    "subcategory": "Island",
    "featured": false,
    "priority": 50
  },
  {
    "geonameId": 6855140,
    "name": "Kossékoubi",
    "latitude": 12.95541,
    "longitude": 2.37655,
    "category": "Island",
    "subcategory": "Island",
    "featured": false,
    "priority": 50
  },
  {
    "geonameId": 6400101,
    "name": "Kourda",
    "latitude": 18.36889,
    "longitude": 9.36917,
    "category": "Mountain",
    "subcategory": "Mountain",
    "featured": false,
    "priority": 50
  },
  {
    "geonameId": 8516174,
    "name": "Kouroumou Bangou",
    "latitude": 14.31106,
    "longitude": 1.57528,
    "category": "Lake",
    "subcategory": "Lake",
    "featured": false,
    "priority": 50
  },
  {
    "geonameId": 2441632,
    "name": "Loga",
    "latitude": 13.6132,
    "longitude": 3.2358,
    "category": "City",
    "subcategory": "County Seat",
    "featured": false,
    "priority": 50
  },
  {
    "geonameId": 6397581,
    "name": "Lougou",
    "latitude": 18.96111,
    "longitude": 8.55639,
    "category": "Mountain",
    "subcategory": "Mountain",
    "featured": false,
    "priority": 50
  },
  {
    "geonameId": 2441530,
    "name": "Madaoua",
    "latitude": 14.073,
    "longitude": 5.96,
    "category": "City",
    "subcategory": "County Seat",
    "featured": false,
    "priority": 50
  },
  {
    "geonameId": 2441526,
    "name": "Madarounfa",
    "latitude": 13.30867,
    "longitude": 7.15602,
    "category": "City",
    "subcategory": "County Seat",
    "featured": false,
    "priority": 50
  },
  {
    "geonameId": 2441482,
    "name": "Magaria",
    "latitude": 12.99826,
    "longitude": 8.90991,
    "category": "City",
    "subcategory": "County Seat",
    "featured": false,
    "priority": 50
  },
  {
    "geonameId": 2441447,
    "name": "Maïné Soroa",
    "latitude": 13.21139,
    "longitude": 12.0241,
    "category": "City",
    "subcategory": "County Seat",
    "featured": false,
    "priority": 50
  },
  {
    "geonameId": 2441271,
    "name": "Malasset",
    "latitude": 18.44694,
    "longitude": 8.25056,
    "category": "Mountain",
    "subcategory": "Mountain",
    "featured": false,
    "priority": 50
  },
  {
    "geonameId": 2441375,
    "name": "Malbaza",
    "latitude": 13.92706,
    "longitude": 5.52032,
    "category": "City",
    "subcategory": "City",
    "featured": false,
    "priority": 50
  },
  {
    "geonameId": 6679282,
    "name": "Malé Fala",
    "latitude": 14.3191,
    "longitude": 5.1313,
    "category": "Lake",
    "subcategory": "Lake",
    "featured": false,
    "priority": 50
  },
  {
    "geonameId": 6578632,
    "name": "Maliki",
    "latitude": 17.5962,
    "longitude": 8.6023,
    "category": "Mountain",
    "subcategory": "Mountain",
    "featured": false,
    "priority": 50
  },
  {
    "geonameId": 2597926,
    "name": "Maloma",
    "latitude": 20.06361,
    "longitude": 8.21389,
    "category": "Mountain",
    "subcategory": "Mountain",
    "featured": false,
    "priority": 50
  },
  {
    "geonameId": 2441291,
    "name": "Maradi",
    "latitude": 13.5,
    "longitude": 7.10174,
    "category": "City",
    "subcategory": "Regional Capital",
    "featured": false,
    "priority": 50
  },
  {
    "geonameId": 8516234,
    "name": "Mari Bangou",
    "latitude": 14.26049,
    "longitude": 1.54628,
    "category": "Lake",
    "subcategory": "Lake",
    "featured": false,
    "priority": 50
  },
  {
    "geonameId": 2441217,
    "name": "Matamey",
    "latitude": 13.42309,
    "longitude": 8.47485,
    "category": "City",
    "subcategory": "City",
    "featured": false,
    "priority": 50
  },
  {
    "geonameId": 2441194,
    "name": "Mayahi",
    "latitude": 13.95532,
    "longitude": 7.67122,
    "category": "City",
    "subcategory": "County Seat",
    "featured": false,
    "priority": 50
  },
  {
    "geonameId": 2440977,
    "name": "Méhana",
    "latitude": 14.39389,
    "longitude": 1.13384,
    "category": "City",
    "subcategory": "City",
    "featured": false,
    "priority": 50
  },
  {
    "geonameId": 6578622,
    "name": "Milla",
    "latitude": 17.6536,
    "longitude": 8.4661,
    "category": "Mountain",
    "subcategory": "Mountain",
    "featured": false,
    "priority": 50
  },
  {
    "geonameId": 2440921,
    "name": "Mirriah",
    "latitude": 13.70727,
    "longitude": 9.15013,
    "category": "City",
    "subcategory": "County Seat",
    "featured": false,
    "priority": 50
  },
  {
    "geonameId": 2448235,
    "name": "Mont Abarâkâm",
    "latitude": 19.4625,
    "longitude": 7.62222,
    "category": "Mountain",
    "subcategory": "Mountain",
    "featured": false,
    "priority": 50
  },
  {
    "geonameId": 2448157,
    "name": "Mont Adeket",
    "latitude": 18.3,
    "longitude": 8.58333,
    "category": "Mountain",
    "subcategory": "Mountain",
    "featured": false,
    "priority": 50
  },
  {
    "geonameId": 2447549,
    "name": "Mont Arengel",
    "latitude": 15.2,
    "longitude": 5.53333,
    "category": "Mountain",
    "subcategory": "Mountain",
    "featured": false,
    "priority": 50
  },
  {
    "geonameId": 2446870,
    "name": "Mont de Bellal",
    "latitude": 18.13333,
    "longitude": 5.25,
    "category": "Mountain",
    "subcategory": "Mountain",
    "featured": false,
    "priority": 50
  },
  {
    "geonameId": 2442188,
    "name": "Mont de Konkakeïka",
    "latitude": 14.63333,
    "longitude": 3.55,
    "category": "Mountain",
    "subcategory": "Mountain",
    "featured": false,
    "priority": 50
  },
  {
    "geonameId": 2445803,
    "name": "Mont Défirou",
    "latitude": 20.68333,
    "longitude": 15.15,
    "category": "Mountain",
    "subcategory": "Mountain",
    "featured": false,
    "priority": 50
  },
  {
    "geonameId": 2445333,
    "name": "Mont Éfeï-n-Armadar",
    "latitude": 20.13333,
    "longitude": 7.91667,
    "category": "Mountain",
    "subcategory": "Mountain",
    "featured": false,
    "priority": 50
  },
  {
    "geonameId": 2445251,
    "name": "Mont Emedrou",
    "latitude": 19.31667,
    "longitude": 8.68333,
    "category": "Mountain",
    "subcategory": "Mountain",
    "featured": false,
    "priority": 50
  },
  {
    "geonameId": 2445245,
    "name": "Mont Enfoud",
    "latitude": 18.83333,
    "longitude": 8.71667,
    "category": "Mountain",
    "subcategory": "Mountain",
    "featured": false,
    "priority": 50
  },
  {
    "geonameId": 2444985,
    "name": "Mont Firizagarane",
    "latitude": 19.6,
    "longitude": 8.75,
    "category": "Mountain",
    "subcategory": "Mountain",
    "featured": false,
    "priority": 50
  },
  {
    "geonameId": 2444941,
    "name": "Mont Fosso",
    "latitude": 18.2,
    "longitude": 11.65,
    "category": "Mountain",
    "subcategory": "Mountain",
    "featured": false,
    "priority": 50
  },
  {
    "geonameId": 2444185,
    "name": "Mont Gréboun",
    "latitude": 20,
    "longitude": 8.58333,
    "category": "Mountain",
    "subcategory": "Mountain",
    "featured": false,
    "priority": 50
  },
  {
    "geonameId": 2444166,
    "name": "Mont Guenor",
    "latitude": 17.96667,
    "longitude": 9.05,
    "category": "Mountain",
    "subcategory": "Mountain",
    "featured": false,
    "priority": 50
  },
  {
    "geonameId": 2443340,
    "name": "Mont Igharghatène",
    "latitude": 20.13333,
    "longitude": 8.2,
    "category": "Mountain",
    "subcategory": "Mountain",
    "featured": false,
    "priority": 50
  },
  {
    "geonameId": 2440869,
    "name": "Mont Moubolo",
    "latitude": 18.28695,
    "longitude": 11.55865,
    "category": "Mountain",
    "subcategory": "Mountain",
    "featured": false,
    "priority": 50
  },
  {
    "geonameId": 2440291,
    "name": "Mont Oumougueni",
    "latitude": 19.03333,
    "longitude": 8.7,
    "category": "Mountain",
    "subcategory": "Mountain",
    "featured": false,
    "priority": 50
  },
  {
    "geonameId": 2439399,
    "name": "Mont Tagouzout",
    "latitude": 18.21667,
    "longitude": 9.36667,
    "category": "Mountain",
    "subcategory": "Mountain",
    "featured": false,
    "priority": 50
  },
  {
    "geonameId": 2439188,
    "name": "Mont Tanayatine",
    "latitude": 19.33333,
    "longitude": 7.91667,
    "category": "Mountain",
    "subcategory": "Mountain",
    "featured": false,
    "priority": 50
  },
  {
    "geonameId": 2438985,
    "name": "Mont Tchimourou",
    "latitude": 18.23333,
    "longitude": 8.5,
    "category": "Mountain",
    "subcategory": "Mountain",
    "featured": false,
    "priority": 50
  },
  {
    "geonameId": 2438776,
    "name": "Mont Tibio Kida",
    "latitude": 22.31667,
    "longitude": 11.2,
    "category": "Mountain",
    "subcategory": "Mountain",
    "featured": false,
    "priority": 50
  },
  {
    "geonameId": 6578369,
    "name": "Moutermich",
    "latitude": 17.34851,
    "longitude": 8.46824,
    "category": "Mountain",
    "subcategory": "Mountain",
    "featured": false,
    "priority": 50
  },
  {
    "geonameId": 2440445,
    "name": "N-Tabakél",
    "latitude": 17.03194,
    "longitude": 7.69167,
    "category": "Mountain",
    "subcategory": "Mountain",
    "featured": false,
    "priority": 50
  },
  {
    "geonameId": 2597715,
    "name": "Najef",
    "latitude": 20.10111,
    "longitude": 7.92694,
    "category": "Mountain",
    "subcategory": "Mountain",
    "featured": false,
    "priority": 50
  },
  {
    "geonameId": 2440736,
    "name": "Nguesomi",
    "latitude": 18.74339,
    "longitude": 12.62981,
    "category": "Mountain",
    "subcategory": "Mountain",
    "featured": false,
    "priority": 50
  },
  {
    "geonameId": 2440495,
    "name": "Nguigmi",
    "latitude": 14.24953,
    "longitude": 13.10921,
    "category": "City",
    "subcategory": "County Seat",
    "featured": false,
    "priority": 50
  },
  {
    "geonameId": 2440485,
    "name": "Niamey",
    "latitude": 13.51366,
    "longitude": 2.1098,
    "category": "City",
    "subcategory": "Capital",
    "featured": false,
    "priority": 50
  },
  {
    "geonameId": 2440400,
    "name": "Onrone Nejet",
    "latitude": 18.71667,
    "longitude": 8.33333,
    "category": "Mountain",
    "subcategory": "Mountain",
    "featured": false,
    "priority": 50
  },
  {
    "geonameId": 6307427,
    "name": "Ortenyléled",
    "latitude": 17.42389,
    "longitude": 7.27667,
    "category": "Mountain",
    "subcategory": "Mountain",
    "featured": false,
    "priority": 50
  },
  {
    "geonameId": 2440382,
    "name": "Ouagadi",
    "latitude": 17.1425,
    "longitude": 7.79194,
    "category": "Mountain",
    "subcategory": "Mountain",
    "featured": false,
    "priority": 50
  },
  {
    "geonameId": 2440371,
    "name": "Ouallam",
    "latitude": 14.31641,
    "longitude": 2.08597,
    "category": "City",
    "subcategory": "County Seat",
    "featured": false,
    "priority": 50
  },
  {
    "geonameId": 6307453,
    "name": "Oumbourgén",
    "latitude": 17.03028,
    "longitude": 7.4075,
    "category": "Mountain",
    "subcategory": "Mountain",
    "featured": false,
    "priority": 50
  },
  {
    "geonameId": 6397573,
    "name": "Ounsederi",
    "latitude": 18.96333,
    "longitude": 8.27778,
    "category": "Mountain",
    "subcategory": "Mountain",
    "featured": false,
    "priority": 50
  },
  {
    "geonameId": 6400033,
    "name": "Ourtegguine",
    "latitude": 18.49778,
    "longitude": 9.07333,
    "category": "Mountain",
    "subcategory": "Mountain",
    "featured": false,
    "priority": 50
  },
  {
    "geonameId": 2598022,
    "name": "Ourzereg",
    "latitude": 19.43667,
    "longitude": 8.64,
    "category": "Mountain",
    "subcategory": "Mountain",
    "featured": false,
    "priority": 50
  },
  {
    "geonameId": 6980619,
    "name": "Parc National Du W Du Niger",
    "latitude": 12.04074,
    "longitude": 3.03423,
    "category": "Park",
    "subcategory": "Nature Reserve",
    "featured": false,
    "priority": 50
  },
  {
    "geonameId": 7009661,
    "name": "Passe de Salvador",
    "latitude": 23.27477,
    "longitude": 12.1941,
    "category": "Mountain",
    "subcategory": "Mountain Pass",
    "featured": false,
    "priority": 50
  },
  {
    "geonameId": 2448015,
    "name": "Pic d'Ahoh",
    "latitude": 22.98364,
    "longitude": 11.3818,
    "category": "Mountain",
    "subcategory": "Mountain",
    "featured": false,
    "priority": 50
  },
  {
    "geonameId": 7102867,
    "name": "Pic de Yeggueba",
    "latitude": 19.88486,
    "longitude": 12.87907,
    "category": "Mountain",
    "subcategory": "Mountain",
    "featured": false,
    "priority": 50
  },
  {
    "geonameId": 6578513,
    "name": "Rimrim",
    "latitude": 17.4522,
    "longitude": 8.1677,
    "category": "Mountain",
    "subcategory": "Mountain",
    "featured": false,
    "priority": 50
  },
  {
    "geonameId": 6398003,
    "name": "Rouraouet",
    "latitude": 18.07083,
    "longitude": 8.09639,
    "category": "Mountain",
    "subcategory": "Mountain",
    "featured": false,
    "priority": 50
  },
  {
    "geonameId": 6397742,
    "name": "Rouri-n-Azad",
    "latitude": 18.68611,
    "longitude": 8.61306,
    "category": "Mountain",
    "subcategory": "Mountain",
    "featured": false,
    "priority": 50
  },
  {
    "geonameId": 6855156,
    "name": "Sabizé Goungou",
    "latitude": 12.81798,
    "longitude": 2.44175,
    "category": "Island",
    "subcategory": "Island",
    "featured": false,
    "priority": 50
  },
  {
    "geonameId": 6398069,
    "name": "Safout",
    "latitude": 18.04806,
    "longitude": 8.43,
    "category": "Mountain",
    "subcategory": "Mountain",
    "featured": false,
    "priority": 50
  },
  {
    "geonameId": 2598106,
    "name": "Saghene",
    "latitude": 19.04306,
    "longitude": 8.54083,
    "category": "Mountain",
    "subcategory": "Mountain",
    "featured": false,
    "priority": 50
  },
  {
    "geonameId": 2598029,
    "name": "Samarat",
    "latitude": 19.4,
    "longitude": 8.8,
    "category": "Mountain",
    "subcategory": "Mountain",
    "featured": false,
    "priority": 50
  },
  {
    "geonameId": 2439914,
    "name": "Samo",
    "latitude": 12.6355,
    "longitude": 2.52691,
    "category": "Island",
    "subcategory": "Island",
    "featured": false,
    "priority": 50
  },
  {
    "geonameId": 2439909,
    "name": "Samsi",
    "latitude": 14.64502,
    "longitude": 0.94945,
    "category": "Island",
    "subcategory": "Island",
    "featured": false,
    "priority": 50
  },
  {
    "geonameId": 2439899,
    "name": "Sandar Téferkit",
    "latitude": 16.7425,
    "longitude": 5.7475,
    "category": "Mountain",
    "subcategory": "Mountain",
    "featured": false,
    "priority": 50
  },
  {
    "geonameId": 6818797,
    "name": "Sanéram",
    "latitude": 14.9734,
    "longitude": 8.7656,
    "category": "Mountain",
    "subcategory": "Mountain",
    "featured": false,
    "priority": 50
  },
  {
    "geonameId": 2439812,
    "name": "Say",
    "latitude": 13.1007,
    "longitude": 2.3689,
    "category": "City",
    "subcategory": "County Seat",
    "featured": false,
    "priority": 50
  },
  {
    "geonameId": 6578519,
    "name": "Semaghil",
    "latitude": 17.4432,
    "longitude": 8.1159,
    "category": "Mountain",
    "subcategory": "Mountain",
    "featured": false,
    "priority": 50
  },
  {
    "geonameId": 2439777,
    "name": "Séno",
    "latitude": 14.66482,
    "longitude": 0.92798,
    "category": "Island",
    "subcategory": "Island",
    "featured": false,
    "priority": 50
  },
  {
    "geonameId": 6855158,
    "name": "Sibili Goungou",
    "latitude": 12.8861,
    "longitude": 2.37883,
    "category": "Island",
    "subcategory": "Island",
    "featured": false,
    "priority": 50
  },
  {
    "geonameId": 7060957,
    "name": "Silemi",
    "latitude": 18.68883,
    "longitude": 12.95856,
    "category": "Mountain",
    "subcategory": "Mountain",
    "featured": false,
    "priority": 50
  },
  {
    "geonameId": 6306001,
    "name": "Sommani",
    "latitude": 16.35056,
    "longitude": 7.68944,
    "category": "Mountain",
    "subcategory": "Mountain",
    "featured": false,
    "priority": 50
  },
  {
    "geonameId": 6578275,
    "name": "Tabadabat",
    "latitude": 17.1975,
    "longitude": 8.3014,
    "category": "Mountain",
    "subcategory": "Mountain",
    "featured": false,
    "priority": 50
  },
  {
    "geonameId": 2439530,
    "name": "Tabalarlaré",
    "latitude": 17.63333,
    "longitude": 9.18333,
    "category": "Mountain",
    "subcategory": "Mountain",
    "featured": false,
    "priority": 50
  },
  {
    "geonameId": 2439512,
    "name": "Tabelalt",
    "latitude": 17.6968,
    "longitude": 9.5743,
    "category": "Mountain",
    "subcategory": "Mountain",
    "featured": false,
    "priority": 50
  },
  {
    "geonameId": 6407596,
    "name": "Tabelalt Ta-n-Étakas",
    "latitude": 17.7675,
    "longitude": 9.527,
    "category": "Mountain",
    "subcategory": "Mountain",
    "featured": false,
    "priority": 50
  },
  {
    "geonameId": 2597736,
    "name": "Tachet",
    "latitude": 20.45889,
    "longitude": 7.77056,
    "category": "Mountain",
    "subcategory": "Mountain",
    "featured": false,
    "priority": 50
  },
  {
    "geonameId": 6397577,
    "name": "Tadaouès",
    "latitude": 18.89944,
    "longitude": 8.36611,
    "category": "Mountain",
    "subcategory": "Mountain",
    "featured": false,
    "priority": 50
  },
  {
    "geonameId": 6578410,
    "name": "Tadrak-n-Azra",
    "latitude": 17.3578,
    "longitude": 8.7817,
    "category": "Mountain",
    "subcategory": "Mountain",
    "featured": false,
    "priority": 50
  },
  {
    "geonameId": 6306119,
    "name": "Tafadou",
    "latitude": 16.14694,
    "longitude": 7.30806,
    "category": "Mountain",
    "subcategory": "Mountain",
    "featured": false,
    "priority": 50
  },
  {
    "geonameId": 2439392,
    "name": "Tageyt",
    "latitude": 16.95722,
    "longitude": 7.67528,
    "category": "Mountain",
    "subcategory": "Mountain",
    "featured": false,
    "priority": 50
  },
  {
    "geonameId": 6407599,
    "name": "Taggogho",
    "latitude": 17.9147,
    "longitude": 9.2756,
    "category": "Mountain",
    "subcategory": "Mountain",
    "featured": false,
    "priority": 50
  },
  {
    "geonameId": 6397637,
    "name": "Taggout",
    "latitude": 18.72944,
    "longitude": 8.59389,
    "category": "Mountain",
    "subcategory": "Mountain",
    "featured": false,
    "priority": 50
  },
  {
    "geonameId": 6398011,
    "name": "Tagha",
    "latitude": 18.2025,
    "longitude": 8.51139,
    "category": "Mountain",
    "subcategory": "Mountain",
    "featured": false,
    "priority": 50
  },
  {
    "geonameId": 6578706,
    "name": "Taghès",
    "latitude": 17.8155,
    "longitude": 8.3885,
    "category": "Mountain",
    "subcategory": "Mountain",
    "featured": false,
    "priority": 50
  },
  {
    "geonameId": 6578655,
    "name": "Taghès Izzeguerit",
    "latitude": 17.6977,
    "longitude": 8.7465,
    "category": "Mountain",
    "subcategory": "Mountain",
    "featured": false,
    "priority": 50
  },
  {
    "geonameId": 6397786,
    "name": "Tagoura",
    "latitude": 18.63389,
    "longitude": 8.1375,
    "category": "Mountain",
    "subcategory": "Mountain",
    "featured": false,
    "priority": 50
  },
  {
    "geonameId": 6397804,
    "name": "Taguataouene",
    "latitude": 18.6,
    "longitude": 8.08083,
    "category": "Mountain",
    "subcategory": "Mountain",
    "featured": false,
    "priority": 50
  },
  {
    "geonameId": 6578175,
    "name": "Tagueï",
    "latitude": 17.7685,
    "longitude": 8.1427,
    "category": "Mountain",
    "subcategory": "Mountain",
    "featured": false,
    "priority": 50
  },
  {
    "geonameId": 2439376,
    "name": "Tahoua",
    "latitude": 14.8888,
    "longitude": 5.2692,
    "category": "City",
    "subcategory": "Regional Capital",
    "featured": false,
    "priority": 50
  },
  {
    "geonameId": 2439370,
    "name": "Tajabin",
    "latitude": 16.00444,
    "longitude": 7.63278,
    "category": "Mountain",
    "subcategory": "Mountain",
    "featured": false,
    "priority": 50
  },
  {
    "geonameId": 6397976,
    "name": "Takabar",
    "latitude": 18.28361,
    "longitude": 8.90611,
    "category": "Mountain",
    "subcategory": "Mountain",
    "featured": false,
    "priority": 50
  },
  {
    "geonameId": 2597730,
    "name": "Takabart",
    "latitude": 20.12111,
    "longitude": 7.42694,
    "category": "Mountain",
    "subcategory": "Mountain",
    "featured": false,
    "priority": 50
  },
  {
    "geonameId": 2439310,
    "name": "Takiéta",
    "latitude": 13.68066,
    "longitude": 8.52904,
    "category": "City",
    "subcategory": "City",
    "featured": false,
    "priority": 50
  },
  {
    "geonameId": 6578321,
    "name": "Takraokraou",
    "latitude": 17.2817,
    "longitude": 8.824,
    "category": "Mountain",
    "subcategory": "Mountain",
    "featured": false,
    "priority": 50
  },
  {
    "geonameId": 6400019,
    "name": "Talaouélaoué",
    "latitude": 18.80556,
    "longitude": 9.64222,
    "category": "Mountain",
    "subcategory": "Mountain",
    "featured": false,
    "priority": 50
  },
  {
    "geonameId": 2598093,
    "name": "Tamalaghat",
    "latitude": 19.03306,
    "longitude": 8.42722,
    "category": "Mountain",
    "subcategory": "Mountain",
    "featured": false,
    "priority": 50
  },
  {
    "geonameId": 6271036,
    "name": "Tamamat",
    "latitude": 18.84306,
    "longitude": 7.69694,
    "category": "Mountain",
    "subcategory": "Mountain",
    "featured": false,
    "priority": 50
  },
  {
    "geonameId": 6397807,
    "name": "Tamarar",
    "latitude": 18.57528,
    "longitude": 8.09194,
    "category": "Mountain",
    "subcategory": "Mountain",
    "featured": false,
    "priority": 50
  },
  {
    "geonameId": 6397674,
    "name": "Tamazane",
    "latitude": 18.82639,
    "longitude": 8.10694,
    "category": "Mountain",
    "subcategory": "Mountain",
    "featured": false,
    "priority": 50
  },
  {
    "geonameId": 2597974,
    "name": "Tamazour",
    "latitude": 19.7275,
    "longitude": 8.42361,
    "category": "Mountain",
    "subcategory": "Mountain",
    "featured": false,
    "priority": 50
  },
  {
    "geonameId": 2439212,
    "name": "Tamezé",
    "latitude": 17.89833,
    "longitude": 7.92639,
    "category": "Mountain",
    "subcategory": "Mountain",
    "featured": false,
    "priority": 50
  },
  {
    "geonameId": 6400012,
    "name": "Tamgak",
    "latitude": 18.99361,
    "longitude": 9.38806,
    "category": "Mountain",
    "subcategory": "Mountain",
    "featured": false,
    "priority": 50
  },
  {
    "geonameId": 6578582,
    "name": "Tanazamalik",
    "latitude": 17.6018,
    "longitude": 8.3464,
    "category": "Mountain",
    "subcategory": "Mountain",
    "featured": false,
    "priority": 50
  },
  {
    "geonameId": 2597961,
    "name": "Tanejem",
    "latitude": 19.92778,
    "longitude": 8.19556,
    "category": "Mountain",
    "subcategory": "Mountain",
    "featured": false,
    "priority": 50
  },
  {
    "geonameId": 6407587,
    "name": "Tanghizane",
    "latitude": 17.9851,
    "longitude": 9.4053,
    "category": "Mountain",
    "subcategory": "Mountain",
    "featured": false,
    "priority": 50
  },
  {
    "geonameId": 6400126,
    "name": "Tanoughèret",
    "latitude": 18.17083,
    "longitude": 9.36556,
    "category": "Mountain",
    "subcategory": "Mountain",
    "featured": false,
    "priority": 50
  },
  {
    "geonameId": 2439155,
    "name": "Tanout",
    "latitude": 14.97089,
    "longitude": 8.88786,
    "category": "City",
    "subcategory": "County Seat",
    "featured": false,
    "priority": 50
  },
  {
    "geonameId": 6397765,
    "name": "Taossat",
    "latitude": 18.64306,
    "longitude": 8.41,
    "category": "Mountain",
    "subcategory": "Mountain",
    "featured": false,
    "priority": 50
  },
  {
    "geonameId": 2439144,
    "name": "Taouarakat",
    "latitude": 17.62972,
    "longitude": 7.86694,
    "category": "Mountain",
    "subcategory": "Mountain",
    "featured": false,
    "priority": 50
  },
  {
    "geonameId": 6400124,
    "name": "Taouelaouel",
    "latitude": 18.19167,
    "longitude": 9.30722,
    "category": "Mountain",
    "subcategory": "Mountain",
    "featured": false,
    "priority": 50
  },
  {
    "geonameId": 2598087,
    "name": "Taouêlaouêl",
    "latitude": 19.09111,
    "longitude": 8.34361,
    "category": "Mountain",
    "subcategory": "Mountain",
    "featured": false,
    "priority": 50
  },
  {
    "geonameId": 6578653,
    "name": "Taounra",
    "latitude": 17.6226,
    "longitude": 8.7907,
    "category": "Mountain",
    "subcategory": "Mountain",
    "featured": false,
    "priority": 50
  },
  {
    "geonameId": 6407677,
    "name": "Taoussat",
    "latitude": 17.4079,
    "longitude": 9.1169,
    "category": "Mountain",
    "subcategory": "Mountain",
    "featured": false,
    "priority": 50
  },
  {
    "geonameId": 6407611,
    "name": "Taoussat-en-Tatagor",
    "latitude": 17.854,
    "longitude": 9.163,
    "category": "Mountain",
    "subcategory": "Mountain",
    "featured": false,
    "priority": 50
  },
  {
    "geonameId": 6578347,
    "name": "Taoussat-n-Aza Méllene",
    "latitude": 17.4108,
    "longitude": 8.9931,
    "category": "Mountain",
    "subcategory": "Mountain",
    "featured": false,
    "priority": 50
  },
  {
    "geonameId": 6578317,
    "name": "Taoussat-n-Ghatouene",
    "latitude": 17.18861,
    "longitude": 8.77194,
    "category": "Mountain",
    "subcategory": "Mountain",
    "featured": false,
    "priority": 50
  },
  {
    "geonameId": 6578437,
    "name": "Taoussat-n-Ghoufoud",
    "latitude": 17.585,
    "longitude": 8.832,
    "category": "Mountain",
    "subcategory": "Mountain",
    "featured": false,
    "priority": 50
  },
  {
    "geonameId": 6397649,
    "name": "Tassér",
    "latitude": 18.90278,
    "longitude": 8.42417,
    "category": "Mountain",
    "subcategory": "Mountain",
    "featured": false,
    "priority": 50
  },
  {
    "geonameId": 2598021,
    "name": "Tazaggat",
    "latitude": 19.43333,
    "longitude": 8.68611,
    "category": "Mountain",
    "subcategory": "Mountain",
    "featured": false,
    "priority": 50
  },
  {
    "geonameId": 2439035,
    "name": "Tazerzaït",
    "latitude": 18.35194,
    "longitude": 4.70944,
    "category": "Mountain",
    "subcategory": "Mountain",
    "featured": false,
    "priority": 50
  },
  {
    "geonameId": 2439034,
    "name": "Tazerzait Tamitchikat",
    "latitude": 18.66222,
    "longitude": 5.24972,
    "category": "Mountain",
    "subcategory": "Mountain",
    "featured": false,
    "priority": 50
  },
  {
    "geonameId": 6407586,
    "name": "Tazourout",
    "latitude": 17.9855,
    "longitude": 9.2305,
    "category": "Mountain",
    "subcategory": "Mountain",
    "featured": false,
    "priority": 50
  },
  {
    "geonameId": 6397631,
    "name": "Tchejamane",
    "latitude": 18.82361,
    "longitude": 8.56083,
    "category": "Mountain",
    "subcategory": "Mountain",
    "featured": false,
    "priority": 50
  },
  {
    "geonameId": 2439007,
    "name": "Tchélik",
    "latitude": 17.19972,
    "longitude": 7.85111,
    "category": "Mountain",
    "subcategory": "Mountain",
    "featured": false,
    "priority": 50
  },
  {
    "geonameId": 6397576,
    "name": "Tchérakakatene",
    "latitude": 18.90972,
    "longitude": 8.33583,
    "category": "Mountain",
    "subcategory": "Mountain",
    "featured": false,
    "priority": 50
  },
  {
    "geonameId": 6400065,
    "name": "Tcheska",
    "latitude": 18.77861,
    "longitude": 9.11111,
    "category": "Mountain",
    "subcategory": "Mountain",
    "featured": false,
    "priority": 50
  },
  {
    "geonameId": 6307438,
    "name": "Tchetna",
    "latitude": 17.06972,
    "longitude": 7.55389,
    "category": "Mountain",
    "subcategory": "Mountain",
    "featured": false,
    "priority": 50
  },
  {
    "geonameId": 6397574,
    "name": "Tchi-n-Ézerefane",
    "latitude": 18.96278,
    "longitude": 8.31694,
    "category": "Mountain",
    "subcategory": "Mountain",
    "featured": false,
    "priority": 50
  },
  {
    "geonameId": 2598017,
    "name": "Tchi-n-Gaouagane",
    "latitude": 19.50944,
    "longitude": 8.5325,
    "category": "Mountain",
    "subcategory": "Mountain",
    "featured": false,
    "priority": 50
  },
  {
    "geonameId": 6407590,
    "name": "Tchi-n-Iguifene",
    "latitude": 17.94716,
    "longitude": 9.31495,
    "category": "Mountain",
    "subcategory": "Mountain",
    "featured": false,
    "priority": 50
  },
  {
    "geonameId": 6407608,
    "name": "Tchi-n-Ouarâne",
    "latitude": 17.8967,
    "longitude": 9.2265,
    "category": "Mountain",
    "subcategory": "Mountain",
    "featured": false,
    "priority": 50
  },
  {
    "geonameId": 6397630,
    "name": "Tchi-n-Tabourak",
    "latitude": 18.84083,
    "longitude": 8.55639,
    "category": "Mountain",
    "subcategory": "Mountain",
    "featured": false,
    "priority": 50
  },
  {
    "geonameId": 6578617,
    "name": "Tchidtarene",
    "latitude": 17.66694,
    "longitude": 8.38694,
    "category": "Mountain",
    "subcategory": "Mountain",
    "featured": false,
    "priority": 50
  },
  {
    "geonameId": 6578400,
    "name": "Tchiguerfane",
    "latitude": 17.4639,
    "longitude": 8.5598,
    "category": "Mountain",
    "subcategory": "Mountain",
    "featured": false,
    "priority": 50
  },
  {
    "geonameId": 6578315,
    "name": "Tchilafaya",
    "latitude": 17.1771,
    "longitude": 8.7243,
    "category": "Mountain",
    "subcategory": "Mountain",
    "featured": false,
    "priority": 50
  },
  {
    "geonameId": 6578568,
    "name": "Tchilamsaouîne",
    "latitude": 17.6138,
    "longitude": 8.2883,
    "category": "Mountain",
    "subcategory": "Mountain",
    "featured": false,
    "priority": 50
  },
  {
    "geonameId": 6398078,
    "name": "Tchimaza-n-Tagueï",
    "latitude": 18.09361,
    "longitude": 8.57472,
    "category": "Mountain",
    "subcategory": "Mountain",
    "featured": false,
    "priority": 50
  },
  {
    "geonameId": 2598015,
    "name": "Tchimoulatine",
    "latitude": 19.55639,
    "longitude": 8.685,
    "category": "Mountain",
    "subcategory": "Mountain",
    "featured": false,
    "priority": 50
  },
  {
    "geonameId": 2438974,
    "name": "Tchin Tabaradèn",
    "latitude": 15.8969,
    "longitude": 5.7985,
    "category": "City",
    "subcategory": "County Seat",
    "featured": false,
    "priority": 50
  },
  {
    "geonameId": 6578608,
    "name": "Tchinagharíane",
    "latitude": 17.70987,
    "longitude": 8.20459,
    "category": "Mountain",
    "subcategory": "Mountain",
    "featured": false,
    "priority": 50
  },
  {
    "geonameId": 2597975,
    "name": "Tchiouanki",
    "latitude": 19.69833,
    "longitude": 8.49139,
    "category": "Mountain",
    "subcategory": "Mountain",
    "featured": false,
    "priority": 50
  },
  {
    "geonameId": 2598101,
    "name": "Tchirenkadene",
    "latitude": 19.11417,
    "longitude": 8.50278,
    "category": "Mountain",
    "subcategory": "Peak",
    "featured": false,
    "priority": 50
  },
  {
    "geonameId": 2598003,
    "name": "Tchirikene",
    "latitude": 19.66722,
    "longitude": 8.71861,
    "category": "Mountain",
    "subcategory": "Mountain",
    "featured": false,
    "priority": 50
  },
  {
    "geonameId": 6397952,
    "name": "Tchirikene Abontorok",
    "latitude": 18.32417,
    "longitude": 8.59972,
    "category": "Mountain",
    "subcategory": "Mountain",
    "featured": false,
    "priority": 50
  },
  {
    "geonameId": 8624379,
    "name": "Tchirozérine",
    "latitude": 17.22096,
    "longitude": 7.7614,
    "category": "City",
    "subcategory": "County Seat",
    "featured": false,
    "priority": 50
  },
  {
    "geonameId": 6578304,
    "name": "Tchissek",
    "latitude": 17.2441,
    "longitude": 8.2171,
    "category": "Mountain",
    "subcategory": "Mountain",
    "featured": false,
    "priority": 50
  },
  {
    "geonameId": 6578265,
    "name": "Tchitaoulaouene",
    "latitude": 17.1352,
    "longitude": 8.7855,
    "category": "Mountain",
    "subcategory": "Mountain",
    "featured": false,
    "priority": 50
  },
  {
    "geonameId": 6578425,
    "name": "Tchokane",
    "latitude": 17.5298,
    "longitude": 8.8702,
    "category": "Mountain",
    "subcategory": "Mountain",
    "featured": false,
    "priority": 50
  },
  {
    "geonameId": 6397794,
    "name": "Tchou-m-Bousmane",
    "latitude": 18.56139,
    "longitude": 8.2075,
    "category": "Mountain",
    "subcategory": "Mountain",
    "featured": false,
    "priority": 50
  },
  {
    "geonameId": 6398021,
    "name": "Tchou-n-Elmétane",
    "latitude": 18.07278,
    "longitude": 8.08833,
    "category": "Mountain",
    "subcategory": "Mountain",
    "featured": false,
    "priority": 50
  },
  {
    "geonameId": 2598083,
    "name": "Tchoumoussèli",
    "latitude": 19.04194,
    "longitude": 8.11861,
    "category": "Mountain",
    "subcategory": "Mountain",
    "featured": false,
    "priority": 50
  },
  {
    "geonameId": 6400084,
    "name": "Tchoungouyas",
    "latitude": 18.45194,
    "longitude": 9.32694,
    "category": "Mountain",
    "subcategory": "Mountain",
    "featured": false,
    "priority": 50
  },
  {
    "geonameId": 6400047,
    "name": "Tchournousselli",
    "latitude": 18.74806,
    "longitude": 9.12667,
    "category": "Mountain",
    "subcategory": "Mountain",
    "featured": false,
    "priority": 50
  },
  {
    "geonameId": 6578446,
    "name": "Tébochit",
    "latitude": 17.4836,
    "longitude": 8.7874,
    "category": "Mountain",
    "subcategory": "Mountain",
    "featured": false,
    "priority": 50
  },
  {
    "geonameId": 6578675,
    "name": "Tédinkir",
    "latitude": 17.83831,
    "longitude": 8.93068,
    "category": "Mountain",
    "subcategory": "Mountain",
    "featured": false,
    "priority": 50
  },
  {
    "geonameId": 6307474,
    "name": "Tefakan",
    "latitude": 17.00278,
    "longitude": 7.41361,
    "category": "Mountain",
    "subcategory": "Mountain",
    "featured": false,
    "priority": 50
  },
  {
    "geonameId": 6398035,
    "name": "Teghazar",
    "latitude": 18.04306,
    "longitude": 8.28611,
    "category": "Mountain",
    "subcategory": "Mountain",
    "featured": false,
    "priority": 50
  },
  {
    "geonameId": 2597720,
    "name": "Têghidet",
    "latitude": 20.34333,
    "longitude": 7.82083,
    "category": "Mountain",
    "subcategory": "Mountain",
    "featured": false,
    "priority": 50
  },
  {
    "geonameId": 6578627,
    "name": "Téguébichéri",
    "latitude": 17.5861,
    "longitude": 8.5406,
    "category": "Mountain",
    "subcategory": "Mountain",
    "featured": false,
    "priority": 50
  },
  {
    "geonameId": 6578195,
    "name": "Téguézélit",
    "latitude": 17.8276,
    "longitude": 8.6147,
    "category": "Mountain",
    "subcategory": "Mountain",
    "featured": false,
    "priority": 50
  },
  {
    "geonameId": 2438905,
    "name": "Tékaden-Ararni",
    "latitude": 18.60223,
    "longitude": 7.35486,
    "category": "Mountain",
    "subcategory": "Mountain",
    "featured": false,
    "priority": 50
  },
  {
    "geonameId": 6578335,
    "name": "Tékaouene",
    "latitude": 17.3879,
    "longitude": 8.1245,
    "category": "Mountain",
    "subcategory": "Mountain",
    "featured": false,
    "priority": 50
  },
  {
    "geonameId": 6578218,
    "name": "Tékassam",
    "latitude": 17.0346,
    "longitude": 8.0998,
    "category": "Mountain",
    "subcategory": "Mountain",
    "featured": false,
    "priority": 50
  },
  {
    "geonameId": 6578403,
    "name": "Tékénissit",
    "latitude": 17.4558,
    "longitude": 8.6278,
    "category": "Mountain",
    "subcategory": "Mountain",
    "featured": false,
    "priority": 50
  },
  {
    "geonameId": 2597717,
    "name": "Tekouit",
    "latitude": 20.19667,
    "longitude": 7.92444,
    "category": "Mountain",
    "subcategory": "Mountain",
    "featured": false,
    "priority": 50
  },
  {
    "geonameId": 2438886,
    "name": "Téléginit",
    "latitude": 17.36583,
    "longitude": 7.20306,
    "category": "Mountain",
    "subcategory": "Mountain",
    "featured": false,
    "priority": 50
  },
  {
    "geonameId": 6400121,
    "name": "Télichinene",
    "latitude": 18.34389,
    "longitude": 9.02333,
    "category": "Mountain",
    "subcategory": "Mountain",
    "featured": false,
    "priority": 50
  },
  {
    "geonameId": 6397717,
    "name": "Téloua",
    "latitude": 18.685,
    "longitude": 8.90389,
    "category": "Mountain",
    "subcategory": "Mountain",
    "featured": false,
    "priority": 50
  },
  {
    "geonameId": 2477150,
    "name": "Ténéré",
    "latitude": 19.5893,
    "longitude": 10.93398,
    "category": "Desert",
    "subcategory": "Desert",
    "featured": false,
    "priority": 50
  },
  {
    "geonameId": 2438862,
    "name": "Tengilbéna",
    "latitude": 17.02694,
    "longitude": 7.89833,
    "category": "Mountain",
    "subcategory": "Mountain",
    "featured": false,
    "priority": 50
  },
  {
    "geonameId": 6578172,
    "name": "Tenifat",
    "latitude": 17.7512,
    "longitude": 8.0304,
    "category": "Mountain",
    "subcategory": "Mountain",
    "featured": false,
    "priority": 50
  },
  {
    "geonameId": 6578177,
    "name": "Ténueghné Tamazélak",
    "latitude": 17.7293,
    "longitude": 8.1494,
    "category": "Mountain",
    "subcategory": "Mountain",
    "featured": false,
    "priority": 50
  },
  {
    "geonameId": 2598049,
    "name": "Téouat",
    "latitude": 19.21083,
    "longitude": 8.45639,
    "category": "Mountain",
    "subcategory": "Mountain",
    "featured": false,
    "priority": 50
  },
  {
    "geonameId": 6397706,
    "name": "Téout",
    "latitude": 18.78778,
    "longitude": 8.45,
    "category": "Mountain",
    "subcategory": "Mountain",
    "featured": false,
    "priority": 50
  },
  {
    "geonameId": 2438855,
    "name": "Téra",
    "latitude": 14.00776,
    "longitude": 0.75306,
    "category": "City",
    "subcategory": "County Seat",
    "featured": false,
    "priority": 50
  },
  {
    "geonameId": 2597995,
    "name": "Térabil",
    "latitude": 19.54361,
    "longitude": 8.51889,
    "category": "Mountain",
    "subcategory": "Mountain",
    "featured": false,
    "priority": 50
  },
  {
    "geonameId": 2598107,
    "name": "Terghas",
    "latitude": 19.02389,
    "longitude": 8.545,
    "category": "Mountain",
    "subcategory": "Mountain",
    "featured": false,
    "priority": 50
  },
  {
    "geonameId": 2438827,
    "name": "Téssafakoul",
    "latitude": 16.85972,
    "longitude": 6.56611,
    "category": "Mountain",
    "subcategory": "Mountain",
    "featured": false,
    "priority": 50
  },
  {
    "geonameId": 6407641,
    "name": "Téssalit Mbaoua",
    "latitude": 17.69,
    "longitude": 9.2029,
    "category": "Mountain",
    "subcategory": "Mountain",
    "featured": false,
    "priority": 50
  },
  {
    "geonameId": 2438823,
    "name": "Tessaoua",
    "latitude": 13.75737,
    "longitude": 7.9874,
    "category": "City",
    "subcategory": "County Seat",
    "featured": false,
    "priority": 50
  },
  {
    "geonameId": 6578528,
    "name": "Tessénagat",
    "latitude": 17.5787,
    "longitude": 8.2219,
    "category": "Mountain",
    "subcategory": "Mountain",
    "featured": false,
    "priority": 50
  },
  {
    "geonameId": 6397875,
    "name": "Téssiggane",
    "latitude": 18.50139,
    "longitude": 8.88111,
    "category": "Mountain",
    "subcategory": "Mountain",
    "featured": false,
    "priority": 50
  },
  {
    "geonameId": 6578514,
    "name": "Téssilit",
    "latitude": 17.4997,
    "longitude": 8.1572,
    "category": "Mountain",
    "subcategory": "Mountain",
    "featured": false,
    "priority": 50
  },
  {
    "geonameId": 6397864,
    "name": "Tessouf",
    "latitude": 18.4025,
    "longitude": 8.09833,
    "category": "Mountain",
    "subcategory": "Mountain",
    "featured": false,
    "priority": 50
  },
  {
    "geonameId": 2438809,
    "name": "Tétérkoméne",
    "latitude": 16.9175,
    "longitude": 6.88611,
    "category": "Mountain",
    "subcategory": "Mountain",
    "featured": false,
    "priority": 50
  },
  {
    "geonameId": 2438661,
    "name": "Ti-m-Bagaouéne",
    "latitude": 16.54528,
    "longitude": 6.89306,
    "category": "Mountain",
    "subcategory": "Mountain",
    "featured": false,
    "priority": 50
  },
  {
    "geonameId": 12225489,
    "name": "Ti-n-Ajer",
    "latitude": 14.96579,
    "longitude": 0.39778,
    "category": "Lake",
    "subcategory": "Lake",
    "featured": false,
    "priority": 50
  },
  {
    "geonameId": 6397750,
    "name": "Ti-n-Aouak",
    "latitude": 18.56806,
    "longitude": 8.545,
    "category": "Mountain",
    "subcategory": "Mountain",
    "featured": false,
    "priority": 50
  },
  {
    "geonameId": 2438642,
    "name": "Ti-n-Assefa",
    "latitude": 18.73333,
    "longitude": 8.58333,
    "category": "Mountain",
    "subcategory": "Mountain",
    "featured": false,
    "priority": 50
  },
  {
    "geonameId": 2438598,
    "name": "Ti-n-Sâkâne",
    "latitude": 16.38667,
    "longitude": 6.98944,
    "category": "Mountain",
    "subcategory": "Mountain",
    "featured": false,
    "priority": 50
  },
  {
    "geonameId": 6578215,
    "name": "Ti-n-Taboûrak",
    "latitude": 17.01401,
    "longitude": 8.20828,
    "category": "Mountain",
    "subcategory": "Mountain",
    "featured": false,
    "priority": 50
  },
  {
    "geonameId": 6848558,
    "name": "Tiandadji",
    "latitude": 14.24739,
    "longitude": 1.34203,
    "category": "Island",
    "subcategory": "Island",
    "featured": false,
    "priority": 50
  },
  {
    "geonameId": 2438774,
    "name": "Tibiri",
    "latitude": 13.56271,
    "longitude": 7.04848,
    "category": "City",
    "subcategory": "City",
    "featured": false,
    "priority": 50
  },
  {
    "geonameId": 6397616,
    "name": "Tiboratene",
    "latitude": 18.78556,
    "longitude": 8.71694,
    "category": "Mountain",
    "subcategory": "Mountain",
    "featured": false,
    "priority": 50
  },
  {
    "geonameId": 6397948,
    "name": "Tibougouene",
    "latitude": 18.36917,
    "longitude": 8.54972,
    "category": "Mountain",
    "subcategory": "Mountain",
    "featured": false,
    "priority": 50
  },
  {
    "geonameId": 2438767,
    "name": "Tichkout",
    "latitude": 16.75611,
    "longitude": 6.97278,
    "category": "Mountain",
    "subcategory": "Mountain",
    "featured": false,
    "priority": 50
  },
  {
    "geonameId": 2438742,
    "name": "Tiemarat",
    "latitude": 17.75,
    "longitude": 8.5,
    "category": "Mountain",
    "subcategory": "Mountain",
    "featured": false,
    "priority": 50
  },
  {
    "geonameId": 6307475,
    "name": "Tiémazani",
    "latitude": 17.17,
    "longitude": 7.13694,
    "category": "Mountain",
    "subcategory": "Mountain",
    "featured": false,
    "priority": 50
  },
  {
    "geonameId": 2597741,
    "name": "Tiferâtîne",
    "latitude": 20.52639,
    "longitude": 7.63556,
    "category": "Mountain",
    "subcategory": "Mountain",
    "featured": false,
    "priority": 50
  },
  {
    "geonameId": 6307428,
    "name": "Tigarmouen",
    "latitude": 17.37972,
    "longitude": 7.40333,
    "category": "Mountain",
    "subcategory": "Mountain",
    "featured": false,
    "priority": 50
  },
  {
    "geonameId": 6307426,
    "name": "Tigert Mazali",
    "latitude": 17.2675,
    "longitude": 7.08139,
    "category": "Mountain",
    "subcategory": "Mountain",
    "featured": false,
    "priority": 50
  },
  {
    "geonameId": 2438678,
    "name": "Tillabéri",
    "latitude": 14.20711,
    "longitude": 1.45418,
    "category": "City",
    "subcategory": "Regional Capital",
    "featured": false,
    "priority": 50
  },
  {
    "geonameId": 2438633,
    "name": "Tindé",
    "latitude": 20.62528,
    "longitude": 7.53889,
    "category": "Mountain",
    "subcategory": "Mountain",
    "featured": false,
    "priority": 50
  },
  {
    "geonameId": 2597725,
    "name": "Tioussatine",
    "latitude": 20.10889,
    "longitude": 7.68222,
    "category": "Mountain",
    "subcategory": "Mountain",
    "featured": false,
    "priority": 50
  },
  {
    "geonameId": 6397645,
    "name": "Tirikine",
    "latitude": 18.87944,
    "longitude": 8.5,
    "category": "Mountain",
    "subcategory": "Mountain",
    "featured": false,
    "priority": 50
  },
  {
    "geonameId": 6397632,
    "name": "Tissagalaouine",
    "latitude": 18.76833,
    "longitude": 8.54806,
    "category": "Mountain",
    "subcategory": "Mountain",
    "featured": false,
    "priority": 50
  },
  {
    "geonameId": 2438543,
    "name": "Tisséguélmassine",
    "latitude": 16.65444,
    "longitude": 6.91139,
    "category": "Mountain",
    "subcategory": "Mountain",
    "featured": false,
    "priority": 50
  },
  {
    "geonameId": 2438528,
    "name": "Tizo Mara",
    "latitude": 19.13333,
    "longitude": 8.5,
    "category": "Mountain",
    "subcategory": "Mountain",
    "featured": false,
    "priority": 50
  },
  {
    "geonameId": 2438522,
    "name": "Todgha",
    "latitude": 17.6756,
    "longitude": 8.50202,
    "category": "Mountain",
    "subcategory": "Mountain",
    "featured": false,
    "priority": 50
  },
  {
    "geonameId": 2438517,
    "name": "Togochia",
    "latitude": 16.73694,
    "longitude": 6.95917,
    "category": "Mountain",
    "subcategory": "Mountain",
    "featured": false,
    "priority": 50
  },