[
  {
    "geonameId": 3715180,
    "name": "Ababa Island",
    "latitude": 9.18333,
    "longitude": -79.81667,
    "category": "Island",
    "subcategory": "Island",
    "featured": false,
    "priority": 50
  },
  {
    "geonameId": 3715161,
    "name": "Achiote",
    "latitude": 9.22237,
    "longitude": -80.01889,
    "category": "City",
    "subcategory": "District Seat",
    "featured": false,
    "priority": 50
  },
  {
    "geonameId": 3715157,
    "name": "Achote Island",
    "latitude": 9.11667,
    "longitude": -79.8,
    "category": "Island",
    "subcategory": "Island",
    "featured": false,
    "priority": 50
  },
  {
    "geonameId": 3715150,
    "name": "Acora Island",
    "latitude": 9.1,
    "longitude": -79.93333,
    "category": "Island",
    "subcategory": "Island",
    "featured": false,
    "priority": 50
  },
  {
    "geonameId": 3715111,
    "name": "Agua Buena",
    "latitude": 7.83682,
    "longitude": -80.39965,
    "category": "City",
    "subcategory": "District Seat",
    "featured": false,
    "priority": 50
  },
  {
    "geonameId": 3715049,
    "name": "Agua de Salud",
    "latitude": 8.5,
    "longitude": -81.464,
    "category": "City",
    "subcategory": "District Seat",
    "featured": false,
    "priority": 50
  },
  {
    "geonameId": 10194898,
    "name": "Agua Fría Número Uno",
    "latitude": 8.85957,
    "longitude": -78.19776,
    "category": "City",
    "subcategory": "District Seat",
    "featured": false,
    "priority": 50
  },
  {
    "geonameId": 3715042,
    "name": "Aguadulce",
    "latitude": 8.24146,
    "longitude": -80.53978,
    "category": "City",
    "subcategory": "County Seat",
    "featured": false,
    "priority": 50
  },
  {
    "geonameId": 3714957,
    "name": "Ailigandí Island",
    "latitude": 9.22907,
    "longitude": -78.02842,
    "category": "Island",
    "subcategory": "Island",
    "featured": false,
    "priority": 50
  },
  {
    "geonameId": 3714952,
    "name": "Aji Island",
    "latitude": 9.13333,
    "longitude": -79.78333,
    "category": "Island",
    "subcategory": "Island",
    "featured": false,
    "priority": 50
  },
  {
    "geonameId": 3714951,
    "name": "Aji Key",
    "latitude": 9.13333,
    "longitude": -79.78333,
    "category": "Island",
    "subcategory": "Island",
    "featured": false,
    "priority": 50
  },
  {
    "geonameId": 3714939,
    "name": "Alanje",
    "latitude": 8.39997,
    "longitude": -82.55873,
    "category": "City",
    "subcategory": "County Seat",
    "featured": false,
    "priority": 50
  },
  {
    "geonameId": 3713376,
    "name": "Alberca Camacho",
    "latitude": 9.03333,
    "longitude": -79.68333,
    "category": "Lake",
    "subcategory": "Reservoir",
    "featured": false,
    "priority": 50
  },
  {
    "geonameId": 3701866,
    "name": "Alberca Río Grande",
    "latitude": 9.03333,
    "longitude": -79.65,
    "category": "Lake",
    "subcategory": "Reservoir",
    "featured": false,
    "priority": 50
  },
  {
    "geonameId": 3714932,
    "name": "Alcalde Díaz",
    "latitude": 9.12273,
    "longitude": -79.55667,
    "category": "City",
    "subcategory": "District Seat",
    "featured": false,
    "priority": 50
  },
  {
    "geonameId": 3714921,
    "name": "Alfajia Keys",
    "latitude": 9.26667,
    "longitude": -79.78333,
    "category": "Island",
    "subcategory": "Island Group",
    "featured": false,
    "priority": 50
  },
  {
    "geonameId": 3714896,
    "name": "Almirante",
    "latitude": 9.30091,
    "longitude": -82.4018,
    "category": "City",
    "subcategory": "City",
    "featured": false,
    "priority": 50
  },
  {
    "geonameId": 3713881,
    "name": "Alto Bonito",
    "latitude": 8.18525,
    "longitude": -81.33702,
    "category": "Mountain",
    "subcategory": "Mountain",
    "featured": false,
    "priority": 50
  },
  {
    "geonameId": 3714875,
    "name": "Alto Boquete",
    "latitude": 8.73615,
    "longitude": -82.43331,
    "category": "City",
    "subcategory": "District Seat",
    "featured": false,
    "priority": 50
  },
  {
    "geonameId": 3713842,
    "name": "Alto Boró",
    "latitude": 8.18446,
    "longitude": -81.34288,
    "category": "Mountain",
    "subcategory": "Mountain",
    "featured": false,
    "priority": 50
  },
  {
    "geonameId": 3714873,
    "name": "Alto Caballero",
    "latitude": 8.29324,
    "longitude": -81.67511,
    "category": "City",
    "subcategory": "District Seat",
    "featured": false,
    "priority": 50
  },
  {
    "geonameId": 9253859,
    "name": "Alto Calvario",
    "latitude": 8.63474,
    "longitude": -80.36619,
    "category": "Mountain",
    "subcategory": "Peak",
    "featured": false,
    "priority": 50
  },
  {
    "geonameId": 12202474,
    "name": "Alto de Colorado",
    "latitude": 8.85012,
    "longitude": -82.69711,
    "category": "Mountain",
    "subcategory": "Mountain",
    "featured": false,
    "priority": 50
  },
  {
    "geonameId": 3711728,
    "name": "Alto de Culantro",
    "latitude": 8.1964,
    "longitude": -81.48114,
    "category": "Mountain",
    "subcategory": "Mountain",
    "featured": false,
    "priority": 50
  },
  {
    "geonameId": 3710625,
    "name": "Alto de El Jacinto",
    "latitude": 7.68317,
    "longitude": -80.79701,
    "category": "Mountain",
    "subcategory": "Mountain",
    "featured": false,
    "priority": 50
  },
  {
    "geonameId": 3708579,
    "name": "Alto de Huesitales",
    "latitude": 7.88516,
    "longitude": -81.42515,
    "category": "Mountain",
    "subcategory": "Mountain",
    "featured": false,
    "priority": 50
  },
  {
    "geonameId": 3708465,
    "name": "Alto de Jacinto",
    "latitude": 8.42795,
    "longitude": -81.46461,
    "category": "Mountain",
    "subcategory": "Mountain",
    "featured": false,
    "priority": 50
  },
  {
    "geonameId": 10348753,
    "name": "Alto de Jesús",
    "latitude": 8.26152,
    "longitude": -81.48412,
    "category": "City",
    "subcategory": "District Seat",
    "featured": false,
    "priority": 50
  },
  {
    "geonameId": 3707744,
    "name": "Alto de La Estancia",
    "latitude": 8.58333,
    "longitude": -80.18333,
    "category": "Mountain",
    "subcategory": "Mountain",
    "featured": false,
    "priority": 50
  },
  {
    "geonameId": 3714846,
    "name": "Alto de La Mesita",
    "latitude": 8.1424,
    "longitude": -81.5167,
    "category": "Mountain",
    "subcategory": "Mountain",
    "featured": false,
    "priority": 50
  },
  {
    "geonameId": 12220208,
    "name": "Alto de Las Huacas",
    "latitude": 8.17629,
    "longitude": -81.52078,
    "category": "Mountain",
    "subcategory": "Mountain",
    "featured": false,
    "priority": 50
  },
  {
    "geonameId": 3706373,
    "name": "Alto de Las Matas",
    "latitude": 7.6318,
    "longitude": -80.78222,
    "category": "Mountain",
    "subcategory": "Mountain",
    "featured": false,
    "priority": 50
  },
  {
    "geonameId": 12227067,
    "name": "Alto de Los González",
    "latitude": 8.549,
    "longitude": -81.07788,
    "category": "Mountain",
    "subcategory": "Mountain",
    "featured": false,
    "priority": 50
  },
  {
    "geonameId": 3705194,
    "name": "Alto de Los Michos",
    "latitude": 8.20444,
    "longitude": -81.4823,
    "category": "Mountain",
    "subcategory": "Mountain",
    "featured": false,
    "priority": 50
  },
  {
    "geonameId": 3712306,
    "name": "Alto del Chumico",
    "latitude": 7.6533,
    "longitude": -80.79187,
    "category": "Mountain",
    "subcategory": "Mountain",
    "featured": false,
    "priority": 50
  },
  {
    "geonameId": 3712210,
    "name": "Alto del Ciruelito",
    "latitude": 8.42186,
    "longitude": -81.4604,
    "category": "Mountain",
    "subcategory": "Mountain",
    "featured": false,
    "priority": 50
  },
  {
    "geonameId": 3712040,
    "name": "Alto del Común",
    "latitude": 7.75925,
    "longitude": -81.39591,
    "category": "Mountain",
    "subcategory": "Mountain",
    "featured": false,
    "priority": 50
  },
  {
    "geonameId": 3711989,
    "name": "Alto del Copé",
    "latitude": 7.67997,
    "longitude": -80.72215,
    "category": "Mountain",
    "subcategory": "Mountain",
    "featured": false,
    "priority": 50
  },
  {
    "geonameId": 3711853,
    "name": "Alto del Cortezo",
    "latitude": 7.65073,
    "longitude": -80.89053,
    "category": "Mountain",
    "subcategory": "Mountain",
    "featured": false,
    "priority": 50
  },
  {
    "geonameId": 3708513,
    "name": "Alto del Infiernillo",
    "latitude": 7.75494,
    "longitude": -81.38507,
    "category": "Mountain",
    "subcategory": "Mountain",
    "featured": false,
    "priority": 50
  },
  {
    "geonameId": 12227097,
    "name": "Alto del Pito",
    "latitude": 8.53527,
    "longitude": -81.04203,
    "category": "Mountain",
    "subcategory": "Mountain",
    "featured": false,
    "priority": 50
  },
  {
    "geonameId": 12215190,
    "name": "Alto del Pontón",
    "latitude": 7.92007,
    "longitude": -81.47069,
    "category": "Mountain",
    "subcategory": "Mountain",
    "featured": false,
    "priority": 50
  },
  {
    "geonameId": 12227098,
    "name": "Alto Espavé",
    "latitude": 8.53634,
    "longitude": -81.04709,
    "category": "Mountain",
    "subcategory": "Mountain",
    "featured": false,
    "priority": 50
  },
  {
    "geonameId": 12211236,
    "name": "Alto Los Miranda",
    "latitude": 8.16425,
    "longitude": -81.61386,
    "category": "Mountain",
    "subcategory": "Mountain",
    "featured": false,
    "priority": 50
  },
  {
    "geonameId": 12204759,
    "name": "Alto Mamey",
    "latitude": 7.61508,
    "longitude": -80.72607,
    "category": "Mountain",
    "subcategory": "Mountain",
    "featured": false,
    "priority": 50
  },
  {
    "geonameId": 3714771,
    "name": "Altos de Güera",
    "latitude": 7.53123,
    "longitude": -80.62094,
    "category": "City",
    "subcategory": "District Seat",
    "featured": false,
    "priority": 50
  },
  {
    "geonameId": 3714734,
    "name": "Ancón",
    "latitude": 8.96015,
    "longitude": -79.5514,
    "category": "City",
    "subcategory": "City",
    "featured": false,
    "priority": 50
  },
  {
    "geonameId": 3714710,
    "name": "Antón",
    "latitude": 8.39677,
    "longitude": -80.26499,
    "category": "City",
    "subcategory": "County Seat",
    "featured": false,
    "priority": 50
  },
  {
    "geonameId": 3713958,
    "name": "Archipiélago de Bocas del Toro",
    "latitude": 9.27581,
    "longitude": -82.20611,
    "category": "Island",
    "subcategory": "Island Group",
    "featured": false,
    "priority": 50
  },
  {
    "geonameId": 12175813,
    "name": "Archipiélago de Las Perlas",
    "latitude": 8.47812,
    "longitude": -78.90455,
    "category": "Island",
    "subcategory": "Island Group",
    "featured": false,
    "priority": 50
  },
  {
    "geonameId": 3701539,
    "name": "Archipiélago de San Blas",
    "latitude": 9.48408,
    "longitude": -78.67524,
    "category": "Island",
    "subcategory": "Island Group",
    "featured": false,
    "priority": 50
  },
  {
    "geonameId": 3702057,
    "name": "Arco Iris",
    "latitude": 9.33818,
    "longitude": -79.89245,
    "category": "City",
    "subcategory": "District Seat",
    "featured": false,
    "priority": 50
  },
  {
    "geonameId": 3714672,
    "name": "Arenas",
    "latitude": 7.37003,
    "longitude": -80.85949,
    "category": "City",
    "subcategory": "District Seat",
    "featured": false,
    "priority": 50
  },
  {
    "geonameId": 3714641,
    "name": "Arosemena",
    "latitude": 8.97343,
    "longitude": -79.96527,
    "category": "City",
    "subcategory": "District Seat",
    "featured": false,
    "priority": 50
  },
  {
    "geonameId": 3714637,
    "name": "Arraiján",
    "latitude": 8.9398,
    "longitude": -79.64038,
    "category": "City",
    "subcategory": "County Seat",
    "featured": false,
    "priority": 50
  },
  {
    "geonameId": 3714611,
    "name": "Aserrío de Gariché",
    "latitude": 8.48641,
    "longitude": -82.78932,
    "category": "City",
    "subcategory": "District Seat",
    "featured": false,
    "priority": 50
  },
  {
    "geonameId": 3714598,
    "name": "Atalaya",
    "latitude": 8.04358,
    "longitude": -80.92482,
    "category": "City",
    "subcategory": "County Seat",
    "featured": false,
    "priority": 50
  },
  {
    "geonameId": 3714579,
    "name": "Ave María",
    "latitude": 7.32481,
    "longitude": -80.45361,
    "category": "City",
    "subcategory": "District Seat",
    "featured": false,
    "priority": 50
  },
  {
    "geonameId": 3714543,
    "name": "Bágala",
    "latitude": 8.46711,
    "longitude": -82.52688,
    "category": "City",
    "subcategory": "District Seat",
    "featured": false,
    "priority": 50
  },
  {
    "geonameId": 3714538,
    "name": "Bahía Azul",
    "latitude": 9.14176,
    "longitude": -81.89425,
    "category": "City",
    "subcategory": "District Seat",
    "featured": false,
    "priority": 50
  },
  {
    "geonameId": 3714536,
    "name": "Bahía Honda",
    "latitude": 7.70901,
    "longitude": -80.45139,
    "category": "City",
    "subcategory": "District Seat",
    "featured": false,
    "priority": 50
  },
  {
    "geonameId": 3714513,
    "name": "Bajo Boquete",
    "latitude": 8.77058,
    "longitude": -82.43306,
    "category": "City",
    "subcategory": "County Seat",
    "featured": false,
    "priority": 50
  },
  {
    "geonameId": 3714504,
    "name": "Bajo Corral",
    "latitude": 7.60637,
    "longitude": -80.25857,
    "category": "City",
    "subcategory": "District Seat",
    "featured": false,
    "priority": 50
  },
  {
    "geonameId": 3700029,
    "name": "Bajo de Viveros",
    "latitude": 8.49323,
    "longitude": -78.97187,
    "category": "Island",
    "subcategory": "Island",
    "featured": false,
    "priority": 50
  },
  {
    "geonameId": 10347864,
    "name": "Bajo Solís",
    "latitude": 8.32708,
    "longitude": -81.53306,
    "category": "City",
    "subcategory": "District Seat",
    "featured": false,
    "priority": 50
  },
  {
    "geonameId": 3714439,
    "name": "Bajos de Güera",
    "latitude": 7.54424,
    "longitude": -80.62623,
    "category": "City",
    "subcategory": "District Seat",
    "featured": false,
    "priority": 50
  },
  {
    "geonameId": 3714360,
    "name": "Barbacoas Key",
    "latitude": 9.13333,
    "longitude": -79.8,
    "category": "Island",
    "subcategory": "Island",
    "featured": false,
    "priority": 50
  },
  {
    "geonameId": 3714347,
    "name": "Barnizal",
    "latitude": 8.4046,
    "longitude": -80.77765,
    "category": "City",
    "subcategory": "District Seat",
    "featured": false,
    "priority": 50
  },
  {
    "geonameId": 3714334,
    "name": "Barranco Colorado",
    "latitude": 8.38777,
    "longitude": -80.63673,
    "category": "City",
    "subcategory": "District Seat",
    "featured": false,
    "priority": 50
  },
  {
    "geonameId": 10194271,
    "name": "Barriales",
    "latitude": 8.59396,
    "longitude": -78.38409,
    "category": "City",
    "subcategory": "District Seat",
    "featured": false,
    "priority": 50
  },
  {
    "geonameId": 3714270,
    "name": "Barrote Island",
    "latitude": 9.05,
    "longitude": -80.06667,
    "category": "Island",
    "subcategory": "Island",
    "featured": false,
    "priority": 50
  },
  {
    "geonameId": 3714268,
    "name": "Bartolome Island",
    "latitude": 8.64967,
    "longitude": -79.0359,
    "category": "Island",
    "subcategory": "Island",
    "featured": false,
    "priority": 50
  },
  {
    "geonameId": 3714263,
    "name": "Bastimentos",
    "latitude": 9.34862,
    "longitude": -82.21091,
    "category": "City",
    "subcategory": "District Seat",
    "featured": false,
    "priority": 50
  },
  {
    "geonameId": 10202392,
    "name": "Bayamón",
    "latitude": 7.96817,
    "longitude": -78.21648,
    "category": "City",
    "subcategory": "District Seat",
    "featured": false,
    "priority": 50
  },
  {
    "geonameId": 3714231,
    "name": "Bayano",
    "latitude": 7.6381,
    "longitude": -80.38466,
    "category": "City",
    "subcategory": "District Seat",
    "featured": false,
    "priority": 50
  },
  {
    "geonameId": 3714201,
    "name": "Bejuco",
    "latitude": 8.60501,
    "longitude": -79.88654,
    "category": "City",
    "subcategory": "District Seat",
    "featured": false,
    "priority": 50
  },
  {
    "geonameId": 3714188,
    "name": "Bejuco Island",
    "latitude": 9.13333,
    "longitude": -79.93333,
    "category": "Island",
    "subcategory": "Island",
    "featured": false,
    "priority": 50
  },
  {
    "geonameId": 3714166,
    "name": "Bella Vista",
    "latitude": 8.98475,
    "longitude": -79.52538,
    "category": "City",
    "subcategory": "District Seat",
    "featured": false,
    "priority": 50
  },
  {
    "geonameId": 3714134,
    "name": "Betania",
    "latitude": 9.01156,
    "longitude": -79.52763,
    "category": "City",
    "subcategory": "District Seat",
    "featured": false,
    "priority": 50
  },
  {
    "geonameId": 3714127,
    "name": "Big Plantain Cay",
    "latitude": 9.13212,
    "longitude": -81.80337,
    "category": "Island",
    "subcategory": "Island Group",
    "featured": false,
    "priority": 50
  },
  {
    "geonameId": 3714123,
    "name": "Bijagual",
    "latitude": 8.51486,
    "longitude": -82.33361,
    "category": "City",
    "subcategory": "District Seat",
    "featured": false,
    "priority": 50
  },
  {
    "geonameId": 3714101,
    "name": "Bisira",
    "latitude": 8.9008,
    "longitude": -81.86358,
    "category": "City",
    "subcategory": "County Seat",
    "featured": false,
    "priority": 50
  },
  {
    "geonameId": 3714098,
    "name": "Bisvalles",
    "latitude": 8.18465,
    "longitude": -81.22107,
    "category": "City",
    "subcategory": "District Seat",
    "featured": false,
    "priority": 50
  },
  {
    "geonameId": 3714063,
    "name": "Boca Chica",
    "latitude": 8.22038,
    "longitude": -82.21852,
    "category": "City",
    "subcategory": "District Seat",
    "featured": false,
    "priority": 50
  },
  {
    "geonameId": 3714056,
    "name": "Boca Ciri Keys",
    "latitude": 9.05,
    "longitude": -80.06667,
    "category": "Island",
    "subcategory": "Island Group",
    "featured": false,
    "priority": 50
  },
  {
    "geonameId": 10347390,
    "name": "Boca de Balsa",
    "latitude": 8.52995,
    "longitude": -82.03132,
    "category": "City",
    "subcategory": "District Seat",
    "featured": false,
    "priority": 50
  },
  {
    "geonameId": 3714043,
    "name": "Boca de Cupe",
    "latitude": 8.03464,
    "longitude": -77.58614,
    "category": "City",
    "subcategory": "District Seat",
    "featured": false,
    "priority": 50
  },
  {
    "geonameId": 3714014,
    "name": "Boca de Río Chiriquí",
    "latitude": 8.84065,
    "longitude": -81.56461,
    "category": "City",
    "subcategory": "District Seat",
    "featured": false,
    "priority": 50
  },
  {
    "geonameId": 3714013,
    "name": "Boca de Río Indio",
    "latitude": 9.19273,
    "longitude": -80.19068,
    "category": "City",
    "subcategory": "District Seat",
    "featured": false,
    "priority": 50
  },
  {
    "geonameId": 3714021,
    "name": "Boca del Monte",
    "latitude": 8.35644,
    "longitude": -82.11687,
    "category": "City",
    "subcategory": "District Seat",
    "featured": false,
    "priority": 50
  },
  {
    "geonameId": 3713959,
    "name": "Bocas del Toro",
    "latitude": 9.34031,
    "longitude": -82.24204,
    "category": "City",
    "subcategory": "Regional Capital",
    "featured": false,
    "priority": 50
  },
  {
    "geonameId": 3713930,
    "name": "Bola Island",
    "latitude": 9.21667,
    "longitude": -79.95,
    "category": "Island",
    "subcategory": "Island",
    "featured": false,
    "priority": 50
  },
  {
    "geonameId": 3713909,
    "name": "Bona Island",
    "latitude": 9.05,
    "longitude": -79.98333,
    "category": "Island",
    "subcategory": "Island",
    "featured": false,
    "priority": 50
  },
  {
    "geonameId": 3713892,
    "name": "Bongo Keys",
    "latitude": 9.05,
    "longitude": -80.06667,
    "category": "Island",
    "subcategory": "Island Group",
    "featured": false,
    "priority": 50
  },
  {
    "geonameId": 3713873,
    "name": "Boquerón",
    "latitude": 8.50773,
    "longitude": -82.5707,
    "category": "City",
    "subcategory": "County Seat",
    "featured": false,
    "priority": 50
  },
  {
    "geonameId": 3713860,
    "name": "Boquete",
    "latitude": 8.78024,
    "longitude": -82.44136,
    "category": "City",
    "subcategory": "City",
    "featured": false,
    "priority": 50
  },
  {
    "geonameId": 3713843,
    "name": "Boró",
    "latitude": 8.17201,
    "longitude": -81.30121,
    "category": "City",
    "subcategory": "District Seat",
    "featured": false,
    "priority": 50
  },
  {
    "geonameId": 12199313,
    "name": "Bosque Protector Palo Seco",
    "latitude": 9.16945,
    "longitude": -82.603,
    "category": "Park",
    "subcategory": "Nature Reserve",
    "featured": false,
    "priority": 50
  },
  {
    "geonameId": 3713783,
    "name": "Breñón",
    "latitude": 8.62626,
    "longitude": -82.81349,
    "category": "City",
    "subcategory": "District Seat",
    "featured": false,
    "priority": 50
  },
  {
    "geonameId": 3713774,
    "name": "Brooklyn Island",
    "latitude": 9.11718,
    "longitude": -79.71727,
    "category": "Island",
    "subcategory": "Island",
    "featured": false,
    "priority": 50
  },
  {
    "geonameId": 3713768,
    "name": "Brujas",
    "latitude": 8.5861,
    "longitude": -78.53145,
    "category": "City",
    "subcategory": "District Seat",
    "featured": false,
    "priority": 50
  },
  {
    "geonameId": 3713715,
    "name": "Buena Vista",
    "latitude": 9.27389,
    "longitude": -79.6958,
    "category": "City",
    "subcategory": "District Seat",
    "featured": false,
    "priority": 50
  },
  {
    "geonameId": 3713678,
    "name": "Buenos Aires",
    "latitude": 8.63146,
    "longitude": -79.94775,
    "category": "City",
    "subcategory": "District Seat",
    "featured": false,
    "priority": 50
  },
  {
    "geonameId": 3713667,
    "name": "Bugaba",
    "latitude": 8.48606,
    "longitude": -82.62023,
    "category": "City",
    "subcategory": "District Seat",
    "featured": false,
    "priority": 50
  },
  {
    "geonameId": 3713662,
    "name": "Buharro Key",
    "latitude": 9.11667,
    "longitude": -79.73333,
    "category": "Island",
    "subcategory": "Island",
    "featured": false,
    "priority": 50
  },
  {
    "geonameId": 3713648,
    "name": "Burunga",
    "latitude": 8.96185,
    "longitude": -79.67228,
    "category": "City",
    "subcategory": "District Seat",
    "featured": false,
    "priority": 50
  },
  {
    "geonameId": 3713637,
    "name": "Caballero",
    "latitude": 8.54507,
    "longitude": -80.19718,
    "category": "City",
    "subcategory": "District Seat",
    "featured": false,
    "priority": 50
  },
  {
    "geonameId": 3713626,
    "name": "Caballo Island",
    "latitude": 9.1,
    "longitude": -79.78333,
    "category": "Island",
    "subcategory": "Island",
    "featured": false,
    "priority": 50
  },
  {
    "geonameId": 10347484,
    "name": "Cabecera de Cerro Puerco",
    "latitude": 8.30678,
    "longitude": -81.7555,
    "category": "City",
    "subcategory": "District Seat",
    "featured": false,
    "priority": 50
  },
  {
    "geonameId": 3713583,
    "name": "Cabra Loma Island",
    "latitude": 9.23333,
    "longitude": -79.9,
    "category": "Island",
    "subcategory": "Island",
    "featured": false,
    "priority": 50
  },
  {
    "geonameId": 3713571,
    "name": "Cabuya",
    "latitude": 8.57656,
    "longitude": -79.92335,
    "category": "City",
    "subcategory": "District Seat",
    "featured": false,
    "priority": 50
  },
  {
    "geonameId": 3711302,
    "name": "Cacao",
    "latitude": 8.76016,
    "longitude": -80.01342,
    "category": "City",
    "subcategory": "District Seat",
    "featured": false,
    "priority": 50
  },
  {
    "geonameId": 3713533,
    "name": "Cacha Island",
    "latitude": 9.08333,
    "longitude": -79.8,
    "category": "Island",
    "subcategory": "Island",
    "featured": false,
    "priority": 50
  },
  {
    "geonameId": 3713523,
    "name": "Cacique",
    "latitude": 9.6118,
    "longitude": -79.61581,
    "category": "City",
    "subcategory": "District Seat",
    "featured": false,
    "priority": 50
  },
  {
    "geonameId": 3713489,
    "name": "Caimito",
    "latitude": 8.81564,
    "longitude": -79.94661,
    "category": "City",
    "subcategory": "District Seat",
    "featured": false,
    "priority": 50
  },
  {
    "geonameId": 3713465,
    "name": "Calabacito",
    "latitude": 8.24545,
    "longitude": -81.07978,
    "category": "City",
    "subcategory": "District Seat",
    "featured": false,
    "priority": 50
  },
  {
    "geonameId": 3713430,
    "name": "Caldera",
    "latitude": 8.65419,
    "longitude": -82.37991,
    "category": "City",
    "subcategory": "District Seat",
    "featured": false,
    "priority": 50
  },
  {
    "geonameId": 3713415,
    "name": "Calidonia",
    "latitude": 8.96726,
    "longitude": -79.53586,
    "category": "City",
    "subcategory": "District Seat",
    "featured": false,
    "priority": 50
  },
  {
    "geonameId": 3713396,
    "name": "Calobre",
    "latitude": 8.32078,
    "longitude": -80.84104,
    "category": "City",
    "subcategory": "County Seat",
    "featured": false,
    "priority": 50
  },
  {
    "geonameId": 3713390,
    "name": "Calovébora",
    "latitude": 8.78703,
    "longitude": -81.21056,
    "category": "City",
    "subcategory": "District Seat",
    "featured": false,
    "priority": 50
  },
  {
    "geonameId": 3713349,
    "name": "Camarón Arriba",
    "latitude": 8.38774,
    "longitude": -81.9965,
    "category": "City",
    "subcategory": "District Seat",
    "featured": false,
    "priority": 50
  },
  {
    "geonameId": 3713339,
    "name": "Cambutal",
    "latitude": 7.26573,
    "longitude": -80.48725,
    "category": "City",
    "subcategory": "District Seat",
    "featured": false,
    "priority": 50
  },
  {
    "geonameId": 10194748,
    "name": "Camogantí",
    "latitude": 8.04171,
    "longitude": -77.88682,
    "category": "City",
    "subcategory": "District Seat",
    "featured": false,
    "priority": 50
  },
  {
    "geonameId": 3713224,
    "name": "Cañas",
    "latitude": 7.44808,
    "longitude": -80.26276,
    "category": "City",
    "subcategory": "District Seat",
    "featured": false,
    "priority": 50
  },
  {
    "geonameId": 3713212,
    "name": "Cañas Gordas",
    "latitude": 8.74716,
    "longitude": -82.9172,
    "category": "City",
    "subcategory": "District Seat",
    "featured": false,
    "priority": 50
  },
  {
    "geonameId": 3713208,
    "name": "Cañaveral",
    "latitude": 8.51667,
    "longitude": -80.43044,
    "category": "City",
    "subcategory": "District Seat",
    "featured": false,
    "priority": 50
  },
  {
    "geonameId": 3713196,
    "name": "Cañazas",
    "latitude": 8.32004,
    "longitude": -81.21152,
    "category": "City",
    "subcategory": "County Seat",
    "featured": false,
    "priority": 50
  },
  {
    "geonameId": 3713131,
    "name": "Cañita",
    "latitude": 9.22236,
    "longitude": -78.89509,
    "category": "City",
    "subcategory": "District Seat",
    "featured": false,
    "priority": 50
  },
  {
    "geonameId": 3713065,
    "name": "Canto del Llano",
    "latitude": 8.12307,
    "longitude": -80.96422,
    "category": "City",
    "subcategory": "District Seat",
    "featured": false,
    "priority": 50
  },
  {
    "geonameId": 3713051,
    "name": "Capellanía",
    "latitude": 8.30222,
    "longitude": -80.55326,
    "category": "City",
    "subcategory": "District Seat",
    "featured": false,
    "priority": 50
  },
  {
    "geonameId": 3713047,
    "name": "Capira",
    "latitude": 8.7584,
    "longitude": -79.8776,
    "category": "City",
    "subcategory": "County Seat",
    "featured": false,
    "priority": 50
  },
  {
    "geonameId": 3713025,
    "name": "Caracol Island",
    "latitude": 9.2,
    "longitude": -79.58333,
    "category": "Island",
    "subcategory": "Island",
    "featured": false,
    "priority": 50
  },
  {
    "geonameId": 3712952,
    "name": "Cartí Satubgua",
    "latitude": 9.47086,
    "longitude": -78.96132,
    "category": "Island",
    "subcategory": "Island",
    "featured": false,
    "priority": 50
  },
  {
    "geonameId": 3712938,
    "name": "Cascabel",
    "latitude": 8.52723,
    "longitude": -81.87593,
    "category": "City",
    "subcategory": "District Seat",
    "featured": false,
    "priority": 50
  },
  {
    "geonameId": 7303226,
    "name": "Cascada Alejandro",
    "latitude": 8.82511,
    "longitude": -82.50119,
    "category": "Waterfall",
    "subcategory": "Waterfall",
    "featured": false,
    "priority": 50
  },
  {
    "geonameId": 12202578,
    "name": "Cascada San Ramón",
    "latitude": 8.81744,
    "longitude": -82.46549,
    "category": "Waterfall",
    "subcategory": "Waterfall",
    "featured": false,
    "priority": 50
  },
  {
    "geonameId": 3712884,
    "name": "Cativá",
    "latitude": 9.36218,
    "longitude": -79.83232,
    "category": "City",
    "subcategory": "District Seat",
    "featured": false,
    "priority": 50
  },
  {
    "geonameId": 3712862,
    "name": "Cauchero",
    "latitude": 9.15226,
    "longitude": -82.2645,
    "category": "City",
    "subcategory": "District Seat",
    "featured": false,
    "priority": 50
  },
  {
    "geonameId": 3715056,
    "name": "Cayo Aguachichi",
    "latitude": 9.36667,
    "longitude": -78.36667,
    "category": "Island",
    "subcategory": "Island",
    "featured": false,
    "priority": 50
  },
  {
    "geonameId": 3714600,
    "name": "Cayo Aston",
    "latitude": 9.23361,
    "longitude": -82.16279,
    "category": "Island",
    "subcategory": "Island",
    "featured": false,
    "priority": 50
  },
  {
    "geonameId": 3713641,
    "name": "Cayo Button Wood",
    "latitude": 9.29858,
    "longitude": -82.18989,
    "category": "Island",
    "subcategory": "Island",
    "featured": false,
    "priority": 50
  },
  {
    "geonameId": 3713281,
    "name": "Cayo Caña Blanca",
    "latitude": 9.35,
    "longitude": -82.13333,
    "category": "Island",
    "subcategory": "Island",
    "featured": false,
    "priority": 50
  },
  {
    "geonameId": 3713225,
    "name": "Cayo Canary",
    "latitude": 9.23564,
    "longitude": -82.17494,
    "category": "Island",
    "subcategory": "Island",
    "featured": false,
    "priority": 50
  },
  {
    "geonameId": 3765295,
    "name": "Cayo Chicheme",
    "latitude": 9.58591,
    "longitude": -78.8785,
    "category": "Island",
    "subcategory": "Island",
    "featured": false,
    "priority": 50
  },
  {
    "geonameId": 3711839,
    "name": "Cayo Crawl",
    "latitude": 9.24395,
    "longitude": -82.13802,
    "category": "Island",
    "subcategory": "Island",
    "featured": false,
    "priority": 50
  },
  {
    "geonameId": 3765294,
    "name": "Cayo Cuango",
    "latitude": 9.58139,
    "longitude": -79.32291,
    "category": "Island",
    "subcategory": "Island",
    "featured": false,
    "priority": 50
  },
  {
    "geonameId": 3711641,
    "name": "Cayo Díaz",
    "latitude": 9.22648,
    "longitude": -82.1591,
    "category": "Island",
    "subcategory": "Island",
    "featured": false,
    "priority": 50
  },
  {
    "geonameId": 3711570,
    "name": "Cayo Douglas",
    "latitude": 9.24471,
    "longitude": -82.16416,
    "category": "Island",
    "subcategory": "Island",
    "featured": false,
    "priority": 50
  },
  {
    "geonameId": 3709732,
    "name": "Cayo Escobal",
    "latitude": 9.13857,
    "longitude": -79.96013,
    "category": "Island",
    "subcategory": "Island",
    "featured": false,
    "priority": 50
  },
  {
    "geonameId": 3709596,
    "name": "Cayo Faro",
    "latitude": 9.45,
    "longitude": -78.65,
    "category": "Island",
    "subcategory": "Island",
    "featured": false,
    "priority": 50
  },
  {
    "geonameId": 3709410,
    "name": "Cayo Gallego",
    "latitude": 9.25935,
    "longitude": -82.18532,
    "category": "Island",
    "subcategory": "Island",
    "featured": false,
    "priority": 50
  },
  {
    "geonameId": 3708922,
    "name": "Cayo Guante",
    "latitude": 9.13333,
    "longitude": -81.83333,
    "category": "Island",
    "subcategory": "Island",
    "featured": false,
    "priority": 50
  },
  {
    "geonameId": 3765296,
    "name": "Cayo Guarda",
    "latitude": 9.49583,
    "longitude": -79.03333,
    "category": "Island",
    "subcategory": "Island",
    "featured": false,
    "priority": 50
  },
  {
    "geonameId": 3708507,
    "name": "Cayo Inglés",
    "latitude": 9.33333,
    "longitude": -78.16667,
    "category": "Island",
    "subcategory": "Island",
    "featured": false,
    "priority": 50
  },
  {
    "geonameId": 3708461,
    "name": "Cayo Jack Analy",
    "latitude": 9.26956,
    "longitude": -82.13233,
    "category": "Island",
    "subcategory": "Island Group",
    "featured": false,
    "priority": 50
  },
  {
    "geonameId": 3704171,
    "name": "Cayo Mono",
    "latitude": 9.16201,
    "longitude": -82.24834,
    "category": "Island",
    "subcategory": "Island",
    "featured": false,
    "priority": 50
  },
  {
    "geonameId": 3703272,
    "name": "Cayo Patterson",
    "latitude": 9.09485,
    "longitude": -81.90116,
    "category": "Island",
    "subcategory": "Island",
    "featured": false,
    "priority": 50
  },
  {
    "geonameId": 3703043,
    "name": "Cayo Pérez",
    "latitude": 9.21827,
    "longitude": -82.17086,
    "category": "Island",
    "subcategory": "Island",
    "featured": false,
    "priority": 50
  },
  {
    "geonameId": 3702870,
    "name": "Cayo Pigeon",
    "latitude": 9.15108,
    "longitude": -81.85116,
    "category": "Island",
    "subcategory": "Island",
    "featured": false,
    "priority": 50
  },
  {
    "geonameId": 3702048,
    "name": "Cayo Ramírez",
    "latitude": 9.20863,
    "longitude": -82.16298,
    "category": "Island",
    "subcategory": "Island",
    "featured": false,
    "priority": 50
  },
  {
    "geonameId": 3701759,
    "name": "Cayo Roldán",
    "latitude": 9.21716,
    "longitude": -82.32339,
    "category": "Island",
    "subcategory": "Island",
    "featured": false,
    "priority": 50
  },
  {
    "geonameId": 3700571,
    "name": "Cayo Small Plantain",
    "latitude": 9.12743,
    "longitude": -81.81032,
    "category": "Island",
    "subcategory": "Island",
    "featured": false,
    "priority": 50
  },
  {
    "geonameId": 3700917,
    "name": "Cayo Small Water",
    "latitude": 9.27312,
    "longitude": -82.15953,
    "category": "Island",
    "subcategory": "Island",
    "featured": false,
    "priority": 50
  },
  {
    "geonameId": 3700585,
    "name": "Cayo Tirano",
    "latitude": 9.09817,
    "longitude": -79.95138,
    "category": "Island",
    "subcategory": "Island",
    "featured": false,
    "priority": 50
  },
  {
    "geonameId": 3700514,
    "name": "Cayo Toro",
    "latitude": 9.15139,
    "longitude": -81.95273,
    "category": "Island",
    "subcategory": "Island",
    "featured": false,
    "priority": 50
  },
  {
    "geonameId": 3699992,
    "name": "Cayo Wild Cane",
    "latitude": 9.35041,
    "longitude": -82.16813,
    "category": "Island",
    "subcategory": "Island",
    "featured": false,
    "priority": 50
  },
  {
    "geonameId": 3699942,
    "name": "Cayo Zapadilla",
    "latitude": 9.08223,
    "longitude": -81.82205,
    "category": "Island",
    "subcategory": "Island",
    "featured": false,
    "priority": 50
  },
  {
    "geonameId": 3699940,
    "name": "Cayo Zapatilla",
    "latitude": 9.26438,
    "longitude": -82.05258,
    "category": "Island",
    "subcategory": "Island Group",
    "featured": false,
    "priority": 50
  },
  {
    "geonameId": 3714581,
    "name": "Cayos Avetira",
    "latitude": 9.07859,
    "longitude": -79.98363,
    "category": "Island",
    "subcategory": "Island Group",
    "featured": false,
    "priority": 50
  },
  {
    "geonameId": 3714354,
    "name": "Cayos Barbusal",
    "latitude": 9.07333,
    "longitude": -79.99417,
    "category": "Island",
    "subcategory": "Island Group",
    "featured": false,
    "priority": 50
  },
  {
    "geonameId": 12226881,
    "name": "Cayos Big Plantain",
    "latitude": 9.13373,
    "longitude": -81.80158,
    "category": "Island",
    "subcategory": "Island Group",
    "featured": false,
    "priority": 50
  },
  {
    "geonameId": 3712185,
    "name": "Cayos Cobre",
    "latitude": 9.09331,
    "longitude": -79.92341,
    "category": "Island",
    "subcategory": "Island Group",
    "featured": false,
    "priority": 50
  },
  {
    "geonameId": 3712136,
    "name": "Cayos Coco",
    "latitude": 9.24492,
    "longitude": -79.90512,
    "category": "Island",
    "subcategory": "Island Group",
    "featured": false,
    "priority": 50
  },
  {
    "geonameId": 3712150,
    "name": "Cayos Coco Bandero",
    "latitude": 9.53333,
    "longitude": -78.65,
    "category": "Island",
    "subcategory": "Island Group",
    "featured": false,
    "priority": 50
  },
  {
    "geonameId": 3711653,
    "name": "Cayos Diablo",
    "latitude": 9.43333,
    "longitude": -78.48333,
    "category": "Island",
    "subcategory": "Island Group",
    "featured": false,
    "priority": 50
  },
  {
    "geonameId": 3709367,
    "name": "Cayos Gancho",
    "latitude": 9.12295,
    "longitude": -79.96685,
    "category": "Island",
    "subcategory": "Island Group",
    "featured": false,
    "priority": 50
  },
  {
    "geonameId": 3708863,
    "name": "Cayos Guaba",
    "latitude": 9.20648,
    "longitude": -79.8959,
    "category": "Island",
    "subcategory": "Island Group",
    "featured": false,
    "priority": 50
  },
  {
    "geonameId": 3708667,
    "name": "Cayos Holandeses",
    "latitude": 9.57833,
    "longitude": -78.72583,
    "category": "Island",
    "subcategory": "Island Group",
    "featured": false,
    "priority": 50
  },
  {
    "geonameId": 3711693,
    "name": "Cayos Kusapín",
    "latitude": 9.19054,
    "longitude": -81.89065,
    "category": "Island",
    "subcategory": "Island Group",
    "featured": false,
    "priority": 50
  },
  {
    "geonameId": 3705878,
    "name": "Cayos Limón",
    "latitude": 9.54707,
    "longitude": -78.89419,
    "category": "Island",
    "subcategory": "Island Group",
    "featured": false,
    "priority": 50
  },
  {
    "geonameId": 3705318,
    "name": "Cayos Los Grullos",
    "latitude": 9.50405,
    "longitude": -78.85171,
    "category": "Island",
    "subcategory": "Island Group",
    "featured": false,
    "priority": 50
  },
  {
    "geonameId": 3703949,
    "name": "Cayos Naranjos",
    "latitude": 9.43333,
    "longitude": -79.8,
    "category": "Island",
    "subcategory": "Island Group",
    "featured": false,
    "priority": 50
  },
  {
    "geonameId": 3764117,
    "name": "Cayos Ordupuquip",
    "latitude": 9.47736,
    "longitude": -78.62764,
    "category": "Island",
    "subcategory": "Island Group",
    "featured": false,
    "priority": 50
  },
  {
    "geonameId": 3702016,
    "name": "Cayos Ratones",
    "latitude": 9.35,
    "longitude": -78.26667,
    "category": "Island",
    "subcategory": "Island Group",
    "featured": false,
    "priority": 50
  },
  {
    "geonameId": 3700657,
    "name": "Cayos Tiger",
    "latitude": 9.21303,
    "longitude": -81.92431,
    "category": "Island",
    "subcategory": "Island Group",
    "featured": false,
    "priority": 50
  },
  {
    "geonameId": 3700234,
    "name": "Cayos Valiente",
    "latitude": 9.18606,
    "longitude": -81.93224,
    "category": "Island",
    "subcategory": "Island Group",
    "featured": false,
    "priority": 50
  },
  {
    "geonameId": 3712852,
    "name": "Cayuca Island",
    "latitude": 9.11667,
    "longitude": -79.91667,
    "category": "Island",
    "subcategory": "Island",
    "featured": false,
    "priority": 50
  },
  {
    "geonameId": 9257620,
    "name": "Cebaco",
    "latitude": 7.57535,
    "longitude": -81.07472,
    "category": "Mountain",
    "subcategory": "Mountain",
    "featured": false,
    "priority": 50
  },
  {
    "geonameId": 10179292,
    "name": "Cedro Arriba",
    "latitude": 7.78146,
    "longitude": -80.53109,
    "category": "City",
    "subcategory": "District Seat",
    "featured": false,
    "priority": 50
  },
  {
    "geonameId": 3712809,
    "name": "Cermeño",
    "latitude": 8.74243,
    "longitude": -79.84367,
    "category": "City",
    "subcategory": "District Seat",
    "featured": false,
    "priority": 50
  },
  {
    "geonameId": 3712981,
    "name": "Cerro Achugalu Yar",
    "latitude": 8.69575,
    "longitude": -77.62076,
    "category": "Mountain",
    "subcategory": "Mountain",
    "featured": false,
    "priority": 50
  },
  {
    "geonameId": 12210195,
    "name": "Cerro Agua Frîa",
    "latitude": 8.68539,
    "longitude": -80.49742,
    "category": "Mountain",
    "subcategory": "Mountain",
    "featured": false,
    "priority": 50
  },
  {
    "geonameId": 3715074,
    "name": "Cerro Aguacate",
    "latitude": 8.79731,
    "longitude": -82.60109,
    "category": "Mountain",
    "subcategory": "Mountain",
    "featured": false,
    "priority": 50
  },
  {
    "geonameId": 12237024,
    "name": "Cerro Agudo",
    "latitude": 8.53012,
    "longitude": -80.62467,
    "category": "Mountain",
    "subcategory": "Mountain",
    "featured": false,
    "priority": 50
  },
  {
    "geonameId": 3714987,
    "name": "Cerro Águila",
    "latitude": 8.58543,
    "longitude": -80.17321,
    "category": "Mountain",
    "subcategory": "Mountain",
    "featured": false,
    "priority": 50
  },
  {
    "geonameId": 3714981,
    "name": "Cerro Aguilucho",
    "latitude": 7.52224,
    "longitude": -80.67745,
    "category": "Mountain",
    "subcategory": "Mountain",
    "featured": false,
    "priority": 50
  },
  {
    "geonameId": 3714950,
    "name": "Cerro Ajo",
    "latitude": 8.97624,
    "longitude": -80.10305,
    "category": "Mountain",
    "subcategory": "Mountain",
    "featured": false,
    "priority": 50
  },
  {
    "geonameId": 12299732,
    "name": "Cerro Akuadargana Yala",
    "latitude": 8.68181,
    "longitude": -77.58703,
    "category": "Mountain",
    "subcategory": "Mountain",
    "featured": false,
    "priority": 50
  },
  {
    "geonameId": 12237043,
    "name": "Cerro Alfo",
    "latitude": 8.52469,
    "longitude": -80.71371,
    "category": "Mountain",
    "subcategory": "Mountain",
    "featured": false,
    "priority": 50
  },
  {
    "geonameId": 3714912,
    "name": "Cerro Algarrobo",
    "latitude": 8.46831,
    "longitude": -81.79237,
    "category": "Mountain",
    "subcategory": "Mountain",
    "featured": false,
    "priority": 50
  },
  {
    "geonameId": 3714902,
    "name": "Cerro Algodón",
    "latitude": 8.3453,
    "longitude": -81.64846,
    "category": "Mountain",
    "subcategory": "Mountain",
    "featured": false,
    "priority": 50
  },
  {
    "geonameId": 3714893,
    "name": "Cerro Almirante",
    "latitude": 9.54742,
    "longitude": -79.58209,
    "category": "Mountain",
    "subcategory": "Mountain",
    "featured": false,
    "priority": 50
  },
  {
    "geonameId": 3714890,
    "name": "Cerro Almorzadero",
    "latitude": 8.81033,
    "longitude": -79.98493,
    "category": "Mountain",
    "subcategory": "Mountain",
    "featured": false,
    "priority": 50
  },
  {
    "geonameId": 12228472,
    "name": "Cerro Alto",
    "latitude": 8.5238,
    "longitude": -80.77443,
    "category": "Mountain",
    "subcategory": "Mountain",
    "featured": false,
    "priority": 50
  },
  {
    "geonameId": 3714879,
    "name": "Cerro Alto Algarrobo",
    "latitude": 8.41499,
    "longitude": -81.53863,
    "category": "Mountain",
    "subcategory": "Mountain",
    "featured": false,
    "priority": 50
  },
  {
    "geonameId": 3714862,
    "name": "Cerro Alto de Coco",
    "latitude": 8.92308,
    "longitude": -82.11216,
    "category": "Mountain",
    "subcategory": "Mountain",
    "featured": false,
    "priority": 50
  },
  {
    "geonameId": 12241068,
    "name": "Cerro Alto de La Chichica",
    "latitude": 8.43862,
    "longitude": -81.16446,
    "category": "Mountain",
    "subcategory": "Mountain",
    "featured": false,
    "priority": 50
  },
  {
    "geonameId": 12251788,
    "name": "Cerro Alto de La Mina",
    "latitude": 8.41656,
    "longitude": -81.38085,
    "category": "Mountain",
    "subcategory": "Mountain",
    "featured": false,
    "priority": 50
  },
  {
    "geonameId": 3707094,
    "name": "Cerro Alto de Toro",
    "latitude": 8.47058,
    "longitude": -81.34268,
    "category": "Mountain",
    "subcategory": "Mountain",
    "featured": false,
    "priority": 50
  },
  {
    "geonameId": 3714788,
    "name": "Cerro Alto Higo",
    "latitude": 7.71667,
    "longitude": -80.85,
    "category": "Mountain",
    "subcategory": "Mountain",
    "featured": false,
    "priority": 50
  },
  {
    "geonameId": 10348709,
    "name": "Cerro Alto Ibalá",
    "latitude": 8.3559,
    "longitude": -81.20272,
    "category": "Mountain",
    "subcategory": "Mountain",
    "featured": false,
    "priority": 50
  },
  {
    "geonameId": 12221748,
    "name": "Cerro Alto La Angostura",
    "latitude": 8.51479,
    "longitude": -81.28618,
    "category": "Mountain",
    "subcategory": "Mountain",
    "featured": false,
    "priority": 50
  },
  {
    "geonameId": 10348719,
    "name": "Cerro Alto La Bandera",
    "latitude": 8.51779,
    "longitude": -81.27431,
    "category": "Mountain",
    "subcategory": "Mountain",
    "featured": false,
    "priority": 50
  },
  {
    "geonameId": 10348088,
    "name": "Cerro Amargo",
    "latitude": 8.52327,
    "longitude": -81.62812,
    "category": "Mountain",
    "subcategory": "Mountain",
    "featured": false,
    "priority": 50
  },
  {
    "geonameId": 3714745,
    "name": "Cerro Anachucuna",
    "latitude": 8.58306,
    "longitude": -77.55027,
    "category": "Mountain",
    "subcategory": "Mountain",
    "featured": false,
    "priority": 50
  },
  {
    "geonameId": 3714647,
    "name": "Cerro Armado",
    "latitude": 8.4859,
    "longitude": -81.99227,
    "category": "Mountain",
    "subcategory": "Mountain",
    "featured": false,
    "priority": 50
  },
  {
    "geonameId": 12299466,
    "name": "Cerro Asnadi Yar",
    "latitude": 8.89057,
    "longitude": -77.80003,
    "category": "Mountain",
    "subcategory": "Mountain",
    "featured": false,
    "priority": 50
  },
  {
    "geonameId": 3714575,
    "name": "Cerro Ave María",
    "latitude": 8.29513,
    "longitude": -82.04119,
    "category": "Mountain",
    "subcategory": "Mountain",
    "featured": false,
    "priority": 50
  },
  {
    "geonameId": 3714560,
    "name": "Cerro Azul",
    "latitude": 8.79895,
    "longitude": -82.38102,
    "category": "Mountain",
    "subcategory": "Mountain",
    "featured": false,
    "priority": 50
  },
  {
    "geonameId": 3714524,
    "name": "Cerro Baila Mono",
    "latitude": 8.61585,
    "longitude": -79.98225,
    "category": "Mountain",
    "subcategory": "Mountain",
    "featured": false,
    "priority": 50
  },
  {
    "geonameId": 12189524,
    "name": "Cerro Baitún",
    "latitude": 8.62811,
    "longitude": -82.77782,
    "category": "Mountain",
    "subcategory": "Mountain",
    "featured": false,
    "priority": 50
  },
  {
    "geonameId": 12202531,
    "name": "Cerro Bajo Frío",
    "latitude": 8.77026,
    "longitude": -82.55924,
    "category": "Mountain",
    "subcategory": "Mountain",
    "featured": false,
    "priority": 50
  },
  {
    "geonameId": 3714398,
    "name": "Cerro Balsa",
    "latitude": 8.36962,
    "longitude": -81.79515,
    "category": "Mountain",
    "subcategory": "Mountain",
    "featured": false,
    "priority": 50
  },
  {
    "geonameId": 3714391,
    "name": "Cerro Balso",
    "latitude": 8.47119,
    "longitude": -81.96393,
    "category": "Mountain",
    "subcategory": "Mountain",
    "featured": false,
    "priority": 50
  },
  {
    "geonameId": 12227130,
    "name": "Cerro Baltazar",
    "latitude": 8.56238,
    "longitude": -81.16254,
    "category": "Mountain",
    "subcategory": "Mountain",
    "featured": false,
    "priority": 50
  },
  {
    "geonameId": 3711438,
    "name": "Cerro Banco",
    "latitude": 8.4603,
    "longitude": -82.03186,
    "category": "City",
    "subcategory": "District Seat",
    "featured": false,
    "priority": 50
  },
  {
    "geonameId": 3706630,
    "name": "Cerro Bandera",
    "latitude": 8.27102,
    "longitude": -81.20594,
    "category": "Mountain",
    "subcategory": "Mountain",
    "featured": false,
    "priority": 50
  },
  {
    "geonameId": 10348066,
    "name": "Cerro Barari",
    "latitude": 8.74681,
    "longitude": -81.69913,
    "category": "Mountain",
    "subcategory": "Mountain",
    "featured": false,
    "priority": 50
  },
  {
    "geonameId": 12218656,
    "name": "Cerro Bariguide",
    "latitude": 8.62098,
    "longitude": -81.63565,
    "category": "Mountain",
    "subcategory": "Mountain",
    "featured": false,
    "priority": 50
  },
  {
    "geonameId": 3714341,
    "name": "Cerro Barón",
    "latitude": 8.41667,
    "longitude": -80.66667,
    "category": "Mountain",
    "subcategory": "Mountain",
    "featured": false,
    "priority": 50
  },
  {
    "geonameId": 12245769,
    "name": "Cerro Barranco",
    "latitude": 8.6157,
    "longitude": -81.55783,
    "category": "Mountain",
    "subcategory": "Mountain",
    "featured": false,
    "priority": 50
  },
  {
    "geonameId": 12191844,
    "name": "Cerro Barrial",
    "latitude": 8.6431,
    "longitude": -82.26144,
    "category": "Mountain",
    "subcategory": "Mountain",
    "featured": false,
    "priority": 50
  },
  {
    "geonameId": 3714285,
    "name": "Cerro Barro Blanco",
    "latitude": 8.4085,
    "longitude": -82.18763,
    "category": "Mountain",
    "subcategory": "Mountain",
    "featured": false,
    "priority": 50
  },
  {
    "geonameId": 12224205,
    "name": "Cerro Bartolo",
    "latitude": 8.75076,
    "longitude": -81.43489,
    "category": "Mountain",
    "subcategory": "Mountain",
    "featured": false,
    "priority": 50
  },
  {
    "geonameId": 12236969,
    "name": "Cerro Basín",
    "latitude": 8.51235,
    "longitude": -80.7086,
    "category": "Mountain",
    "subcategory": "Mountain",
    "featured": false,
    "priority": 50
  },
  {
    "geonameId": 12221784,
    "name": "Cerro Batata",
    "latitude": 8.51847,
    "longitude": -81.44443,
    "category": "Mountain",
    "subcategory": "Mountain",
    "featured": false,
    "priority": 50
  },
  {
    "geonameId": 12224800,
    "name": "Cerro Batea",
    "latitude": 8.68541,
    "longitude": -81.42146,
    "category": "Mountain",
    "subcategory": "Mountain",
    "featured": false,
    "priority": 50
  },
  {
    "geonameId": 3714246,
    "name": "Cerro Batipa",
    "latitude": 8.33118,
    "longitude": -82.2518,
    "category": "Mountain",
    "subcategory": "Mountain",
    "featured": false,
    "priority": 50
  },
  {
    "geonameId": 3714241,
    "name": "Cerro Batista",
    "latitude": 7.84478,
    "longitude": -81.51873,
    "category": "Mountain",
    "subcategory": "Mountain",
    "featured": false,
    "priority": 50
  },
  {
    "geonameId": 10348362,
    "name": "Cerro Belencillo",
    "latitude": 8.73222,
    "longitude": -80.68922,
    "category": "Mountain",
    "subcategory": "Mountain",
    "featured": false,
    "priority": 50
  },
  {
    "geonameId": 3714144,
    "name": "Cerro Bernardino",
    "latitude": 8.39653,
    "longitude": -81.47116,
    "category": "Mountain",
    "subcategory": "Mountain",
    "featured": false,
    "priority": 50
  },
  {
    "geonameId": 12174838,
    "name": "Cerro Binagan Yala",
    "latitude": 9.10454,
    "longitude": -77.98385,
    "category": "Mountain",
    "subcategory": "Mountain",
    "featured": false,
    "priority": 50
  },
  {
    "geonameId": 12236848,
    "name": "Cerro Blanco",
    "latitude": 8.66361,
    "longitude": -80.60197,
    "category": "Mountain",
    "subcategory": "Mountain",
    "featured": false,
    "priority": 50
  },
  {
    "geonameId": 3714075,
    "name": "Cerro Boba",
    "latitude": 8.2598,
    "longitude": -81.12271,
    "category": "Mountain",
    "subcategory": "Mountain",
    "featured": false,
    "priority": 50
  },
  {
    "geonameId": 3714064,
    "name": "Cerro Bocacha",
    "latitude": 7.89905,
    "longitude": -81.39033,
    "category": "Mountain",
    "subcategory": "Mountain",
    "featured": false,
    "priority": 50
  },
  {
    "geonameId": 3713944,
    "name": "Cerro Boclé",
    "latitude": 8.41186,
    "longitude": -81.29571,
    "category": "Mountain",
    "subcategory": "Mountain",
    "featured": false,
    "priority": 50
  },
  {
    "geonameId": 3713919,
    "name": "Cerro Bolote",
    "latitude": 8.46889,
    "longitude": -81.98436,
    "category": "Mountain",
    "subcategory": "Mountain",
    "featured": false,
    "priority": 50
  },
  {
    "geonameId": 12186474,
    "name": "Cerro Bonita",
    "latitude": 8.62049,
    "longitude": -82.77655,
    "category": "Mountain",
    "subcategory": "Mountain",
    "featured": false,
    "priority": 50
  },
  {
    "geonameId": 12271050,
    "name": "Cerro Booyala",
    "latitude": 9.25546,
    "longitude": -78.46367,
    "category": "Mountain",
    "subcategory": "Mountain",
    "featured": false,
    "priority": 50
  },
  {
    "geonameId": 12223633,
    "name": "Cerro Boquerón",
    "latitude": 8.75415,
    "longitude": -81.28042,
    "category": "Mountain",
    "subcategory": "Mountain",
    "featured": false,
    "priority": 50
  },
  {
    "geonameId": 12221749,
    "name": "Cerro Boquetón",
    "latitude": 8.50784,
    "longitude": -81.27468,
    "category": "Mountain",
    "subcategory": "Mountain",
    "featured": false,
    "priority": 50
  },
  {
    "geonameId": 12299767,
    "name": "Cerro Bormo Yala",
    "latitude": 8.78636,
    "longitude": -77.62518,
    "category": "Mountain",
    "subcategory": "Mountain",
    "featured": false,
    "priority": 50
  },
  {
    "geonameId": 3713841,
    "name": "Cerro Boró",
    "latitude": 8.18281,
    "longitude": -81.32803,
    "category": "Mountain",
    "subcategory": "Mountain",
    "featured": false,
    "priority": 50
  },
  {
    "geonameId": 3713804,
    "name": "Cerro Bravita",
    "latitude": 7.43201,
    "longitude": -80.75716,
    "category": "Mountain",
    "subcategory": "Mountain",
    "featured": false,
    "priority": 50
  },
  {
    "geonameId": 3713780,
    "name": "Cerro Brewester",
    "latitude": 9.29586,
    "longitude": -79.2848,
    "category": "Mountain",
    "subcategory": "Mountain",
    "featured": false,
    "priority": 50
  },
  {
    "geonameId": 3713772,
    "name": "Cerro Bruja",
    "latitude": 9.47727,
    "longitude": -79.56509,
    "category": "Mountain",
    "subcategory": "Mountain",
    "featured": false,
    "priority": 50
  },
  {
    "geonameId": 12208516,
    "name": "Cerro Brujo",
    "latitude": 8.26169,
    "longitude": -81.76113,
    "category": "Mountain",
    "subcategory": "Mountain",
    "featured": false,
    "priority": 50
  },
  {
    "geonameId": 3713752,
    "name": "Cerro Bubí",
    "latitude": 7.92954,
    "longitude": -81.52184,
    "category": "Mountain",
    "subcategory": "Mountain",
    "featured": false,
    "priority": 50
  },
  {
    "geonameId": 3713704,
    "name": "Cerro Buena Vista",
    "latitude": 8.41542,
    "longitude": -81.33334,
    "category": "Mountain",
    "subcategory": "Mountain",
    "featured": false,
    "priority": 50
  },
  {
    "geonameId": 12228485,
    "name": "Cerro Buenos Aires",
    "latitude": 8.51821,
    "longitude": -80.98148,
    "category": "Mountain",
    "subcategory": "Mountain",
    "featured": false,
    "priority": 50
  },
  {
    "geonameId": 10348074,
    "name": "Cerro Buradú",
    "latitude": 8.66225,
    "longitude": -81.64544,
    "category": "Mountain",
    "subcategory": "Mountain",
    "featured": false,
    "priority": 50
  },
  {
    "geonameId": 12228021,
    "name": "Cerro Burral",
    "latitude": 8.53878,
    "longitude": -80.85652,
    "category": "Mountain",
    "subcategory": "Mountain",
    "featured": false,
    "priority": 50
  },
  {
    "geonameId": 12221755,
    "name": "Cerro Buto",
    "latitude": 8.57389,
    "longitude": -81.37653,
    "category": "Mountain",
    "subcategory": "Mountain",
    "featured": false,
    "priority": 50
  },
  {
    "geonameId": 3713632,
    "name": "Cerro Caballo",
    "latitude": 8.25741,
    "longitude": -81.55029,
    "category": "Mountain",
    "subcategory": "Mountain",
    "featured": false,
    "priority": 50
  },
  {
    "geonameId": 10348723,
    "name": "Cerro Cabeza de Toro",
    "latitude": 8.50983,
    "longitude": -81.1573,
    "category": "Mountain",
    "subcategory": "Mountain",
    "featured": false,
    "priority": 50
  },
  {
    "geonameId": 3713602,
    "name": "Cerro Cabezón",
    "latitude": 8.74893,
    "longitude": -82.40683,
    "category": "Mountain",
    "subcategory": "Mountain",
    "featured": false,
    "priority": 50
  },
  {
    "geonameId": 3713587,
    "name": "Cerro Cabra",
    "latitude": 8.9069,
    "longitude": -79.64146,
    "category": "Mountain",
    "subcategory": "Mountain",
    "featured": false,
    "priority": 50
  },
  {
    "geonameId": 10348084,
    "name": "Cerro Cabuya",
    "latitude": 8.58937,
    "longitude": -81.52138,
    "category": "Mountain",
    "subcategory": "Mountain",
    "featured": false,
    "priority": 50
  },
  {
    "geonameId": 3713537,
    "name": "Cerro Cacarañado",
    "latitude": 7.57957,
    "longitude": -80.80786,
    "category": "Mountain",
    "subcategory": "Mountain",
    "featured": false,
    "priority": 50
  },
  {
    "geonameId": 12198559,
    "name": "Cerro Cachito",
    "latitude": 8.51849,
    "longitude": -81.97936,
    "category": "Mountain",
    "subcategory": "Mountain",
    "featured": false,
    "priority": 50
  },
  {
    "geonameId": 3713526,
    "name": "Cerro Cacicón",
    "latitude": 8.34473,
    "longitude": -81.71482,
    "category": "Mountain",
    "subcategory": "Mountain",
    "featured": false,
    "priority": 50
  },
  {
    "geonameId": 3713522,
    "name": "Cerro Cacique",
    "latitude": 8.45525,
    "longitude": -81.9162,
    "category": "Mountain",
    "subcategory": "Mountain",
    "featured": false,
    "priority": 50
  },
  {
    "geonameId": 12192302,
    "name": "Cerro Caldero",
    "latitude": 8.45519,
    "longitude": -81.8072,
    "category": "Mountain",
    "subcategory": "Mountain",
    "featured": false,
    "priority": 50
  },
  {
    "geonameId": 3713414,
    "name": "Cerro Calidonia",
    "latitude": 7.93428,
    "longitude": -81.40371,
    "category": "Mountain",
    "subcategory": "Mountain",
    "featured": false,
    "priority": 50
  },
  {
    "geonameId": 12221753,
    "name": "Cerro Calleque",
    "latitude": 8.58235,
    "longitude": -81.44675,
    "category": "Mountain",
    "subcategory": "Mountain",
    "featured": false,
    "priority": 50
  },
  {
    "geonameId": 10348055,
    "name": "Cerro Camarón",
    "latitude": 8.57187,
    "longitude": -82.01476,
    "category": "Mountain",
    "subcategory": "Mountain",
    "featured": false,
    "priority": 50
  },
  {
    "geonameId": 3713338,
    "name": "Cerro Cambutal",
    "latitude": 7.33333,
    "longitude": -80.66667,
    "category": "Mountain",
    "subcategory": "Mountain",
    "featured": false,
    "priority": 50
  },
  {
    "geonameId": 3713334,
    "name": "Cerro Cambutalito",
    "latitude": 7.30603,
    "longitude": -80.48158,
    "category": "Mountain",
    "subcategory": "Mountain",
    "featured": false,
    "priority": 50
  },
  {
    "geonameId": 3713315,
    "name": "Cerro Campana",
    "latitude": 8.68895,
    "longitude": -79.92166,
    "category": "Mountain",
    "subcategory": "Mountain",
    "featured": false,
    "priority": 50
  },
  {
    "geonameId": 12215136,
    "name": "Cerro Campanario",
    "latitude": 7.83724,
    "longitude": -81.30402,
    "category": "Mountain",
    "subcategory": "Mountain",
    "featured": false,
    "priority": 50
  },
  {
    "geonameId": 3712761,
    "name": "Cerro Caña",
    "latitude": 8.34883,
    "longitude": -81.61539,
    "category": "City",
    "subcategory": "District Seat",
    "featured": false,
    "priority": 50
  },
  {
    "geonameId": 3713280,
    "name": "Cerro Caña Blanca",
    "latitude": 8.19376,
    "longitude": -81.68358,
    "category": "Mountain",
    "subcategory": "Mountain",
    "featured": false,
    "priority": 50
  },
  {
    "geonameId": 3713234,
    "name": "Cerro Canajagua",
    "latitude": 7.64858,
    "longitude": -80.42109,
    "category": "Mountain",
    "subcategory": "Mountain",
    "featured": false,
    "priority": 50
  },
  {
    "geonameId": 10348127,
    "name": "Cerro Candela",
    "latitude": 8.87903,
    "longitude": -82.75531,
    "category": "Mountain",
    "subcategory": "Mountain",
    "featured": false,
    "priority": 50
  },
  {
    "geonameId": 3713056,
    "name": "Cerro Capacho",
    "latitude": 8.4714,
    "longitude": -81.6455,
    "category": "Mountain",
    "subcategory": "Mountain",
    "featured": false,
    "priority": 50
  },
  {
    "geonameId": 3713041,
    "name": "Cerro Capullo",
    "latitude": 8.45756,
    "longitude": -81.89065,
    "category": "Mountain",
    "subcategory": "Mountain",
    "featured": false,
    "priority": 50
  },
  {
    "geonameId": 3713018,
    "name": "Cerro Cara Iguana",
    "latitude": 8.59081,
    "longitude": -80.13752,
    "category": "Mountain",
    "subcategory": "Mountain",
    "featured": false,
    "priority": 50
  },
  {
    "geonameId": 3713024,
    "name": "Cerro Caracoral",
    "latitude": 8.62159,
    "longitude": -80.11603,
    "category": "Mountain",
    "subcategory": "Mountain",
    "featured": false,
    "priority": 50
  },
  {
    "geonameId": 12228523,
    "name": "Cerro Carita",
    "latitude": 8.57686,
    "longitude": -80.89035,
    "category": "Mountain",
    "subcategory": "Mountain",
    "featured": false,
    "priority": 50
  },
  {
    "geonameId": 12224551,
    "name": "Cerro Casa",
    "latitude": 8.70817,
    "longitude": -81.33741,
    "category": "Mountain",
    "subcategory": "Mountain",
    "featured": false,
    "priority": 50
  },
  {
    "geonameId": 12251789,
    "name": "Cerro Casa de Piedra",
    "latitude": 8.45929,
    "longitude": -81.39855,
    "category": "Mountain",
    "subcategory": "Mountain",
    "featured": false,
    "priority": 50
  },
  {
    "geonameId": 3712915,
    "name": "Cerro Castillo",
    "latitude": 8.37834,
    "longitude": -81.37126,
    "category": "Mountain",
    "subcategory": "Mountain",
    "featured": false,
    "priority": 50
  },
  {
    "geonameId": 3712903,
    "name": "Cerro Catalina",
    "latitude": 8.85649,
    "longitude": -82.66278,
    "category": "Mountain",
    "subcategory": "Mountain",
    "featured": false,
    "priority": 50
  },
  {
    "geonameId": 12219478,
    "name": "Cerro Catcho",
    "latitude": 8.44018,
    "longitude": -81.70288,
    "category": "Mountain",
    "subcategory": "Mountain",
    "featured": false,
    "priority": 50
  },
  {
    "geonameId": 3712873,
    "name": "Cerro Cativito",
    "latitude": 7.71774,
    "longitude": -81.43266,
    "category": "Mountain",
    "subcategory": "Mountain",
    "featured": false,
    "priority": 50
  },
  {
    "geonameId": 3709273,
    "name": "Cerro Cavilén",
    "latitude": 8.41781,
    "longitude": -81.70941,
    "category": "Mountain",
    "subcategory": "Mountain",
    "featured": false,
    "priority": 50
  },
  {
    "geonameId": 12228519,
    "name": "Cerro Cebolla",
    "latitude": 8.504,
    "longitude": -80.89507,
    "category": "Mountain",
    "subcategory": "Mountain",
    "featured": false,
    "priority": 50
  },
  {
    "geonameId": 10348334,
    "name": "Cerro Cedro",
    "latitude": 8.74137,
    "longitude": -81.36752,
    "category": "Mountain",
    "subcategory": "Mountain",
    "featured": false,
    "priority": 50
  },
  {
    "geonameId": 10348732,
    "name": "Cerro Cenizo",
    "latitude": 8.54392,
    "longitude": -80.73674,
    "category": "Mountain",
    "subcategory": "Mountain",
    "featured": false,
    "priority": 50
  },
  {
    "geonameId": 3712808,
    "name": "Cerro Cermeño",
    "latitude": 8.7729,
    "longitude": -79.83599,
    "category": "Mountain",
    "subcategory": "Mountain",
    "featured": false,
    "priority": 50
  },
  {
    "geonameId": 3712589,
    "name": "Cerro Chalapa",
    "latitude": 8.67128,
    "longitude": -82.29603,
    "category": "Mountain",
    "subcategory": "Mountain",
    "featured": false,
    "priority": 50
  },
  {
    "geonameId": 3712577,
    "name": "Cerro Chame",
    "latitude": 8.5874,
    "longitude": -79.82413,
    "category": "Mountain",
    "subcategory": "Mountain",
    "featured": false,
    "priority": 50
  },
  {
    "geonameId": 3712568,
    "name": "Cerro Chamí",
    "latitude": 8.44942,
    "longitude": -81.77098,
    "category": "Mountain",
    "subcategory": "Mountain",
    "featured": false,
    "priority": 50
  },
  {
    "geonameId": 3712523,
    "name": "Cerro Chato",
    "latitude": 8.71367,
    "longitude": -79.9989,
    "category": "Mountain",
    "subcategory": "Mountain",
    "featured": false,
    "priority": 50
  },
  {
    "geonameId": 12221728,
    "name": "Cerro Cheira",
    "latitude": 8.5492,
    "longitude": -81.26043,
    "category": "Mountain",
    "subcategory": "Mountain",
    "featured": false,
    "priority": 50
  },
  {
    "geonameId": 11398398,
    "name": "Cerro Chichibalí",
    "latitude": 8.68877,
    "longitude": -80.04082,
    "category": "Mountain",
    "subcategory": "Mountain",
    "featured": false,
    "priority": 50
  },
  {
    "geonameId": 3712478,
    "name": "Cerro Chichica",
    "latitude": 7.50926,
    "longitude": -81.20422,
    "category": "Mountain",
    "subcategory": "Mountain",
    "featured": false,
    "priority": 50
  },
  {
    "geonameId": 10348731,
    "name": "Cerro Chicú",
    "latitude": 8.56459,
    "longitude": -80.81438,
    "category": "Mountain",
    "subcategory": "Mountain",
    "featured": false,
    "priority": 50
  },
  {
    "geonameId": 12255871,
    "name": "Cerro Chileno",
    "latitude": 8.72002,
    "longitude": -80.01087,
    "category": "Mountain",
    "subcategory": "Mountain",
    "featured": false,
    "priority": 50
  },
  {
    "geonameId": 12241042,
    "name": "Cerro Chimán",
    "latitude": 8.4908,
    "longitude": -81.00322,
    "category": "Mountain",
    "subcategory": "Mountain",
    "featured": false,
    "priority": 50
  },
  {
    "geonameId": 12241092,
    "name": "Cerro Chiruli",
    "latitude": 8.37324,
    "longitude": -81.10701,
    "category": "Mountain",
    "subcategory": "Mountain",
    "featured": false,
    "priority": 50
  },
  {
    "geonameId": 10348047,
    "name": "Cerro Chiviori",
    "latitude": 8.76374,
    "longitude": -82.02173,
    "category": "Mountain",
    "subcategory": "Mountain",
    "featured": false,
    "priority": 50
  },
  {
    "geonameId": 3712363,
    "name": "Cerro Chorcha",
    "latitude": 8.63903,
    "longitude": -82.12357,
    "category": "Mountain",
    "subcategory": "Mountain",
    "featured": false,
    "priority": 50
  },
  {
    "geonameId": 3712295,
    "name": "Cerro Chupá",
    "latitude": 7.78662,
    "longitude": -80.57533,
    "category": "Mountain",
    "subcategory": "Mountain",
    "featured": false,
    "priority": 50
  },
  {
    "geonameId": 12228019,
    "name": "Cerro Cigual",
    "latitude": 8.52891,
    "longitude": -80.87104,
    "category": "Mountain",
    "subcategory": "Mountain",
    "featured": false,
    "priority": 50
  },
  {
    "geonameId": 3712246,
    "name": "Cerro Cimarrón",
    "latitude": 8.27952,
    "longitude": -81.33044,
    "category": "Mountain",
    "subcategory": "Mountain",
    "featured": false,
    "priority": 50
  },
  {
    "geonameId": 12228688,
    "name": "Cerro Cinco Cerros",
    "latitude": 8.48522,
    "longitude": -80.964,
    "category": "Mountain",
    "subcategory": "Mountain",
    "featured": false,
    "priority": 50
  },
  {
    "geonameId": 11398402,
    "name": "Cerro Cirí Grande",
    "latitude": 8.79613,
    "longitude": -80.0286,
    "category": "Mountain",
    "subcategory": "Mountain",
    "featured": false,
    "priority": 50
  },
  {
    "geonameId": 3712206,
    "name": "Cerro Cisneros",
    "latitude": 9.30186,
    "longitude": -79.59538,
    "category": "Mountain",
    "subcategory": "Mountain",
    "featured": false,
    "priority": 50
  },
  {
    "geonameId": 10206646,
    "name": "Cerro Cocalita",
    "latitude": 7.30519,
    "longitude": -77.89917,
    "category": "Mountain",
    "subcategory": "Mountain",
    "featured": false,
    "priority": 50
  },
  {
    "geonameId": 3712154,
    "name": "Cerro Coco",
    "latitude": 8.41736,
    "longitude": -81.66732,
    "category": "Mountain",
    "subcategory": "Mountain",
    "featured": false,
    "priority": 50
  },
  {
    "geonameId": 3712083,
    "name": "Cerro Cólico",
    "latitude": 9.23611,
    "longitude": -82.48489,
    "category": "Mountain",
    "subcategory": "Mountain",
    "featured": false,
    "priority": 50
  },
  {
    "geonameId": 3712054,
    "name": "Cerro Colorado",
    "latitude": 7.90283,
    "longitude": -81.43481,
    "category": "Mountain",
    "subcategory": "Mountain",
    "featured": false,
    "priority": 50
  },
  {
    "geonameId": 10348058,
    "name": "Cerro Conejo",
    "latitude": 8.50613,
    "longitude": -82.02607,
    "category": "Mountain",
    "subcategory": "Mountain",
    "featured": false,
    "priority": 50
  },
  {
    "geonameId": 3711971,
    "name": "Cerro Corazón del Mundo",
    "latitude": 7.59386,
    "longitude": -80.6679,
    "category": "Mountain",
    "subcategory": "Mountain",
    "featured": false,
    "priority": 50
  },
  {
    "geonameId": 12228608,
    "name": "Cerro Corero",
    "latitude": 8.46682,
    "longitude": -80.82139,
    "category": "Mountain",
    "subcategory": "Mountain",
    "featured": false,
    "priority": 50
  },
  {
    "geonameId": 12220519,
    "name": "Cerro Coroni",
    "latitude": 8.62365,
    "longitude": -81.73968,
    "category": "Mountain",
    "subcategory": "Mountain",
    "featured": false,
    "priority": 50
  },
  {
    "geonameId": 3711938,
    "name": "Cerro Corotú",
    "latitude": 8.58838,
    "longitude": -82.28649,
    "category": "Mountain",
    "subcategory": "Mountain",
    "featured": false,
    "priority": 50
  },
  {
    "geonameId": 3711927,
    "name": "Cerro Coroza",
    "latitude": 8.38526,
    "longitude": -81.82306,
    "category": "Mountain",
    "subcategory": "Mountain",
    "featured": false,
    "priority": 50
  },
  {
    "geonameId": 3711890,
    "name": "Cerro Corozo",
    "latitude": 8.50333,
    "longitude": -82.00452,
    "category": "Mountain",
    "subcategory": "Mountain",
    "featured": false,
    "priority": 50
  },
  {
    "geonameId": 12236881,
    "name": "Cerro Corral",
    "latitude": 8.63036,
    "longitude": -80.51513,
    "category": "Mountain",
    "subcategory": "Mountain",
    "featured": false,
    "priority": 50
  },
  {
    "geonameId": 12228328,
    "name": "Cerro Cristal",
    "latitude": 8.53069,
    "longitude": -80.85751,
    "category": "Mountain",
    "subcategory": "Mountain",
    "featured": false,
    "priority": 50
  },
  {
    "geonameId": 3711820,
    "name": "Cerro Cruz",
    "latitude": 8.38683,
    "longitude": -81.65543,
    "category": "Mountain",
    "subcategory": "Mountain",
    "featured": false,
    "priority": 50
  },
  {
    "geonameId": 3711802,
    "name": "Cerro Cuacua",
    "latitude": 8.63609,
    "longitude": -82.26315,
    "category": "Mountain",
    "subcategory": "Mountain",
    "featured": false,
    "priority": 50
  },
  {
    "geonameId": 12224897,
    "name": "Cerro Cuatro",
    "latitude": 8.67125,
    "longitude": -81.00328,
    "category": "Mountain",
    "subcategory": "Mountain",
    "featured": false,
    "priority": 50
  },
  {
    "geonameId": 10348060,
    "name": "Cerro Cucaracha",
    "latitude": 8.5343,
    "longitude": -82.1268,
    "category": "Mountain",
    "subcategory": "Mountain",
    "featured": false,
    "priority": 50
  },
  {
    "geonameId": 3711772,
    "name": "Cerro Cuchara",
    "latitude": 8.44346,
    "longitude": -81.91611,
    "category": "Mountain",
    "subcategory": "Mountain",
    "featured": false,
    "priority": 50
  },
  {
    "geonameId": 12241239,
    "name": "Cerro Cucharón",
    "latitude": 8.40034,
    "longitude": -81.18988,
    "category": "Mountain",
    "subcategory": "Mountain",
    "featured": false,
    "priority": 50
  },
  {
    "geonameId": 3711755,
    "name": "Cerro Cucuasal",
    "latitude": 8.62681,
    "longitude": -80.20763,
    "category": "Mountain",
    "subcategory": "Mountain",
    "featured": false,
    "priority": 50
  },
  {
    "geonameId": 3711726,
    "name": "Cerro Culantro",
    "latitude": 8.47629,
    "longitude": -81.87056,
    "category": "Mountain",
    "subcategory": "Mountain",
    "featured": false,
    "priority": 50
  },
  {
    "geonameId": 3711709,
    "name": "Cerro Culón",
    "latitude": 7.24683,
    "longitude": -80.8705,
    "category": "Mountain",
    "subcategory": "Mountain",
    "featured": false,
    "priority": 50
  },
  {
    "geonameId": 3703291,
    "name": "Cerro Datena",
    "latitude": 8.41684,
    "longitude": -81.94924,
    "category": "Mountain",
    "subcategory": "Mountain",
    "featured": false,
    "priority": 50
  },
  {
    "geonameId": 3712948,
    "name": "Cerro de Casa",
    "latitude": 8.11893,
    "longitude": -81.56212,
    "category": "Mountain",
    "subcategory": "Mountain",
    "featured": false,
    "priority": 50
  },
  {
    "geonameId": 3709221,
    "name": "Cerro de González",
    "latitude": 7.49881,
    "longitude": -80.31414,
    "category": "Mountain",
    "subcategory": "Mountain",
    "featured": false,
    "priority": 50
  },
  {
    "geonameId": 12236720,
    "name": "Cerro de La Aclosa",
    "latitude": 8.74508,
    "longitude": -80.68594,
    "category": "Mountain",
    "subcategory": "Mountain",
    "featured": false,
    "priority": 50
  },
  {
    "geonameId": 3711814,
    "name": "Cerro de La Cruz",
    "latitude": 7.53693,
    "longitude": -81.80076,
    "category": "Mountain",
    "subcategory": "Mountain",
    "featured": false,
    "priority": 50
  },
  {
    "geonameId": 3707830,
    "name": "Cerro de La Cuchilla",
    "latitude": 7.2558,
    "longitude": -80.45178,
    "category": "Mountain",
    "subcategory": "Mountain",
    "featured": false,
    "priority": 50
  },
  {
    "geonameId": 3708759,
    "name": "Cerro de La Hambre",
    "latitude": 8.28329,
    "longitude": -81.20391,
    "category": "Mountain",
    "subcategory": "Mountain",
    "featured": false,
    "priority": 50
  },
  {
    "geonameId": 3704465,
    "name": "Cerro de La Mata de Caña",
    "latitude": 7.61853,
    "longitude": -80.76107,
    "category": "Mountain",
    "subcategory": "Mountain",
    "featured": false,
    "priority": 50
  },
  {
    "geonameId": 13449186,
    "name": "Cerro de Los Ñopos",
    "latitude": 7.58981,
    "longitude": -80.72858,
    "category": "Mountain",
    "subcategory": "Mountain",
    "featured": false,
    "priority": 50
  },
  {
    "geonameId": 3702798,
    "name": "Cerro de Los Piraguales",
    "latitude": 7.49972,
    "longitude": -80.66097,
    "category": "Mountain",
    "subcategory": "Mountain",
    "featured": false,
    "priority": 50
  },
  {
    "geonameId": 12211247,
    "name": "Cerro de Miel",
    "latitude": 8.14407,
    "longitude": -81.60963,
    "category": "Mountain",
    "subcategory": "Mountain",
    "featured": false,
    "priority": 50
  },
  {
    "geonameId": 3700594,
    "name": "Cerro de Tinta",
    "latitude": 8.12057,
    "longitude": -81.65009,
    "category": "Mountain",
    "subcategory": "Mountain",
    "featured": false,
    "priority": 50
  },
  {
    "geonameId": 3699969,
    "name": "Cerro de Yegua Buena",
    "latitude": 8.62901,
    "longitude": -80.17169,
    "category": "Mountain",
    "subcategory": "Mountain",
    "featured": false,
    "priority": 50
  },
  {
    "geonameId": 3700731,
    "name": "Cerro del Tebujo",
    "latitude": 7.61535,
    "longitude": -80.26397,
    "category": "Mountain",
    "subcategory": "Mountain",
    "featured": false,
    "priority": 50
  },
  {
    "geonameId": 12240980,
    "name": "Cerro Delgadito",
    "latitude": 8.49546,
    "longitude": -81.11644,
    "category": "Mountain",
    "subcategory": "Mountain",
    "featured": false,
    "priority": 50
  },
  {
    "geonameId": 3700721,
    "name": "Cerro Demardake Yala",
    "latitude": 9.05926,
    "longitude": -77.98425,
    "category": "Mountain",
    "subcategory": "Mountain",
    "featured": false,
    "priority": 50
  },
  {
    "geonameId": 3711651,
    "name": "Cerro Diablo",
    "latitude": 9.24786,
    "longitude": -78.43531,
    "category": "Mountain",
    "subcategory": "Mountain",
    "featured": false,
    "priority": 50
  },
  {
    "geonameId": 12299628,
    "name": "Cerro Doir",
    "latitude": 9.06325,
    "longitude": -77.93292,
    "category": "Mountain",
    "subcategory": "Mountain",
    "featured": false,
    "priority": 50
  },
  {
    "geonameId": 12202378,
    "name": "Cerro Dontitisco",
    "latitude": 9.38201,
    "longitude": -82.64166,
    "category": "Mountain",
    "subcategory": "Mountain",
    "featured": false,
    "priority": 50
  },
  {
    "geonameId": 12174835,
    "name": "Cerro Dubagan Yar",
    "latitude": 9.12297,
    "longitude": -78.00848,
    "category": "Mountain",
    "subcategory": "Mountain",
    "featured": false,
    "priority": 50
  },
  {
    "geonameId": 3711435,
    "name": "Cerro El Banco",
    "latitude": 8.72032,
    "longitude": -82.53167,
    "category": "Mountain",
    "subcategory": "Mountain",
    "featured": false,
    "priority": 50
  },
  {
    "geonameId": 3714345,
    "name": "Cerro El Barnizal",
    "latitude": 7.62487,
    "longitude": -80.29312,
    "category": "Mountain",
    "subcategory": "Mountain",
    "featured": false,
    "priority": 50
  },
  {
    "geonameId": 12198930,
    "name": "Cerro El Bongo",
    "latitude": 8.72375,
    "longitude": -82.81916,
    "category": "Mountain",
    "subcategory": "Mountain",
    "featured": false,
    "priority": 50
  },
  {
    "geonameId": 3713816,
    "name": "Cerro El Bramón",
    "latitude": 8.44984,
    "longitude": -81.26796,
    "category": "Mountain",
    "subcategory": "Mountain",
    "featured": false,
    "priority": 50
  },
  {
    "geonameId": 3711319,
    "name": "Cerro El Bujo",
    "latitude": 8.45441,
    "longitude": -81.38002,
    "category": "Mountain",
    "subcategory": "Mountain",
    "featured": false,
    "priority": 50
  },
  {
    "geonameId": 12228692,
    "name": "Cerro El Caimito",
    "latitude": 8.45589,
    "longitude": -80.94467,
    "category": "Mountain",
    "subcategory": "Mountain",
    "featured": false,
    "priority": 50
  },
  {
    "geonameId": 3711276,
    "name": "Cerro El Cajón",
    "latitude": 8.43647,
    "longitude": -81.40365,
    "category": "Mountain",
    "subcategory": "Mountain",
    "featured": false,
    "priority": 50
  },
  {
    "geonameId": 12228524,
    "name": "Cerro El Calvario",
    "latitude": 8.54514,
    "longitude": -80.92222,
    "category": "Mountain",
    "subcategory": "Mountain",
    "featured": false,
    "priority": 50
  },
  {
    "geonameId": 10348728,
    "name": "Cerro El Castillo",
    "latitude": 8.44752,
    "longitude": -80.82257,
    "category": "Mountain",
    "subcategory": "Mountain",
    "featured": false,
    "priority": 50
  },
  {
    "geonameId": 10348102,
    "name": "Cerro El Centinela",
    "latitude": 8.82767,
    "longitude": -82.75649,
    "category": "Mountain",
    "subcategory": "Mountain",
    "featured": false,
    "priority": 50
  },
  {
    "geonameId": 3711108,
    "name": "Cerro El Chumico",
    "latitude": 8.43304,
    "longitude": -81.32196,
    "category": "Mountain",
    "subcategory": "Mountain",
    "featured": false,
    "priority": 50
  },
  {
    "geonameId": 10348044,
    "name": "Cerro El Común",
    "latitude": 8.49477,
    "longitude": -82.3874,
    "category": "Mountain",
    "subcategory": "Mountain",
    "featured": false,
    "priority": 50
  },
  {
    "geonameId": 3711961,
    "name": "Cerro El Corito",
    "latitude": 7.55705,
    "longitude": -80.34356,
    "category": "Mountain",
    "subcategory": "Mountain",
    "featured": false,
    "priority": 50
  },
  {
    "geonameId": 12228620,
    "name": "Cerro El Cortado",
    "latitude": 8.41972,
    "longitude": -80.81097,
    "category": "Mountain",
    "subcategory": "Mountain",
    "featured": false,
    "priority": 50
  },
  {
    "geonameId": 12241225,
    "name": "Cerro El Cristo",
    "latitude": 8.38745,
    "longitude": -81.16375,
    "category": "Mountain",
    "subcategory": "Mountain",
    "featured": false,
    "priority": 50
  },
  {
    "geonameId": 12228612,
    "name": "Cerro El Escobal",
    "latitude": 8.48236,
    "longitude": -80.79932,
    "category": "Mountain",
    "subcategory": "Mountain",
    "featured": false,
    "priority": 50
  },
  {
    "geonameId": 3709715,
    "name": "Cerro El Eslabón",
    "latitude": 8.11188,
    "longitude": -81.49396,
    "category": "Mountain",
    "subcategory": "Mountain",
    "featured": false,
    "priority": 50
  },
  {
    "geonameId": 10348729,
    "name": "Cerro El Esquinado",
    "latitude": 8.35518,
    "longitude": -80.887,
    "category": "Mountain",
    "subcategory": "Mountain",
    "featured": false,
    "priority": 50
  },
  {
    "geonameId": 3709315,
    "name": "Cerro El Gato",
    "latitude": 8.07642,
    "longitude": -81.46744,
    "category": "Mountain",
    "subcategory": "Mountain",
    "featured": false,
    "priority": 50
  },
  {
    "geonameId": 12237015,
    "name": "Cerro El Guanábano",
    "latitude": 8.54278,
    "longitude": -80.56167,
    "category": "Mountain",
    "subcategory": "Mountain",
    "featured": false,
    "priority": 50
  },
  {
    "geonameId": 3708362,
    "name": "Cerro El Jobo",
    "latitude": 8.46665,
    "longitude": -80.67899,
    "category": "Mountain",
    "subcategory": "Mountain",
    "featured": false,
    "priority": 50
  },
  {
    "geonameId": 3704659,
    "name": "Cerro El Manguillo",
    "latitude": 7.57376,
    "longitude": -80.78014,
    "category": "Mountain",
    "subcategory": "Mountain",
    "featured": false,
    "priority": 50
  },
  {
    "geonameId": 3704114,
    "name": "Cerro El Montoso",
    "latitude": 7.57084,
    "longitude": -80.34667,
    "category": "Mountain",
    "subcategory": "Mountain",
    "featured": false,
    "priority": 50
  },
  {
    "geonameId": 3709839,
    "name": "Cerro El Ñuco",
    "latitude": 7.75756,
    "longitude": -80.79889,
    "category": "Mountain",
    "subcategory": "Mountain",
    "featured": false,
    "priority": 50
  },
  {
    "geonameId": 3703077,
    "name": "Cerro El Peñón",
    "latitude": 8.65735,
    "longitude": -79.97221,
    "category": "Mountain",
    "subcategory": "Mountain",
    "featured": false,
    "priority": 50
  },
  {
    "geonameId": 12228637,
    "name": "Cerro El Picacho",
    "latitude": 8.46517,
    "longitude": -80.79231,
    "category": "Mountain",
    "subcategory": "Mountain",
    "featured": false,
    "priority": 50
  },
  {
    "geonameId": 3710179,
    "name": "Cerro El Picacho de Olá",
    "latitude": 8.39532,
    "longitude": -80.66614,
    "category": "Mountain",
    "subcategory": "Mountain",
    "featured": false,
    "priority": 50
  },
  {
    "geonameId": 3701079,
    "name": "Cerro El Sapo",
    "latitude": 7.39856,
    "longitude": -80.60581,
    "category": "Mountain",
    "subcategory": "Mountain",
    "featured": false,
    "priority": 50
  },
  {
    "geonameId": 3700907,
    "name": "Cerro El Sol",
    "latitude": 8.09049,
    "longitude": -81.45969,
    "category": "Mountain",
    "subcategory": "Mountain",
    "featured": false,
    "priority": 50
  },
  {
    "geonameId": 3700640,
    "name": "Cerro El Tigre",
    "latitude": 7.65737,
    "longitude": -80.49785,
    "category": "Mountain",
    "subcategory": "Mountain",
    "featured": false,
    "priority": 50
  },
  {
    "geonameId": 12236804,
    "name": "Cerro El Tigrero",
    "latitude": 8.62609,
    "longitude": -80.6874,
    "category": "Mountain",
    "subcategory": "Mountain",
    "featured": false,
    "priority": 50
  },
  {
    "geonameId": 3709814,
    "name": "Cerro El Viejo",
    "latitude": 8.80582,
    "longitude": -79.99611,
    "category": "Mountain",
    "subcategory": "Mountain",
    "featured": false,
    "priority": 50
  },
  {
    "geonameId": 3709777,
    "name": "Cerro Enjalma",
    "latitude": 8.64776,
    "longitude": -82.2667,
    "category": "Mountain",
    "subcategory": "Mountain",
    "featured": false,
    "priority": 50
  },
  {
    "geonameId": 3709767,
    "name": "Cerro Ensillado",
    "latitude": 8.18576,
    "longitude": -81.48964,
    "category": "Mountain",
    "subcategory": "Mountain",
    "featured": false,
    "priority": 50
  },
  {
    "geonameId": 3709738,
    "name": "Cerro Escobal",
    "latitude": 8.43333,
    "longitude": -82,
    "category": "Mountain",
    "subcategory": "Mountain",
    "featured": false,
    "priority": 50
  },
  {
    "geonameId": 12198495,
    "name": "Cerro Escopeta",
    "latitude": 8.50142,
    "longitude": -81.78652,
    "category": "Mountain",
    "subcategory": "Mountain",
    "featured": false,
    "priority": 50
  },
  {
    "geonameId": 12241018,
    "name": "Cerro Escuchadero",
    "latitude": 8.43291,
    "longitude": -81.04009,
    "category": "Mountain",
    "subcategory": "Mountain",
    "featured": false,
    "priority": 50
  },
  {
    "geonameId": 10348399,
    "name": "Cerro Escuera",
    "latitude": 8.75766,
    "longitude": -80.35031,
    "category": "Mountain",
    "subcategory": "Mountain",
    "featured": false,
    "priority": 50
  },
  {
    "geonameId": 12221782,
    "name": "Cerro Espavé",
    "latitude": 8.52243,
    "longitude": -81.43534,
    "category": "Mountain",
    "subcategory": "Mountain",
    "featured": false,
    "priority": 50
  },
  {
    "geonameId": 3709678,
    "name": "Cerro Espinazo de Caballo",
    "latitude": 7.5,
    "longitude": -80.3,
    "category": "Mountain",
    "subcategory": "Mountain",
    "featured": false,
    "priority": 50
  },
  {
    "geonameId": 3709658,
    "name": "Cerro Esquinao",
    "latitude": 8.31505,
    "longitude": -81.07655,
    "category": "Mountain",
    "subcategory": "Mountain",
    "featured": false,
    "priority": 50
  },
  {
    "geonameId": 3709626,
    "name": "Cerro Fábrega",
    "latitude": 9.11701,
    "longitude": -82.8744,
    "category": "Mountain",
    "subcategory": "Mountain",
    "featured": false,
    "priority": 50
  },
  {
    "geonameId": 3709584,
    "name": "Cerro Fifanero",
    "latitude": 8.31898,
    "longitude": -81.09456,
    "category": "Mountain",
    "subcategory": "Mountain",
    "featured": false,
    "priority": 50
  },
  {
    "geonameId": 12228017,
    "name": "Cerro Filipina",
    "latitude": 8.50517,
    "longitude": -80.87293,
    "category": "Mountain",
    "subcategory": "Mountain",
    "featured": false,
    "priority": 50
  },
  {
    "geonameId": 12236807,
    "name": "Cerro Flamenco",
    "latitude": 8.6151,
    "longitude": -80.63088,
    "category": "Mountain",
    "subcategory": "Mountain",
    "featured": false,
    "priority": 50
  },
  {
    "geonameId": 3709515,
    "name": "Cerro Florecita",
    "latitude": 7.5602,
    "longitude": -80.44701,
    "category": "Mountain",
    "subcategory": "Mountain",
    "featured": false,
    "priority": 50
  },
  {
    "geonameId": 3709506,
    "name": "Cerro Flores",
    "latitude": 8.47603,
    "longitude": -81.76222,
    "category": "Mountain",
    "subcategory": "Mountain",
    "featured": false,
    "priority": 50
  },
  {
    "geonameId": 3709481,
    "name": "Cerro Fortuna",
    "latitude": 8.7391,
    "longitude": -82.26685,
    "category": "Mountain",
    "subcategory": "Mountain",
    "featured": false,
    "priority": 50
  },
  {
    "geonameId": 12198494,
    "name": "Cerro Frijoles",
    "latitude": 8.5152,
    "longitude": -81.77087,
    "category": "Mountain",
    "subcategory": "Mountain",
    "featured": false,
    "priority": 50
  },
  {
    "geonameId": 3709522,
    "name": "Cerro Frionera",
    "latitude": 8.50398,
    "longitude": -81.31542,
    "category": "Mountain",
    "subcategory": "Mountain",
    "featured": false,
    "priority": 50
  },
  {
    "geonameId": 3709437,
    "name": "Cerro Gago",
    "latitude": 8.47447,
    "longitude": -81.62823,
    "category": "Mountain",
    "subcategory": "Mountain",
    "featured": false,
    "priority": 50
  },
  {
    "geonameId": 3709432,
    "name": "Cerro Gaital",
    "latitude": 8.62446,
    "longitude": -80.12334,
    "category": "Mountain",
    "subcategory": "Mountain",
    "featured": false,
    "priority": 50
  },
  {
    "geonameId": 12299752,
    "name": "Cerro Galed Yar",
    "latitude": 8.68757,
    "longitude": -77.59472,
    "category": "Mountain",
    "subcategory": "Mountain",
    "featured": false,
    "priority": 50
  },
  {
    "geonameId": 3709425,
    "name": "Cerro Galera",
    "latitude": 8.92542,
    "longitude": -79.62372,
    "category": "Mountain",
    "subcategory": "Mountain",
    "featured": false,
    "priority": 50
  },
  {
    "geonameId": 3709415,
    "name": "Cerro Galgo",
    "latitude": 8.11414,
    "longitude": -81.58296,
    "category": "Mountain",
    "subcategory": "Mountain",
    "featured": false,
    "priority": 50
  },
  {
    "geonameId": 12299623,
    "name": "Cerro Galigan Yala",
    "latitude": 9.05174,
    "longitude": -77.9783,
    "category": "Mountain",
    "subcategory": "Mountain",
    "featured": false,
    "priority": 50
  },
  {
    "geonameId": 3709404,
    "name": "Cerro Gallina",
    "latitude": 8.39668,
    "longitude": -81.98444,
    "category": "Mountain",
    "subcategory": "Mountain",
    "featured": false,
    "priority": 50
  },
  {
    "geonameId": 3709397,
    "name": "Cerro Gallinazo",
    "latitude": 8.64485,
    "longitude": -79.9425,
    "category": "Mountain",
    "subcategory": "Mountain",
    "featured": false,
    "priority": 50
  },
  {
    "geonameId": 12224206,
    "name": "Cerro Gallo",
    "latitude": 8.76224,
    "longitude": -81.4586,
    "category": "Mountain",
    "subcategory": "Mountain",
    "featured": false,
    "priority": 50
  },
  {
    "geonameId": 12228484,
    "name": "Cerro Gallón",
    "latitude": 8.5191,
    "longitude": -80.99667,
    "category": "Mountain",
    "subcategory": "Mountain",
    "featured": false,
    "priority": 50
  },
  {
    "geonameId": 3709382,
    "name": "Cerro Gallote",
    "latitude": 8.36158,
    "longitude": -81.46494,
    "category": "Mountain",
    "subcategory": "Mountain",
    "featured": false,
    "priority": 50
  },
  {
    "geonameId": 12270239,
    "name": "Cerro Gansip",
    "latitude": 9.34384,
    "longitude": -78.44936,
    "category": "Mountain",
    "subcategory": "Mountain",
    "featured": false,
    "priority": 50
  },
  {
    "geonameId": 12299465,
    "name": "Cerro Gansui Yar",
    "latitude": 8.88602,
    "longitude": -77.79371,
    "category": "Mountain",
    "subcategory": "Mountain",
    "featured": false,
    "priority": 50
  },
  {
    "geonameId": 12174837,
    "name": "Cerro Gardup Yar",
    "latitude": 9.11064,
    "longitude": -77.99087,
    "category": "Mountain",
    "subcategory": "Mountain",
    "featured": false,
    "priority": 50
  },
  {
    "geonameId": 10348054,
    "name": "Cerro Garnucha",
    "latitude": 8.62846,
    "longitude": -82.06839,
    "category": "Mountain",
    "subcategory": "Mountain",
    "featured": false,
    "priority": 50
  },
  {
    "geonameId": 12299786,
    "name": "Cerro Garsibyar Dealed",
    "latitude": 8.60623,
    "longitude": -77.57069,
    "category": "Mountain",
    "subcategory": "Mountain",
    "featured": false,
    "priority": 50
  },
  {
    "geonameId": 10194266,
    "name": "Cerro Garsibyar Nacualed",
    "latitude": 8.62718,
    "longitude": -77.58369,
    "category": "Mountain",
    "subcategory": "Mountain",
    "featured": false,
    "priority": 50
  },
  {
    "geonameId": 3709316,
    "name": "Cerro Gato",
    "latitude": 8.37601,
    "longitude": -81.81831,
    "category": "Mountain",
    "subcategory": "Mountain",
    "featured": false,
    "priority": 50
  },
  {
    "geonameId": 3709274,
    "name": "Cerro Gavillán",
    "latitude": 8.36747,
    "longitude": -81.47003,
    "category": "Mountain",
    "subcategory": "Mountain",
    "featured": false,
    "priority": 50
  },
  {
    "geonameId": 12224844,
    "name": "Cerro Gleglena",
    "latitude": 8.69118,
    "longitude": -81.49103,
    "category": "Mountain",
    "subcategory": "Mountain",
    "featured": false,
    "priority": 50
  },
  {
    "geonameId": 12245800,
    "name": "Cerro Gobadú",
    "latitude": 8.62798,
    "longitude": -81.61391,
    "category": "Mountain",
    "subcategory": "Mountain",
    "featured": false,
    "priority": 50
  },
  {
    "geonameId": 12299464,
    "name": "Cerro Goegaladi Yar",
    "latitude": 8.88311,
    "longitude": -77.7725,
    "category": "Mountain",
    "subcategory": "Mountain",
    "featured": false,
    "priority": 50
  },
  {
    "geonameId": 12236952,
    "name": "Cerro Golondrina",
    "latitude": 8.53777,
    "longitude": -80.67328,
    "category": "Mountain",
    "subcategory": "Mountain",
    "featured": false,
    "priority": 50
  },
  {
    "geonameId": 3709229,
    "name": "Cerro Golondrino",
    "latitude": 8.71113,
    "longitude": -79.98046,
    "category": "Mountain",
    "subcategory": "Mountain",
    "featured": false,
    "priority": 50
  },
  {
    "geonameId": 3709190,
    "name": "Cerro Gordo",
    "latitude": 8.74165,
    "longitude": -82.65376,
    "category": "Mountain",
    "subcategory": "Mountain",
    "featured": false,
    "priority": 50
  },
  {
    "geonameId": 12215191,
    "name": "Cerro Gorgojo",
    "latitude": 7.92041,
    "longitude": -81.46466,
    "category": "Mountain",
    "subcategory": "Mountain",
    "featured": false,
    "priority": 50
  },
  {
    "geonameId": 3709185,
    "name": "Cerro Gotera",
    "latitude": 8.57571,
    "longitude": -80.47036,
    "category": "Mountain",
    "subcategory": "Mountain",
    "featured": false,
    "priority": 50
  },
  {
    "geonameId": 3709152,
    "name": "Cerro Grande",
    "latitude": 8.61092,
    "longitude": -80.48878,
    "category": "Mountain",
    "subcategory": "Mountain",
    "featured": false,
    "priority": 50
  },
  {
    "geonameId": 3709018,
    "name": "Cerro Grito",
    "latitude": 8.39069,
    "longitude": -81.67313,
    "category": "Mountain",
    "subcategory": "Mountain",
    "featured": false,
    "priority": 50
  },
  {
    "geonameId": 12190789,
    "name": "Cerro Guabal",
    "latitude": 8.65671,
    "longitude": -82.27963,
    "category": "Mountain",
    "subcategory": "Mountain",
    "featured": false,
    "priority": 50
  },
  {
    "geonameId": 3708973,
    "name": "Cerro Guacal",
    "latitude": 8.73767,
    "longitude": -82.30263,
    "category": "Mountain",
    "subcategory": "Mountain",
    "featured": false,
    "priority": 50
  },
  {
    "geonameId": 3708961,
    "name": "Cerro Guacamaya",
    "latitude": 8.51285,
    "longitude": -80.46707,
    "category": "Mountain",
    "subcategory": "Mountain",
    "featured": false,
    "priority": 50
  },
  {
    "geonameId": 3708955,
    "name": "Cerro Guaco",
    "latitude": 8.43328,
    "longitude": -81.76517,
    "category": "Mountain",
    "subcategory": "Mountain",
    "featured": false,
    "priority": 50
  },
  {
    "geonameId": 10348350,
    "name": "Cerro Guaisón",
    "latitude": 8.72881,
    "longitude": -80.96485,
    "category": "Mountain",
    "subcategory": "Mountain",
    "featured": false,
    "priority": 50
  },
  {
    "geonameId": 12194334,
    "name": "Cerro Gualaquita",
    "latitude": 8.56689,
    "longitude": -82.19788,
    "category": "Mountain",
    "subcategory": "Mountain",
    "featured": false,
    "priority": 50
  },
  {
    "geonameId": 12240964,
    "name": "Cerro Guanábano",
    "latitude": 8.42724,
    "longitude": -81.09628,
    "category": "Mountain",
    "subcategory": "Mountain",
    "featured": false,
    "priority": 50
  },
  {
    "geonameId": 3708936,
    "name": "Cerro Guanche",
    "latitude": 9.51118,
    "longitude": -79.64057,
    "category": "Mountain",
    "subcategory": "Mountain",
    "featured": false,
    "priority": 50
  },
  {
    "geonameId": 3708932,
    "name": "Cerro Guánico",
    "latitude": 7.37013,
    "longitude": -80.45978,
    "category": "Mountain",
    "subcategory": "Mountain",
    "featured": false,
    "priority": 50
  },
  {
    "geonameId": 3708921,
    "name": "Cerro Guaraní",
    "latitude": 8.41521,
    "longitude": -81.8206,
    "category": "Mountain",
    "subcategory": "Mountain",
    "featured": false,
    "priority": 50
  },
  {
    "geonameId": 3708898,
    "name": "Cerro Guárico",
    "latitude": 8.69632,
    "longitude": -82.43845,
    "category": "Mountain",
    "subcategory": "Mountain",
    "featured": false,
    "priority": 50
  },
  {
    "geonameId": 3708877,
    "name": "Cerro Guarumal",
    "latitude": 8.73084,
    "longitude": -79.77794,
    "category": "Mountain",
    "subcategory": "Mountain",
    "featured": false,
    "priority": 50
  },
  {
    "geonameId": 3708878,
    "name": "Cerro Guarumo",
    "latitude": 8.41844,
    "longitude": -81.85403,
    "category": "Mountain",
    "subcategory": "Mountain",
    "featured": false,
    "priority": 50
  },
  {
    "geonameId": 3708868,
    "name": "Cerro Guásimo",
    "latitude": 8.47946,
    "longitude": -81.91483,
    "category": "Mountain",
    "subcategory": "Mountain",
    "featured": false,
    "priority": 50
  },
  {
    "geonameId": 10348351,
    "name": "Cerro Guayabalito",
    "latitude": 8.74002,
    "longitude": -80.77565,
    "category": "Mountain",
    "subcategory": "Mountain",
    "featured": false,
    "priority": 50
  },
  {
    "geonameId": 13449421,
    "name": "Cerro Guayabito",
    "latitude": 8.54912,
    "longitude": -81.48409,
    "category": "Mountain",
    "subcategory": "Mountain",
    "featured": false,
    "priority": 50
  },
  {
    "geonameId": 3708834,
    "name": "Cerro Guayabo",
    "latitude": 8.78064,
    "longitude": -82.25925,
    "category": "Mountain",
    "subcategory": "Mountain",
    "featured": false,
    "priority": 50
  },
  {
    "geonameId": 3708827,
    "name": "Cerro Guayabo Blanco",
    "latitude": 8.72724,
    "longitude": -82.3327,
    "category": "Mountain",
    "subcategory": "Mountain",
    "featured": false,
    "priority": 50
  },