[
  {
    "geonameId": 2101444,
    "name": "Aawa Island",
    "latitude": -1.95515,
    "longitude": 146.61891,
    "category": "Island",
    "subcategory": "Island",
    "featured": false,
    "priority": 50
  },
  {
    "geonameId": 2134011,
    "name": "Aba Evara Islet",
    "latitude": -10.95258,
    "longitude": 152.697,
    "category": "Island",
    "subcategory": "Island",
    "featured": false,
    "priority": 50
  },
  {
    "geonameId": 2134007,
    "name": "Abau Island",
    "latitude": -10.18028,
    "longitude": 148.70284,
    "category": "Island",
    "subcategory": "Island",
    "featured": false,
    "priority": 50
  },
  {
    "geonameId": 2101425,
    "name": "Abaura Island",
    "latitude": -8.46667,
    "longitude": 143.56667,
    "category": "Island",
    "subcategory": "Island",
    "featured": false,
    "priority": 50
  },
  {
    "geonameId": 2101426,
    "name": "Abaurai Island",
    "latitude": -8.49766,
    "longitude": 143.63173,
    "category": "Island",
    "subcategory": "Island",
    "featured": false,
    "priority": 50
  },
  {
    "geonameId": 2134006,
    "name": "Abavi Island",
    "latitude": -10.1794,
    "longitude": 148.72159,
    "category": "Island",
    "subcategory": "Island",
    "featured": false,
    "priority": 50
  },
  {
    "geonameId": 2101402,
    "name": "Ablaugul Island",
    "latitude": -6.1,
    "longitude": 149.03333,
    "category": "Island",
    "subcategory": "Island",
    "featured": false,
    "priority": 50
  },
  {
    "geonameId": 2101399,
    "name": "Ablingi Island",
    "latitude": -6.29854,
    "longitude": 150.07508,
    "category": "Island",
    "subcategory": "Island",
    "featured": false,
    "priority": 50
  },
  {
    "geonameId": 2101395,
    "name": "Abo Island",
    "latitude": -8.33948,
    "longitude": 143.07982,
    "category": "Island",
    "subcategory": "Island",
    "featured": false,
    "priority": 50
  },
  {
    "geonameId": 8425422,
    "name": "Abowat Island",
    "latitude": -11.114,
    "longitude": 152.316,
    "category": "Island",
    "subcategory": "Island",
    "featured": false,
    "priority": 50
  },
  {
    "geonameId": 2101387,
    "name": "Abrupt Mountain",
    "latitude": -4.57505,
    "longitude": 142.42086,
    "category": "Mountain",
    "subcategory": "Mountain",
    "featured": false,
    "priority": 50
  },
  {
    "geonameId": 2101380,
    "name": "Abukiri Island",
    "latitude": -7.45042,
    "longitude": 145.13319,
    "category": "Island",
    "subcategory": "Island",
    "featured": false,
    "priority": 50
  },
  {
    "geonameId": 2101378,
    "name": "Aburu Island",
    "latitude": -7.46996,
    "longitude": 147.36506,
    "category": "Island",
    "subcategory": "Island",
    "featured": false,
    "priority": 50
  },
  {
    "geonameId": 2101555,
    "name": "Adabadana Kawa Island",
    "latitude": -9.2,
    "longitude": 142.03333,
    "category": "Island",
    "subcategory": "Island",
    "featured": false,
    "priority": 50
  },
  {
    "geonameId": 2101364,
    "name": "Adiwi Island",
    "latitude": -6.27317,
    "longitude": 150.0408,
    "category": "Island",
    "subcategory": "Island",
    "featured": false,
    "priority": 50
  },
  {
    "geonameId": 2101359,
    "name": "Admiralty Islands",
    "latitude": -2.24338,
    "longitude": 147.40859,
    "category": "Island",
    "subcategory": "Island Group",
    "featured": false,
    "priority": 50
  },
  {
    "geonameId": 2101358,
    "name": "Admosin Island",
    "latitude": -5.08095,
    "longitude": 145.79906,
    "category": "Island",
    "subcategory": "Island",
    "featured": false,
    "priority": 50
  },
  {
    "geonameId": 2101357,
    "name": "Adolf Mountain",
    "latitude": -7.75,
    "longitude": 147.55,
    "category": "Mountain",
    "subcategory": "Mountain",
    "featured": false,
    "priority": 50
  },
  {
    "geonameId": 2101350,
    "name": "Aeginimi Islands",
    "latitude": -8.34173,
    "longitude": 142.93158,
    "category": "Island",
    "subcategory": "Island Group",
    "featured": false,
    "priority": 50
  },
  {
    "geonameId": 2101346,
    "name": "Aesake Lagoon",
    "latitude": -7.39229,
    "longitude": 141.38166,
    "category": "Lake",
    "subcategory": "Lake",
    "featured": false,
    "priority": 50
  },
  {
    "geonameId": 2101281,
    "name": "Agur Island",
    "latitude": -6.28265,
    "longitude": 150.27577,
    "category": "Island",
    "subcategory": "Island",
    "featured": false,
    "priority": 50
  },
  {
    "geonameId": 2101272,
    "name": "Ahet Island",
    "latitude": -1.9081,
    "longitude": 146.60363,
    "category": "Island",
    "subcategory": "Island",
    "featured": false,
    "priority": 50
  },
  {
    "geonameId": 2101265,
    "name": "Ahowa-Hui Island",
    "latitude": -4.45003,
    "longitude": 159.39541,
    "category": "Island",
    "subcategory": "Island",
    "featured": false,
    "priority": 50
  },
  {
    "geonameId": 2101264,
    "name": "Ahowu Roto Island",
    "latitude": -4.58333,
    "longitude": 159.36667,
    "category": "Island",
    "subcategory": "Island",
    "featured": false,
    "priority": 50
  },
  {
    "geonameId": 2101262,
    "name": "Ahu Island",
    "latitude": -2.34392,
    "longitude": 146.86902,
    "category": "Island",
    "subcategory": "Island",
    "featured": false,
    "priority": 50
  },
  {
    "geonameId": 2101250,
    "name": "Aiaisina Island",
    "latitude": -6.85048,
    "longitude": 155.8394,
    "category": "Island",
    "subcategory": "Island",
    "featured": false,
    "priority": 50
  },
  {
    "geonameId": 2101243,
    "name": "Aibinio Island",
    "latitude": -8.45409,
    "longitude": 143.5351,
    "category": "Island",
    "subcategory": "Island",
    "featured": false,
    "priority": 50
  },
  {
    "geonameId": 2101220,
    "name": "Ailo Island",
    "latitude": -4.80193,
    "longitude": 151.67286,
    "category": "Island",
    "subcategory": "Island",
    "featured": false,
    "priority": 50
  },
  {
    "geonameId": 2101209,
    "name": "Aimoli Mountain",
    "latitude": -5.85296,
    "longitude": 143.86777,
    "category": "Mountain",
    "subcategory": "Mountain",
    "featured": false,
    "priority": 50
  },
  {
    "geonameId": 2101206,
    "name": "Aina Lagoon",
    "latitude": -7.38326,
    "longitude": 141.44529,
    "category": "Lake",
    "subcategory": "Lake",
    "featured": false,
    "priority": 50
  },
  {
    "geonameId": 2101173,
    "name": "Ais Islet",
    "latitude": -6.22,
    "longitude": 149.54929,
    "category": "Island",
    "subcategory": "Island",
    "featured": false,
    "priority": 50
  },
  {
    "geonameId": 2101169,
    "name": "Aitape",
    "latitude": -3.13697,
    "longitude": 142.34913,
    "category": "City",
    "subcategory": "City",
    "featured": false,
    "priority": 50
  },
  {
    "geonameId": 2101163,
    "name": "Aiun",
    "latitude": -9.29595,
    "longitude": 152.83324,
    "category": "Island",
    "subcategory": "Island",
    "featured": false,
    "priority": 50
  },
  {
    "geonameId": 2101153,
    "name": "Aivet Island",
    "latitude": -6.29321,
    "longitude": 149.95732,
    "category": "Island",
    "subcategory": "Island",
    "featured": false,
    "priority": 50
  },
  {
    "geonameId": 2101114,
    "name": "Akani Island",
    "latitude": -3.33333,
    "longitude": 154.71667,
    "category": "Island",
    "subcategory": "Island",
    "featured": false,
    "priority": 50
  },
  {
    "geonameId": 2101070,
    "name": "Alage Island",
    "latitude": -6.31752,
    "longitude": 149.80969,
    "category": "Island",
    "subcategory": "Island",
    "featured": false,
    "priority": 50
  },
  {
    "geonameId": 2101058,
    "name": "Alas Islands",
    "latitude": -4.65,
    "longitude": 153.06667,
    "category": "Island",
    "subcategory": "Island Group",
    "featured": false,
    "priority": 50
  },
  {
    "geonameId": 2101044,
    "name": "Alcester Island",
    "latitude": -9.55489,
    "longitude": 152.43967,
    "category": "Island",
    "subcategory": "Island",
    "featured": false,
    "priority": 50
  },
  {
    "geonameId": 2101043,
    "name": "Alcester Islands",
    "latitude": -9.55,
    "longitude": 152.41667,
    "category": "Island",
    "subcategory": "Island Group",
    "featured": false,
    "priority": 50
  },
  {
    "geonameId": 2133996,
    "name": "Aleford Islands",
    "latitude": -10.35,
    "longitude": 150.36667,
    "category": "Island",
    "subcategory": "Island Group",
    "featured": false,
    "priority": 50
  },
  {
    "geonameId": 2101040,
    "name": "Alele Island",
    "latitude": -7.83333,
    "longitude": 145.21667,
    "category": "Island",
    "subcategory": "Island",
    "featured": false,
    "priority": 50
  },
  {
    "geonameId": 2101026,
    "name": "Ali Island",
    "latitude": -3.12736,
    "longitude": 142.4696,
    "category": "Island",
    "subcategory": "Island",
    "featured": false,
    "priority": 50
  },
  {
    "geonameId": 2101022,
    "name": "Alim Island",
    "latitude": -2.893,
    "longitude": 147.05984,
    "category": "Island",
    "subcategory": "Island",
    "featured": false,
    "priority": 50
  },
  {
    "geonameId": 2133993,
    "name": "Allemata",
    "latitude": -10.43333,
    "longitude": 150.35,
    "category": "Mountain",
    "subcategory": "Mountain",
    "featured": false,
    "priority": 50
  },
  {
    "geonameId": 2101011,
    "name": "Alligator Island",
    "latitude": -8.12935,
    "longitude": 141.98796,
    "category": "Island",
    "subcategory": "Island",
    "featured": false,
    "priority": 50
  },
  {
    "geonameId": 2133990,
    "name": "Alotau",
    "latitude": -10.31509,
    "longitude": 150.45742,
    "category": "City",
    "subcategory": "Regional Capital",
    "featured": false,
    "priority": 50
  },
  {
    "geonameId": 2101000,
    "name": "Altair",
    "latitude": -5.01667,
    "longitude": 141.08333,
    "category": "Mountain",
    "subcategory": "Mountain",
    "featured": false,
    "priority": 50
  },
  {
    "geonameId": 2100999,
    "name": "Alton Island",
    "latitude": -2.62665,
    "longitude": 150.45253,
    "category": "Island",
    "subcategory": "Island",
    "featured": false,
    "priority": 50
  },
  {
    "geonameId": 2113864,
    "name": "Alungokaku Island",
    "latitude": -6.95,
    "longitude": 155.36667,
    "category": "Island",
    "subcategory": "Island",
    "featured": false,
    "priority": 50
  },
  {
    "geonameId": 8435619,
    "name": "Amatuna Island",
    "latitude": -10.24569,
    "longitude": 151.86411,
    "category": "Island",
    "subcategory": "Island",
    "featured": false,
    "priority": 50
  },
  {
    "geonameId": 2133984,
    "name": "Amazon Islets",
    "latitude": -10.33333,
    "longitude": 149.33333,
    "category": "Island",
    "subcategory": "Island Group",
    "featured": false,
    "priority": 50
  },
  {
    "geonameId": 2100952,
    "name": "Ambitle Island",
    "latitude": -4.08093,
    "longitude": 153.62148,
    "category": "Island",
    "subcategory": "Island",
    "featured": false,
    "priority": 50
  },
  {
    "geonameId": 2100942,
    "name": "Ambua Peaks",
    "latitude": -5.85,
    "longitude": 143.1,
    "category": "Mountain",
    "subcategory": "Peak",
    "featured": false,
    "priority": 50
  },
  {
    "geonameId": 2100934,
    "name": "Ambungi Island",
    "latitude": -6.30187,
    "longitude": 149.82745,
    "category": "Island",
    "subcategory": "Island",
    "featured": false,
    "priority": 50
  },
  {
    "geonameId": 2100930,
    "name": "Ambunti Hill",
    "latitude": -4.22385,
    "longitude": 142.80682,
    "category": "Mountain",
    "subcategory": "Mountain",
    "featured": false,
    "priority": 50
  },
  {
    "geonameId": 2100922,
    "name": "Ameisen Island",
    "latitude": -6.25385,
    "longitude": 150.43684,
    "category": "Island",
    "subcategory": "Island",
    "featured": false,
    "priority": 50
  },
  {
    "geonameId": 11979106,
    "name": "Ameisen Island (historical)",
    "latitude": -5.53325,
    "longitude": 155.0391,
    "category": "Island",
    "subcategory": "Island",
    "featured": false,
    "priority": 50
  },
  {
    "geonameId": 2100908,
    "name": "Amer Lagoon",
    "latitude": -4.28454,
    "longitude": 142.76974,
    "category": "Lake",
    "subcategory": "Lake",
    "featured": false,
    "priority": 50
  },
  {
    "geonameId": 2100910,
    "name": "Amerer Island",
    "latitude": -6.2758,
    "longitude": 150.38409,
    "category": "Island",
    "subcategory": "Island",
    "featured": false,
    "priority": 50
  },
  {
    "geonameId": 2100905,
    "name": "Amge Island",
    "latitude": -6.31265,
    "longitude": 149.7909,
    "category": "Island",
    "subcategory": "Island",
    "featured": false,
    "priority": 50
  },
  {
    "geonameId": 2100895,
    "name": "Ami Island",
    "latitude": -1.24335,
    "longitude": 144.35631,
    "category": "Island",
    "subcategory": "Island",
    "featured": false,
    "priority": 50
  },
  {
    "geonameId": 2100875,
    "name": "Amor Islands",
    "latitude": -2.15,
    "longitude": 146.51667,
    "category": "Island",
    "subcategory": "Island Group",
    "featured": false,
    "priority": 50
  },
  {
    "geonameId": 11962547,
    "name": "Amot Island",
    "latitude": -1.27084,
    "longitude": 144.33202,
    "category": "Island",
    "subcategory": "Island",
    "featured": false,
    "priority": 50
  },
  {
    "geonameId": 2100874,
    "name": "Amot Island (historical)",
    "latitude": -1.55572,
    "longitude": 144.96652,
    "category": "Island",
    "subcategory": "Island",
    "featured": false,
    "priority": 50
  },
  {
    "geonameId": 2100873,
    "name": "Amphlett Group",
    "latitude": -9.25,
    "longitude": 150.83333,
    "category": "Island",
    "subcategory": "Island Group",
    "featured": false,
    "priority": 50
  },
  {
    "geonameId": 2100871,
    "name": "Ampul Island",
    "latitude": -6.31667,
    "longitude": 149.86667,
    "category": "Island",
    "subcategory": "Island",
    "featured": false,
    "priority": 50
  },
  {
    "geonameId": 2133981,
    "name": "Ana Karu Karua",
    "latitude": -10.91667,
    "longitude": 150.78333,
    "category": "Island",
    "subcategory": "Island",
    "featured": false,
    "priority": 50
  },
  {
    "geonameId": 2100845,
    "name": "Analtin Island",
    "latitude": -1.14898,
    "longitude": 144.41686,
    "category": "Island",
    "subcategory": "Island",
    "featured": false,
    "priority": 50
  },
  {
    "geonameId": 2100807,
    "name": "Andra Island",
    "latitude": -1.93884,
    "longitude": 147.00305,
    "category": "Island",
    "subcategory": "Island",
    "featured": false,
    "priority": 50
  },
  {
    "geonameId": 2100799,
    "name": "Anelaua Island",
    "latitude": -2.57407,
    "longitude": 150.48538,
    "category": "Island",
    "subcategory": "Island",
    "featured": false,
    "priority": 50
  },
  {
    "geonameId": 2114198,
    "name": "Anelik",
    "latitude": -2.55833,
    "longitude": 150.48694,
    "category": "Island",
    "subcategory": "Island",
    "featured": false,
    "priority": 50
  },
  {
    "geonameId": 2100777,
    "name": "Angel Island",
    "latitude": -3.15908,
    "longitude": 142.48911,
    "category": "Island",
    "subcategory": "Island",
    "featured": false,
    "priority": 50
  },
  {
    "geonameId": 2100763,
    "name": "Angoram Village",
    "latitude": -4.0518,
    "longitude": 144.0728,
    "category": "City",
    "subcategory": "County Seat",
    "featured": false,
    "priority": 50
  },
  {
    "geonameId": 2100759,
    "name": "Angup Island",
    "latitude": -6.1,
    "longitude": 149.01667,
    "category": "Island",
    "subcategory": "Island",
    "featured": false,
    "priority": 50
  },
  {
    "geonameId": 2100847,
    "name": "Anobat Island",
    "latitude": -2.31115,
    "longitude": 147.53709,
    "category": "Island",
    "subcategory": "Island",
    "featured": false,
    "priority": 50
  },
  {
    "geonameId": 2113863,
    "name": "Antarara Island",
    "latitude": -6.94167,
    "longitude": 155.36667,
    "category": "Island",
    "subcategory": "Island",
    "featured": false,
    "priority": 50
  },
  {
    "geonameId": 2100731,
    "name": "Anum Island",
    "latitude": -2.31403,
    "longitude": 146.86153,
    "category": "Island",
    "subcategory": "Island",
    "featured": false,
    "priority": 50
  },
  {
    "geonameId": 2100728,
    "name": "Anur Island",
    "latitude": -2.1,
    "longitude": 146.55,
    "category": "Island",
    "subcategory": "Island",
    "featured": false,
    "priority": 50
  },
  {
    "geonameId": 2100726,
    "name": "Anuro Island",
    "latitude": -6.2801,
    "longitude": 150.26862,
    "category": "Island",
    "subcategory": "Island",
    "featured": false,
    "priority": 50
  },
  {
    "geonameId": 2100724,
    "name": "Anusagari Island",
    "latitude": -6.0721,
    "longitude": 155.52236,
    "category": "Island",
    "subcategory": "Island",
    "featured": false,
    "priority": 50
  },
  {
    "geonameId": 2100725,
    "name": "Anusagaro Island",
    "latitude": -6.06123,
    "longitude": 155.50974,
    "category": "Island",
    "subcategory": "Island",
    "featured": false,
    "priority": 50
  },
  {
    "geonameId": 2100723,
    "name": "Anusau Island",
    "latitude": -1.67811,
    "longitude": 149.90579,
    "category": "Island",
    "subcategory": "Island",
    "featured": false,
    "priority": 50
  },
  {
    "geonameId": 2100683,
    "name": "Apuo Island",
    "latitude": -9.31867,
    "longitude": 150.85477,
    "category": "Island",
    "subcategory": "Island",
    "featured": false,
    "priority": 50
  },
  {
    "geonameId": 2100663,
    "name": "Araltamu Island",
    "latitude": -5.89568,
    "longitude": 148.05037,
    "category": "Island",
    "subcategory": "Island",
    "featured": false,
    "priority": 50
  },
  {
    "geonameId": 2100657,
    "name": "Aramia Island",
    "latitude": -8.01585,
    "longitude": 143.4535,
    "category": "Island",
    "subcategory": "Island",
    "featured": false,
    "priority": 50
  },
  {
    "geonameId": 2100635,
    "name": "Araupa Island",
    "latitude": -9.01667,
    "longitude": 149.28333,
    "category": "Island",
    "subcategory": "Island",
    "featured": false,
    "priority": 50
  },
  {
    "geonameId": 2100633,
    "name": "Arawa",
    "latitude": -6.22977,
    "longitude": 155.56598,
    "category": "City",
    "subcategory": "County Seat",
    "featured": false,
    "priority": 50
  },
  {
    "geonameId": 2100628,
    "name": "Arawe Island",
    "latitude": -6.16575,
    "longitude": 149.0192,
    "category": "Island",
    "subcategory": "Island",
    "featured": false,
    "priority": 50
  },
  {
    "geonameId": 2100627,
    "name": "Arawe Islands",
    "latitude": -6.102,
    "longitude": 148.99826,
    "category": "Island",
    "subcategory": "Island Group",
    "featured": false,
    "priority": 50
  },
  {
    "geonameId": 2133969,
    "name": "Arch Islands",
    "latitude": -10.71347,
    "longitude": 150.63375,
    "category": "Island",
    "subcategory": "Island Group",
    "featured": false,
    "priority": 50
  },
  {
    "geonameId": 2100603,
    "name": "Ariati Mountain",
    "latitude": -6.44855,
    "longitude": 146.63025,
    "category": "Mountain",
    "subcategory": "Mountain",
    "featured": false,
    "priority": 50
  },
  {
    "geonameId": 2100592,
    "name": "Arili Island",
    "latitude": -6.29674,
    "longitude": 150.06355,
    "category": "Island",
    "subcategory": "Island",
    "featured": false,
    "priority": 50
  },
  {
    "geonameId": 2100587,
    "name": "Arimegi Island",
    "latitude": -5.46667,
    "longitude": 148.95,
    "category": "Island",
    "subcategory": "Island",
    "featured": false,
    "priority": 50
  },
  {
    "geonameId": 8435614,
    "name": "Arinai Islet",
    "latitude": -9.10931,
    "longitude": 151.04332,
    "category": "Island",
    "subcategory": "Island",
    "featured": false,
    "priority": 50
  },
  {
    "geonameId": 2100565,
    "name": "Aris Island",
    "latitude": -3.99607,
    "longitude": 144.96563,
    "category": "Island",
    "subcategory": "Island",
    "featured": false,
    "priority": 50
  },
  {
    "geonameId": 2100542,
    "name": "Aromot Island",
    "latitude": -5.80126,
    "longitude": 148.05153,
    "category": "Island",
    "subcategory": "Island",
    "featured": false,
    "priority": 50
  },
  {
    "geonameId": 2100540,
    "name": "Aronaimutu Island",
    "latitude": -5.78777,
    "longitude": 147.9449,
    "category": "Island",
    "subcategory": "Island",
    "featured": false,
    "priority": 50
  },
  {
    "geonameId": 2100528,
    "name": "Arowak Island",
    "latitude": -6.1,
    "longitude": 149.41667,
    "category": "Island",
    "subcategory": "Island",
    "featured": false,
    "priority": 50
  },
  {
    "geonameId": 2100527,
    "name": "Arowe Island",
    "latitude": -1.99334,
    "longitude": 146.60847,
    "category": "Island",
    "subcategory": "Island",
    "featured": false,
    "priority": 50
  },
  {
    "geonameId": 2100496,
    "name": "Asaingida Lagoon",
    "latitude": -5.11667,
    "longitude": 144.78333,
    "category": "Lake",
    "subcategory": "Lake",
    "featured": false,
    "priority": 50
  },
  {
    "geonameId": 2113430,
    "name": "Atlas Island",
    "latitude": -4.65,
    "longitude": 153.03333,
    "category": "Island",
    "subcategory": "Island",
    "featured": false,
    "priority": 50
  },
  {
    "geonameId": 2133959,
    "name": "Atuio Island",
    "latitude": -10.01337,
    "longitude": 150.91543,
    "category": "Island",
    "subcategory": "Island",
    "featured": false,
    "priority": 50
  },
  {
    "geonameId": 2100357,
    "name": "Au Island",
    "latitude": -2.46667,
    "longitude": 149.95,
    "category": "Island",
    "subcategory": "Island",
    "featured": false,
    "priority": 50
  },
  {
    "geonameId": 2100376,
    "name": "Aua Island",
    "latitude": -1.46381,
    "longitude": 143.05933,
    "category": "Island",
    "subcategory": "Island",
    "featured": false,
    "priority": 50
  },
  {
    "geonameId": 2100339,
    "name": "Auna Island",
    "latitude": -7.81667,
    "longitude": 145.18333,
    "category": "Island",
    "subcategory": "Island",
    "featured": false,
    "priority": 50
  },
  {
    "geonameId": 2133956,
    "name": "Auriroa Island",
    "latitude": -10.80628,
    "longitude": 151.92173,
    "category": "Island",
    "subcategory": "Island",
    "featured": false,
    "priority": 50
  },
  {
    "geonameId": 2133955,
    "name": "Aurobu Islet",
    "latitude": -11.14641,
    "longitude": 152.69266,
    "category": "Island",
    "subcategory": "Island",
    "featured": false,
    "priority": 50
  },
  {
    "geonameId": 2100303,
    "name": "Ausak Island",
    "latitude": -6.14922,
    "longitude": 149.01374,
    "category": "Island",
    "subcategory": "Island",
    "featured": false,
    "priority": 50
  },
  {
    "geonameId": 2100284,
    "name": "Avahain Island",
    "latitude": -6.27477,
    "longitude": 150.36783,
    "category": "Island",
    "subcategory": "Island",
    "featured": false,
    "priority": 50
  },
  {
    "geonameId": 2100276,
    "name": "Avatip Lagoon",
    "latitude": -4.17971,
    "longitude": 142.92767,
    "category": "Lake",
    "subcategory": "Lake",
    "featured": false,
    "priority": 50
  },
  {
    "geonameId": 2100250,
    "name": "Avungai Island",
    "latitude": -6.13333,
    "longitude": 149.01667,
    "category": "Island",
    "subcategory": "Island",
    "featured": false,
    "priority": 50
  },
  {
    "geonameId": 2100232,
    "name": "Awang Island",
    "latitude": -6.1,
    "longitude": 149.05,
    "category": "Island",
    "subcategory": "Island",
    "featured": false,
    "priority": 50
  },
  {
    "geonameId": 2100216,
    "name": "Awaruat Island",
    "latitude": -3.2,
    "longitude": 151.56667,
    "category": "Island",
    "subcategory": "Island",
    "featured": false,
    "priority": 50
  },
  {
    "geonameId": 2100210,
    "name": "Aweleng Island",
    "latitude": -6.3,
    "longitude": 149.51667,
    "category": "Island",
    "subcategory": "Island",
    "featured": false,
    "priority": 50
  },
  {
    "geonameId": 2100209,
    "name": "Aweleng Islands",
    "latitude": -6.31012,
    "longitude": 149.50484,
    "category": "Island",
    "subcategory": "Island Group",
    "featured": false,
    "priority": 50
  },
  {
    "geonameId": 2100205,
    "name": "Awin Island",
    "latitude": -1.64693,
    "longitude": 144.02956,
    "category": "Island",
    "subcategory": "Island",
    "featured": false,
    "priority": 50
  },
  {
    "geonameId": 2100195,
    "name": "Awoi-Hi",
    "latitude": -9.41667,
    "longitude": 148.16667,
    "category": "Mountain",
    "subcategory": "Mountain",
    "featured": false,
    "priority": 50
  },
  {
    "geonameId": 2100189,
    "name": "Awrin Island",
    "latitude": -6.28934,
    "longitude": 150.32276,
    "category": "Island",
    "subcategory": "Island",
    "featured": false,
    "priority": 50
  },
  {
    "geonameId": 2100188,
    "name": "Awuane Islet",
    "latitude": -1.74074,
    "longitude": 142.82244,
    "category": "Island",
    "subcategory": "Island",
    "featured": false,
    "priority": 50
  },
  {
    "geonameId": 2100187,
    "name": "Awulu Islands",
    "latitude": -2.20194,
    "longitude": 147.14805,
    "category": "Island",
    "subcategory": "Island Group",
    "featured": false,
    "priority": 50
  },
  {
    "geonameId": 2133940,
    "name": "Babagarai Islet",
    "latitude": -10.67056,
    "longitude": 151.12194,
    "category": "Island",
    "subcategory": "Island",
    "featured": false,
    "priority": 50
  },
  {
    "geonameId": 2100173,
    "name": "Babagutu Island",
    "latitude": -7.73387,
    "longitude": 147.62787,
    "category": "Island",
    "subcategory": "Island",
    "featured": false,
    "priority": 50
  },
  {
    "geonameId": 2100171,
    "name": "Babaibari Island",
    "latitude": -7.68407,
    "longitude": 144.3067,
    "category": "Island",
    "subcategory": "Island",
    "featured": false,
    "priority": 50
  },
  {
    "geonameId": 2100166,
    "name": "Babase Island",
    "latitude": -4.0141,
    "longitude": 153.71288,
    "category": "Island",
    "subcategory": "Island",
    "featured": false,
    "priority": 50
  },
  {
    "geonameId": 2133935,
    "name": "Badila Bedda Bedda Bonarua Island",
    "latitude": -10.75836,
    "longitude": 150.38196,
    "category": "Island",
    "subcategory": "Island",
    "featured": false,
    "priority": 50
  },
  {
    "geonameId": 11979214,
    "name": "Badis Island",
    "latitude": -5.1054,
    "longitude": 145.80696,
    "category": "Island",
    "subcategory": "Island",
    "featured": false,
    "priority": 50
  },
  {
    "geonameId": 2100145,
    "name": "Badu Island",
    "latitude": -8.46654,
    "longitude": 143.1568,
    "category": "Island",
    "subcategory": "Island",
    "featured": false,
    "priority": 50
  },
  {
    "geonameId": 2100138,
    "name": "Bagabag Island",
    "latitude": -4.79355,
    "longitude": 146.22808,
    "category": "Island",
    "subcategory": "Island",
    "featured": false,
    "priority": 50
  },
  {
    "geonameId": 2133930,
    "name": "Bagai Um Islet",
    "latitude": -10.84397,
    "longitude": 152.96033,
    "category": "Island",
    "subcategory": "Island",
    "featured": false,
    "priority": 50
  },
  {
    "geonameId": 2133929,
    "name": "Bagaman Island",
    "latitude": -11.13455,
    "longitude": 152.69045,
    "category": "Island",
    "subcategory": "Island",
    "featured": false,
    "priority": 50
  },
  {
    "geonameId": 2133928,
    "name": "Bagamoti Island",
    "latitude": -10.66667,
    "longitude": 150.8,
    "category": "Island",
    "subcategory": "Island",
    "featured": false,
    "priority": 50
  },
  {
    "geonameId": 2100120,
    "name": "Bagiagia Island",
    "latitude": -9.36665,
    "longitude": 150.40828,
    "category": "Island",
    "subcategory": "Island",
    "featured": false,
    "priority": 50
  },
  {
    "geonameId": 11962535,
    "name": "Bahanat Island",
    "latitude": -1.2378,
    "longitude": 144.31465,
    "category": "Island",
    "subcategory": "Island",
    "featured": false,
    "priority": 50
  },
  {
    "geonameId": 2100088,
    "name": "Bai Lagoon",
    "latitude": -7.36755,
    "longitude": 141.17745,
    "category": "Lake",
    "subcategory": "Lake",
    "featured": false,
    "priority": 50
  },
  {
    "geonameId": 2133923,
    "name": "Baia Baia Karona",
    "latitude": -10.76667,
    "longitude": 150.68333,
    "category": "Island",
    "subcategory": "Island",
    "featured": false,
    "priority": 50
  },
  {
    "geonameId": 2100103,
    "name": "Baiabe Island",
    "latitude": -8.33333,
    "longitude": 143.31667,
    "category": "Island",
    "subcategory": "Island",
    "featured": false,
    "priority": 50
  },
  {
    "geonameId": 2133918,
    "name": "Baibara Island",
    "latitude": -10.36054,
    "longitude": 149.60146,
    "category": "Island",
    "subcategory": "Island",
    "featured": false,
    "priority": 50
  },
  {
    "geonameId": 2133914,
    "name": "Baiiri Island",
    "latitude": -10.9,
    "longitude": 150.75,
    "category": "Island",
    "subcategory": "Island",
    "featured": false,
    "priority": 50
  },
  {
    "geonameId": 2100091,
    "name": "Baikai Island",
    "latitude": -6.3,
    "longitude": 155.85,
    "category": "Island",
    "subcategory": "Island",
    "featured": false,
    "priority": 50
  },
  {
    "geonameId": 2113429,
    "name": "Baimsin Island",
    "latitude": -3.88333,
    "longitude": 152.83333,
    "category": "Island",
    "subcategory": "Island",
    "featured": false,
    "priority": 50
  },
  {
    "geonameId": 2133907,
    "name": "Baiwa Islet",
    "latitude": -10.80492,
    "longitude": 152.99035,
    "category": "Island",
    "subcategory": "Island",
    "featured": false,
    "priority": 50
  },
  {
    "geonameId": 2100045,
    "name": "Bakawari Island",
    "latitude": -6.2,
    "longitude": 155.66179,
    "category": "Island",
    "subcategory": "Island",
    "featured": false,
    "priority": 50
  },
  {
    "geonameId": 2100041,
    "name": "Bakoba Island",
    "latitude": -5.45,
    "longitude": 150.83333,
    "category": "Island",
    "subcategory": "Island",
    "featured": false,
    "priority": 50
  },
  {
    "geonameId": 2100012,
    "name": "Balang Island",
    "latitude": -2.59403,
    "longitude": 150.45979,
    "category": "Island",
    "subcategory": "Island",
    "featured": false,
    "priority": 50
  },
  {
    "geonameId": 2099976,
    "name": "Baluan Island",
    "latitude": -2.55817,
    "longitude": 147.28372,
    "category": "Island",
    "subcategory": "Island",
    "featured": false,
    "priority": 50
  },
  {
    "geonameId": 2099973,
    "name": "Balum Island",
    "latitude": -3.98333,
    "longitude": 153.7,
    "category": "Island",
    "subcategory": "Island",
    "featured": false,
    "priority": 50
  },
  {
    "geonameId": 11979064,
    "name": "Balum Island (historical)",
    "latitude": -3.99999,
    "longitude": 153.70335,
    "category": "Island",
    "subcategory": "Island",
    "featured": false,
    "priority": 50
  },
  {
    "geonameId": 2098963,
    "name": "Balumara Island",
    "latitude": -1.97032,
    "longitude": 146.47701,
    "category": "Island",
    "subcategory": "Island",
    "featured": false,
    "priority": 50
  },
  {
    "geonameId": 2099951,
    "name": "Bam Island",
    "latitude": -3.61288,
    "longitude": 144.82015,
    "category": "Island",
    "subcategory": "Island",
    "featured": false,
    "priority": 50
  },
  {
    "geonameId": 2099965,
    "name": "Bamal Island",
    "latitude": -6.3,
    "longitude": 149.75,
    "category": "Island",
    "subcategory": "Island",
    "featured": false,
    "priority": 50
  },
  {
    "geonameId": 2099958,
    "name": "Bamboo Mountain",
    "latitude": -4.71822,
    "longitude": 142.42742,
    "category": "Mountain",
    "subcategory": "Mountain",
    "featured": false,
    "priority": 50
  },
  {
    "geonameId": 2099956,
    "name": "Bamfu Lake",
    "latitude": -4.64257,
    "longitude": 144.60722,
    "category": "Lake",
    "subcategory": "Lake",
    "featured": false,
    "priority": 50
  },
  {
    "geonameId": 2099930,
    "name": "Banban Island",
    "latitude": -4.9004,
    "longitude": 151.04718,
    "category": "Island",
    "subcategory": "Island",
    "featured": false,
    "priority": 50
  },
  {
    "geonameId": 2099917,
    "name": "Bangatang Island",
    "latitude": -2.62534,
    "longitude": 150.58991,
    "category": "Island",
    "subcategory": "Island",
    "featured": false,
    "priority": 50
  },
  {
    "geonameId": 2099906,
    "name": "Bangulangula Island",
    "latitude": -5.47793,
    "longitude": 150.86226,
    "category": "Island",
    "subcategory": "Island",
    "featured": false,
    "priority": 50
  },
  {
    "geonameId": 2099893,
    "name": "Bannon Lookout",
    "latitude": -7.55,
    "longitude": 146.6,
    "category": "Mountain",
    "subcategory": "Mountain",
    "featured": false,
    "priority": 50
  },
  {
    "geonameId": 2099871,
    "name": "Barahun Island",
    "latitude": -4.49559,
    "longitude": 154.16691,
    "category": "Island",
    "subcategory": "Island",
    "featured": false,
    "priority": 50
  },
  {
    "geonameId": 2099845,
    "name": "Barek Island",
    "latitude": -5.01667,
    "longitude": 145.8,
    "category": "Island",
    "subcategory": "Island",
    "featured": false,
    "priority": 50
  },
  {
    "geonameId": 2099824,
    "name": "Baronga Island",
    "latitude": -6.25029,
    "longitude": 150.47012,
    "category": "Island",
    "subcategory": "Island",
    "featured": false,
    "priority": 50
  },
  {
    "geonameId": 2133894,
    "name": "Barragolo Island",
    "latitude": -10.15,
    "longitude": 148.26667,
    "category": "Island",
    "subcategory": "Island",
    "featured": false,
    "priority": 50
  },
  {
    "geonameId": 2099817,
    "name": "Barrier Islands",
    "latitude": -9.37172,
    "longitude": 150.39847,
    "category": "Island",
    "subcategory": "Island Group",
    "featured": false,
    "priority": 50
  },
  {
    "geonameId": 2099809,
    "name": "Baruanumu Hill",
    "latitude": -9.43333,
    "longitude": 147.56667,
    "category": "Mountain",
    "subcategory": "Mountain",
    "featured": false,
    "priority": 50
  },
  {
    "geonameId": 2133890,
    "name": "Basilaki Island",
    "latitude": -10.61433,
    "longitude": 150.98469,
    "category": "Island",
    "subcategory": "Island",
    "featured": false,
    "priority": 50
  },
  {
    "geonameId": 2133888,
    "name": "Basses Island",
    "latitude": -10.94474,
    "longitude": 152.71834,
    "category": "Island",
    "subcategory": "Island",
    "featured": false,
    "priority": 50
  },
  {
    "geonameId": 2133887,
    "name": "Basses Islands",
    "latitude": -10.94394,
    "longitude": 152.71189,
    "category": "Island",
    "subcategory": "Island Group",
    "featured": false,
    "priority": 50
  },
  {
    "geonameId": 2099780,
    "name": "Bat Islands",
    "latitude": -2.84563,
    "longitude": 146.24053,
    "category": "Island",
    "subcategory": "Island Group",
    "featured": false,
    "priority": 50
  },
  {
    "geonameId": 2099776,
    "name": "Bat-Tam Island",
    "latitude": -2.67394,
    "longitude": 150.34776,
    "category": "Island",
    "subcategory": "Island",
    "featured": false,
    "priority": 50
  },
  {
    "geonameId": 2099775,
    "name": "Batteru Island",
    "latitude": -7.35057,
    "longitude": 147.21737,
    "category": "Island",
    "subcategory": "Island",
    "featured": false,
    "priority": 50
  },
  {
    "geonameId": 2099762,
    "name": "Bau Island",
    "latitude": -7.88214,
    "longitude": 147.71101,
    "category": "Island",
    "subcategory": "Island",
    "featured": false,
    "priority": 50
  },
  {
    "geonameId": 2099767,
    "name": "Baudisson Island",
    "latitude": -2.72831,
    "longitude": 150.66883,
    "category": "Island",
    "subcategory": "Island",
    "featured": false,
    "priority": 50
  },
  {
    "geonameId": 2099749,
    "name": "Bavo Island",
    "latitude": -9.42545,
    "longitude": 146.93536,
    "category": "Island",
    "subcategory": "Island",
    "featured": false,
    "priority": 50
  },
  {
    "geonameId": 2099748,
    "name": "Bawareboine Island",
    "latitude": -6.28333,
    "longitude": 155.73333,
    "category": "Island",
    "subcategory": "Island",
    "featured": false,
    "priority": 50
  },
  {
    "geonameId": 2099736,
    "name": "Beaver Falls",
    "latitude": -6.75991,
    "longitude": 143.62375,
    "category": "Waterfall",
    "subcategory": "Waterfall",
    "featured": false,
    "priority": 50
  },
  {
    "geonameId": 2099715,
    "name": "Bei",
    "latitude": -6.98333,
    "longitude": 141.16667,
    "category": "Lake",
    "subcategory": "Lake",
    "featured": false,
    "priority": 50
  },
  {
    "geonameId": 2133875,
    "name": "Beika Island",
    "latitude": -10.65,
    "longitude": 150.73333,
    "category": "Island",
    "subcategory": "Island",
    "featured": false,
    "priority": 50
  },
  {
    "geonameId": 2099686,
    "name": "Beliau Island",
    "latitude": -5.20152,
    "longitude": 145.80346,
    "category": "Island",
    "subcategory": "Island",
    "featured": false,
    "priority": 50
  },
  {
    "geonameId": 2099682,
    "name": "Beligila Island",
    "latitude": -2.63559,
    "longitude": 149.66334,
    "category": "Island",
    "subcategory": "Island",
    "featured": false,
    "priority": 50
  },
  {
    "geonameId": 2099672,
    "name": "Belobeloia Island",
    "latitude": -9.25164,
    "longitude": 150.75414,
    "category": "Island",
    "subcategory": "Island",
    "featured": false,
    "priority": 50
  },
  {
    "geonameId": 2099656,
    "name": "Bena Gap",
    "latitude": -5.99291,
    "longitude": 145.56452,
    "category": "Mountain",
    "subcategory": "Mountain Pass",
    "featured": false,
    "priority": 50
  },
  {
    "geonameId": 2099632,
    "name": "Bennet Island",
    "latitude": -8.38333,
    "longitude": 142.7,
    "category": "Island",
    "subcategory": "Island",
    "featured": false,
    "priority": 50
  },
  {
    "geonameId": 2133870,
    "name": "Bentley Island",
    "latitude": -10.71419,
    "longitude": 151.24088,
    "category": "Island",
    "subcategory": "Island",
    "featured": false,
    "priority": 50
  },
  {
    "geonameId": 2099627,
    "name": "Benukanare Island",
    "latitude": -4.68114,
    "longitude": 149.50391,
    "category": "Island",
    "subcategory": "Island",
    "featured": false,
    "priority": 50
  },
  {
    "geonameId": 2099598,
    "name": "Beroro Pass",
    "latitude": -5.06936,
    "longitude": 141.0795,
    "category": "Mountain",
    "subcategory": "Mountain Pass",
    "featured": false,
    "priority": 50
  },
  {
    "geonameId": 2099584,
    "name": "Bevan Island",
    "latitude": -7,
    "longitude": 145.16667,
    "category": "Island",
    "subcategory": "Island",
    "featured": false,
    "priority": 50
  },
  {
    "geonameId": 2099575,
    "name": "Bezoa",
    "latitude": -9.2,
    "longitude": 147.71667,
    "category": "Mountain",
    "subcategory": "Mountain",
    "featured": false,
    "priority": 50
  },
  {
    "geonameId": 2099562,
    "name": "Bialao Island",
    "latitude": -9.23978,
    "longitude": 150.75433,
    "category": "Island",
    "subcategory": "Island",
    "featured": false,
    "priority": 50
  },
  {
    "geonameId": 2099524,
    "name": "Bienen Islands",
    "latitude": -7.56473,
    "longitude": 147.4333,
    "category": "Island",
    "subcategory": "Island Group",
    "featured": false,
    "priority": 50
  },
  {
    "geonameId": 2099514,
    "name": "Big Embi",
    "latitude": -8.81667,
    "longitude": 148.33333,
    "category": "Lake",
    "subcategory": "Lake",
    "featured": false,
    "priority": 50
  },
  {
    "geonameId": 2099510,
    "name": "Big Malumalu Island",
    "latitude": -5.23346,
    "longitude": 150.101,
    "category": "Island",
    "subcategory": "Island",
    "featured": false,
    "priority": 50
  },
  {
    "geonameId": 2099507,
    "name": "Big Ndrova Island",
    "latitude": -2.22107,
    "longitude": 147.23416,
    "category": "Island",
    "subcategory": "Island",
    "featured": false,
    "priority": 50
  },
  {
    "geonameId": 2099506,
    "name": "Big Pigeon Island",
    "latitude": -4.26879,
    "longitude": 152.34484,
    "category": "Island",
    "subcategory": "Island",
    "featured": false,
    "priority": 50
  },
  {
    "geonameId": 2099502,
    "name": "Biimba Lagoon",
    "latitude": -4.27033,
    "longitude": 142.90381,
    "category": "Lake",
    "subcategory": "Lake",
    "featured": false,
    "priority": 50
  },
  {
    "geonameId": 2099492,
    "name": "Bil Bil Island",
    "latitude": -5.29783,
    "longitude": 145.78027,
    "category": "Island",
    "subcategory": "Island",
    "featured": false,
    "priority": 50
  },
  {
    "geonameId": 11962564,
    "name": "Bilapalap Island",
    "latitude": -1.11161,
    "longitude": 144.41949,
    "category": "Island",
    "subcategory": "Island",
    "featured": false,
    "priority": 50
  },
  {
    "geonameId": 2099487,
    "name": "Bilihe Island",
    "latitude": -5.44621,
    "longitude": 149.63946,
    "category": "Island",
    "subcategory": "Island",
    "featured": false,
    "priority": 50
  },
  {
    "geonameId": 2099462,
    "name": "Binakomata Island",
    "latitude": -7.08333,
    "longitude": 141.98333,
    "category": "Island",
    "subcategory": "Island",
    "featured": false,
    "priority": 50
  },
  {
    "geonameId": 2099450,
    "name": "Bingbingseng Island",
    "latitude": -2.46794,
    "longitude": 150.48485,
    "category": "Island",
    "subcategory": "Island",
    "featured": false,
    "priority": 50
  },
  {
    "geonameId": 2099440,
    "name": "Binnen Island",
    "latitude": -6.27224,
    "longitude": 150.39959,
    "category": "Island",
    "subcategory": "Island",
    "featured": false,
    "priority": 50
  },
  {
    "geonameId": 2099433,
    "name": "Bion Island",
    "latitude": -4.48599,
    "longitude": 154.1668,
    "category": "Island",
    "subcategory": "Island",
    "featured": false,
    "priority": 50
  },
  {
    "geonameId": 2099428,
    "name": "Bipi Island",
    "latitude": -2.11131,
    "longitude": 146.39713,
    "category": "Island",
    "subcategory": "Island",
    "featured": false,
    "priority": 50
  },
  {
    "geonameId": 11962560,
    "name": "Bircha Island",
    "latitude": -1.16434,
    "longitude": 144.40262,
    "category": "Island",
    "subcategory": "Island",
    "featured": false,
    "priority": 50
  },
  {
    "geonameId": 2099398,
    "name": "Bismarck Archipelago",
    "latitude": -5,
    "longitude": 150,
    "category": "Island",
    "subcategory": "Island Group",
    "featured": false,
    "priority": 50
  },
  {
    "geonameId": 2099378,
    "name": "Bit Island",
    "latitude": -4.2079,
    "longitude": 153.07066,
    "category": "Island",
    "subcategory": "Island",
    "featured": false,
    "priority": 50
  },
  {
    "geonameId": 2099381,
    "name": "Bitbok Island",
    "latitude": -3.50937,
    "longitude": 153.21399,
    "category": "Island",
    "subcategory": "Island",
    "featured": false,
    "priority": 50
  },
  {
    "geonameId": 2099379,
    "name": "Bitiku Island",
    "latitude": -5.5,
    "longitude": 149.1,
    "category": "Island",
    "subcategory": "Island",
    "featured": false,
    "priority": 50
  },
  {
    "geonameId": 2099376,
    "name": "Bitkangkunmale Island",
    "latitude": -3.38692,
    "longitude": 153.25106,
    "category": "Island",
    "subcategory": "Island",
    "featured": false,
    "priority": 50
  },
  {
    "geonameId": 2099375,
    "name": "Bitkesinmer Island",
    "latitude": -3.37698,
    "longitude": 153.25988,
    "category": "Island",
    "subcategory": "Island",
    "featured": false,
    "priority": 50
  },
  {
    "geonameId": 2099374,
    "name": "Bitlik Island",
    "latitude": -3.50492,
    "longitude": 153.21478,
    "category": "Island",
    "subcategory": "Island",
    "featured": false,
    "priority": 50
  },
  {
    "geonameId": 2099354,
    "name": "Black Cat Pass",
    "latitude": -7.30068,
    "longitude": 146.80211,
    "category": "Mountain",
    "subcategory": "Mountain Pass",
    "featured": false,
    "priority": 50
  },
  {
    "geonameId": 2099353,
    "name": "Black Hill",
    "latitude": -5.67181,
    "longitude": 144.2382,
    "category": "Mountain",
    "subcategory": "Mountain",
    "featured": false,
    "priority": 50
  },
  {
    "geonameId": 2133853,
    "name": "Blakeney Island",
    "latitude": -10.43044,
    "longitude": 151.2209,
    "category": "Island",
    "subcategory": "Island",
    "featured": false,
    "priority": 50
  },
  {
    "geonameId": 2099331,
    "name": "Block Peak",
    "latitude": -4.42505,
    "longitude": 141.16485,
    "category": "Mountain",
    "subcategory": "Peak",
    "featured": false,
    "priority": 50
  },
  {
    "geonameId": 2099321,
    "name": "Blup Blup Island",
    "latitude": -3.50607,
    "longitude": 144.60422,
    "category": "Island",
    "subcategory": "Island",
    "featured": false,
    "priority": 50
  },
  {
    "geonameId": 2133850,
    "name": "Boadia",
    "latitude": -10.48333,
    "longitude": 150.38333,
    "category": "Mountain",
    "subcategory": "Mountain",
    "featured": false,
    "priority": 50
  },
  {
    "geonameId": 2099314,
    "name": "Boang Island",
    "latitude": -3.38333,
    "longitude": 153.3,
    "category": "Island",
    "subcategory": "Island",
    "featured": false,
    "priority": 50
  },
  {
    "geonameId": 2133848,
    "name": "Bobo Eina Island",
    "latitude": -11.1276,
    "longitude": 152.73332,
    "category": "Island",
    "subcategory": "Island",
    "featured": false,
    "priority": 50
  },
  {
    "geonameId": 2099305,
    "name": "Boboa Island",
    "latitude": -7.01667,
    "longitude": 141.5,
    "category": "Island",
    "subcategory": "Island",
    "featured": false,
    "priority": 50
  },
  {
    "geonameId": 2133849,
    "name": "Boboa Islet",
    "latitude": -11.47791,
    "longitude": 153.57149,
    "category": "Island",
    "subcategory": "Island",
    "featured": false,
    "priority": 50
  },
  {
    "geonameId": 2133842,
    "name": "Boia Boia Waga Island",
    "latitude": -10.20943,
    "longitude": 150.90509,
    "category": "Island",
    "subcategory": "Island",
    "featured": false,
    "priority": 50
  },
  {
    "geonameId": 2099246,
    "name": "Boinagi Island",
    "latitude": -8.41723,
    "longitude": 150.89175,
    "category": "Island",
    "subcategory": "Island",
    "featured": false,
    "priority": 50
  },
  {
    "geonameId": 2133837,
    "name": "Boirama Island",
    "latitude": -10.28453,
    "longitude": 151.0492,
    "category": "Island",
    "subcategory": "Island",
    "featured": false,
    "priority": 50
  },
  {
    "geonameId": 2099221,
    "name": "Bolain Island",
    "latitude": -3.30384,
    "longitude": 151.72549,
    "category": "Island",
    "subcategory": "Island",
    "featured": false,
    "priority": 50
  },
  {
    "geonameId": 2099210,
    "name": "Boliu Island",
    "latitude": -1.53857,
    "longitude": 149.64878,
    "category": "Island",
    "subcategory": "Island",
    "featured": false,
    "priority": 50
  },
  {
    "geonameId": 2099199,
    "name": "Bomapau Island",
    "latitude": -8.58333,
    "longitude": 151.1,
    "category": "Island",
    "subcategory": "Island",
    "featured": false,
    "priority": 50
  },
  {
    "geonameId": 2133830,
    "name": "Bona Bona Island",
    "latitude": -10.49545,
    "longitude": 149.84475,
    "category": "Island",
    "subcategory": "Island",
    "featured": false,
    "priority": 50
  },
  {
    "geonameId": 2099184,
    "name": "Bona Motu",
    "latitude": -9.53083,
    "longitude": 147.30277,
    "category": "Island",
    "subcategory": "Island",
    "featured": false,
    "priority": 50
  },
  {
    "geonameId": 2133827,
    "name": "Bona Rua Dai Daiwa",
    "latitude": -10.71667,
    "longitude": 150.71667,
    "category": "Island",
    "subcategory": "Island",
    "featured": false,
    "priority": 50
  },
  {
    "geonameId": 2133826,
    "name": "Bonarua Hili Hili",
    "latitude": -10.61254,
    "longitude": 150.624,
    "category": "Island",
    "subcategory": "Island",
    "featured": false,
    "priority": 50
  },
  {
    "geonameId": 2133825,
    "name": "Bonarua Tau Tau Pusuri Island",
    "latitude": -10.66667,
    "longitude": 150.48333,
    "category": "Island",
    "subcategory": "Island",
    "featured": false,
    "priority": 50
  },
  {
    "geonameId": 2133823,
    "name": "Bonna Bonnawan",
    "latitude": -10.80701,
    "longitude": 152.19886,
    "category": "Island",
    "subcategory": "Island",
    "featured": false,
    "priority": 50
  },
  {
    "geonameId": 2133822,
    "name": "Bonna Wan Islet",
    "latitude": -11.13153,
    "longitude": 152.65831,
    "category": "Island",
    "subcategory": "Island",
    "featured": false,
    "priority": 50
  },
  {
    "geonameId": 2133820,
    "name": "Bonvouloir Islands and Reefs",
    "latitude": -10.28403,
    "longitude": 151.88997,
    "category": "Island",
    "subcategory": "Island Group",
    "featured": false,
    "priority": 50
  },
  {
    "geonameId": 2099110,
    "name": "Bornega Mountain",
    "latitude": -5.04549,
    "longitude": 142.54814,
    "category": "Mountain",
    "subcategory": "Mountain",
    "featured": false,
    "priority": 50
  },
  {
    "geonameId": 2099097,
    "name": "Boromura Island",
    "latitude": -8.51667,
    "longitude": 143.28333,
    "category": "Island",
    "subcategory": "Island",
    "featured": false,
    "priority": 50
  },
  {
    "geonameId": 2113883,
    "name": "Borono Island",
    "latitude": -2.05,
    "longitude": 147.31667,
    "category": "Island",
    "subcategory": "Island",
    "featured": false,
    "priority": 50
  },
  {
    "geonameId": 2096202,
    "name": "Bosset Lagoon",
    "latitude": -7.22489,
    "longitude": 141.10363,
    "category": "Lake",
    "subcategory": "Lake",
    "featured": false,
    "priority": 50
  },
  {
    "geonameId": 2099059,
    "name": "Bougainville Island",
    "latitude": -6.25182,
    "longitude": 155.36247,
    "category": "Island",
    "subcategory": "Island",
    "featured": false,
    "priority": 50
  },
  {
    "geonameId": 2099039,
    "name": "Boyen Island",
    "latitude": -7.46667,
    "longitude": 147.23333,
    "category": "Island",
    "subcategory": "Island",
    "featured": false,
    "priority": 50
  },
  {
    "geonameId": 2133803,
    "name": "Brethren Isles",
    "latitude": -10.14154,
    "longitude": 148.27631,
    "category": "Island",
    "subcategory": "Island Group",
    "featured": false,
    "priority": 50
  },
  {
    "geonameId": 2099022,
    "name": "Brians Hill",
    "latitude": -5.81201,
    "longitude": 145.71276,
    "category": "Mountain",
    "subcategory": "Mountain",
    "featured": false,
    "priority": 50
  },
  {
    "geonameId": 2099021,
    "name": "Bricelon Island",
    "latitude": -4.80699,
    "longitude": 145.75706,
    "category": "Island",
    "subcategory": "Island",
    "featured": false,
    "priority": 50
  },
  {
    "geonameId": 2133800,
    "name": "Bright Island",
    "latitude": -10.53361,
    "longitude": 151.21271,
    "category": "Island",
    "subcategory": "Island",
    "featured": false,
    "priority": 50
  },
  {
    "geonameId": 2099018,
    "name": "Brinoka Gap",
    "latitude": -2.86667,
    "longitude": 141.03333,
    "category": "Mountain",
    "subcategory": "Mountain Pass",
    "featured": false,
    "priority": 50
  },
  {
    "geonameId": 2099015,
    "name": "Bristow Island",
    "latitude": -9.12147,
    "longitude": 143.24153,
    "category": "Island",
    "subcategory": "Island",
    "featured": false,
    "priority": 50
  },
  {
    "geonameId": 2099005,
    "name": "Browne Island",
    "latitude": -1.93333,
    "longitude": 146.61667,
    "category": "Island",
    "subcategory": "Island",
    "featured": false,
    "priority": 50
  },
  {
    "geonameId": 2133797,
    "name": "Brumer Islands",
    "latitude": -10.76231,
    "longitude": 150.40142,
    "category": "Island",
    "subcategory": "Island Group",
    "featured": false,
    "priority": 50
  },
  {
    "geonameId": 11961669,
    "name": "Brumer Peak",
    "latitude": -10.75457,
    "longitude": 150.38397,
    "category": "Mountain",
    "subcategory": "Peak",
    "featured": false,
    "priority": 50
  },
  {
    "geonameId": 2098982,
    "name": "Bubenjirin Mountain",
    "latitude": -6.9749,
    "longitude": 146.75237,
    "category": "Mountain",
    "subcategory": "Mountain",
    "featured": false,
    "priority": 50
  },
  {
    "geonameId": 2098964,
    "name": "Buceros Island",
    "latitude": -8.32954,
    "longitude": 142.43902,
    "category": "Island",
    "subcategory": "Island",
    "featured": false,
    "priority": 50
  },
  {
    "geonameId": 2098957,
    "name": "Budelun Island",
    "latitude": -9.29103,
    "longitude": 153.69217,
    "category": "Island",
    "subcategory": "Island",
    "featured": false,
    "priority": 50
  },
  {
    "geonameId": 2098947,
    "name": "Buess Island",
    "latitude": -4.11667,
    "longitude": 141.03333,
    "category": "Island",
    "subcategory": "Island",
    "featured": false,
    "priority": 50
  },
  {
    "geonameId": 2098938,
    "name": "Bugi Island",
    "latitude": -6.24577,
    "longitude": 149.54429,
    "category": "Island",
    "subcategory": "Island",
    "featured": false,
    "priority": 50
  },
  {
    "geonameId": 8714539,
    "name": "Buka",
    "latitude": -5.43261,
    "longitude": 154.67098,
    "category": "City",
    "subcategory": "Regional Capital",
    "featured": false,
    "priority": 50
  },
  {
    "geonameId": 2098913,
    "name": "Buka Island",
    "latitude": -5.23105,
    "longitude": 154.63069,
    "category": "Island",
    "subcategory": "Island",
    "featured": false,
    "priority": 50
  },
  {
    "geonameId": 2098897,
    "name": "Bukulan Island",
    "latitude": -9.30334,
    "longitude": 153.67716,
    "category": "Island",
    "subcategory": "Island",
    "featured": false,
    "priority": 50
  },
  {
    "geonameId": 2098875,
    "name": "Buliva Lake",
    "latitude": -4.10483,
    "longitude": 144.70804,
    "category": "Lake",
    "subcategory": "Lake",
    "featured": false,
    "priority": 50
  },
  {
    "geonameId": 2098869,
    "name": "Bulolo",
    "latitude": -7.2036,
    "longitude": 146.64014,
    "category": "City",
    "subcategory": "City",
    "featured": false,
    "priority": 50
  },
  {
    "geonameId": 2098841,
    "name": "Bumborum Island",
    "latitude": -3.33221,
    "longitude": 151.77801,
    "category": "Island",
    "subcategory": "Island",
    "featured": false,
    "priority": 50
  },
  {
    "geonameId": 2098838,
    "name": "Bumbunu Island",
    "latitude": -6.26859,
    "longitude": 150.30206,
    "category": "Island",
    "subcategory": "Island",
    "featured": false,
    "priority": 50
  },
  {
    "geonameId": 2133791,
    "name": "Bunaeba Island",
    "latitude": -10.61667,
    "longitude": 150.01667,
    "category": "Island",
    "subcategory": "Island",
    "featured": false,
    "priority": 50
  },
  {
    "geonameId": 2098828,
    "name": "Bunaga",
    "latitude": -5.41251,
    "longitude": 147.12339,
    "category": "Mountain",
    "subcategory": "Peak",
    "featured": false,
    "priority": 50
  },
  {
    "geonameId": 2098813,
    "name": "Bundro Island",
    "latitude": -2.20493,
    "longitude": 147.77403,
    "category": "Island",
    "subcategory": "Island",
    "featured": false,
    "priority": 50
  },
  {
    "geonameId": 2133786,
    "name": "Bunora Islet",
    "latitude": -10.56059,
    "longitude": 151.90249,
    "category": "Island",
    "subcategory": "Island",
    "featured": false,
    "priority": 50
  },
  {
    "geonameId": 2098765,
    "name": "Buriwadi Island",
    "latitude": -8.46418,
    "longitude": 150.88518,
    "category": "Island",
    "subcategory": "Island",
    "featured": false,
    "priority": 50
  },
  {
    "geonameId": 2098763,
    "name": "Burns Peak",
    "latitude": -9.46667,
    "longitude": 147.16667,
    "category": "Mountain",
    "subcategory": "Peak",
    "featured": false,
    "priority": 50
  },
  {
    "geonameId": 2098761,
    "name": "Buro Island",
    "latitude": -2.70053,
    "longitude": 141.34372,
    "category": "Island",
    "subcategory": "Island",
    "featured": false,
    "priority": 50
  },
  {
    "geonameId": 2133783,
    "name": "Bushy Islet",
    "latitude": -10.98333,
    "longitude": 153.33333,
    "category": "Island",
    "subcategory": "Island",
    "featured": false,
    "priority": 50
  },
  {
    "geonameId": 2133782,
    "name": "Bushy Islets",
    "latitude": -10.92294,
    "longitude": 152.66794,
    "category": "Island",
    "subcategory": "Island Group",
    "featured": false,
    "priority": 50
  },
  {
    "geonameId": 2098723,
    "name": "Busseau Island",
    "latitude": -2.20078,
    "longitude": 146.33469,
    "category": "Island",
    "subcategory": "Island",
    "featured": false,
    "priority": 50
  },
  {
    "geonameId": 2098721,
    "name": "Busu Mountain",
    "latitude": -6.53867,
    "longitude": 146.95471,
    "category": "Mountain",
    "subcategory": "Mountain",
    "featured": false,
    "priority": 50
  },
  {
    "geonameId": 2098712,
    "name": "Butangelu Island",
    "latitude": -2.37694,
    "longitude": 146.83675,
    "category": "Island",
    "subcategory": "Island",
    "featured": false,
    "priority": 50
  },
  {
    "geonameId": 2133781,
    "name": "Butchart Island",
    "latitude": -10.57422,
    "longitude": 151.19824,
    "category": "Island",
    "subcategory": "Island",
    "featured": false,
    "priority": 50
  },
  {
    "geonameId": 2098696,
    "name": "Butjo Lang Island",
    "latitude": -2.03263,
    "longitude": 147.30823,
    "category": "Island",
    "subcategory": "Island",
    "featured": false,
    "priority": 50
  },
  {
    "geonameId": 2098695,
    "name": "Butjo Luo Islets",
    "latitude": -2.02875,
    "longitude": 147.30981,
    "category": "Island",
    "subcategory": "Island Group",
    "featured": false,
    "priority": 50
  },
  {
    "geonameId": 2098694,
    "name": "Butjo Mokau Island",
    "latitude": -2.02625,
    "longitude": 147.31251,
    "category": "Island",
    "subcategory": "Island",
    "featured": false,
    "priority": 50
  },
  {
    "geonameId": 2098692,
    "name": "Button",
    "latitude": -6.91791,
    "longitude": 145.82134,
    "category": "Mountain",
    "subcategory": "Mountain",
    "featured": false,
    "priority": 50
  },
  {
    "geonameId": 2098690,
    "name": "Button Island",
    "latitude": -9.58321,
    "longitude": 149.51189,
    "category": "Island",
    "subcategory": "Island",
    "featured": false,
    "priority": 50
  },
  {
    "geonameId": 2133780,
    "name": "Button Islet",
    "latitude": -10.61767,
    "longitude": 151.36823,
    "category": "Island",
    "subcategory": "Island",
    "featured": false,
    "priority": 50
  },
  {
    "geonameId": 8435623,
    "name": "Bwana Bwano Tau Island",
    "latitude": -10.77654,
    "longitude": 150.42747,
    "category": "Island",
    "subcategory": "Island",
    "featured": false,
    "priority": 50
  },
  {
    "geonameId": 2133773,
    "name": "Byron Island",
    "latitude": -10.55,
    "longitude": 151.11667,
    "category": "Island",
    "subcategory": "Island",
    "featured": false,
    "priority": 50
  },
  {
    "geonameId": 2098660,
    "name": "Camel Back",
    "latitude": -4.61667,
    "longitude": 143.46667,
    "category": "Mountain",
    "subcategory": "Mountain",
    "featured": false,
    "priority": 50
  },
  {
    "geonameId": 2098655,
    "name": "Cannac Island",
    "latitude": -9.26691,
    "longitude": 153.50699,
    "category": "Island",
    "subcategory": "Island",
    "featured": false,
    "priority": 50
  },
  {
    "geonameId": 2098653,
    "name": "Canoe Island",
    "latitude": -8.35,
    "longitude": 142.73333,
    "category": "Island",
    "subcategory": "Island",
    "featured": false,
    "priority": 50
  },
  {
    "geonameId": 2098649,
    "name": "Carlton Island",
    "latitude": -6.32741,
    "longitude": 141.01776,
    "category": "Island",
    "subcategory": "Island",
    "featured": false,
    "priority": 50
  },
  {
    "geonameId": 2098646,
    "name": "Cassowary Island",
    "latitude": -7.91709,
    "longitude": 141.87085,
    "category": "Island",
    "subcategory": "Island",
    "featured": false,
    "priority": 50
  },
  {
    "geonameId": 2133766,
    "name": "Castori Islets",
    "latitude": -10.76667,
    "longitude": 150.68333,
    "category": "Island",
    "subcategory": "Island Group",
    "featured": false,
    "priority": 50
  },
  {
    "geonameId": 2098644,
    "name": "Casuarina Island",
    "latitude": -5.85,
    "longitude": 155.26667,
    "category": "Island",
    "subcategory": "Island",
    "featured": false,
    "priority": 50
  },
  {
    "geonameId": 11962551,
    "name": "Chacheon Island",
    "latitude": -1.20343,
    "longitude": 144.37297,
    "category": "Island",
    "subcategory": "Island",
    "featured": false,
    "priority": 50
  },
  {
    "geonameId": 2098632,
    "name": "Chahlossa Islet",
    "latitude": -1.96667,
    "longitude": 146.7,
    "category": "Island",
    "subcategory": "Island",
    "featured": false,
    "priority": 50
  },
  {
    "geonameId": 2098630,
    "name": "Chalata Island",
    "latitude": -9.33364,
    "longitude": 150.71276,
    "category": "Island",
    "subcategory": "Island",
    "featured": false,
    "priority": 50
  },
  {
    "geonameId": 2098625,
    "name": "Chalou Island",
    "latitude": -2.18826,
    "longitude": 147.74531,
    "category": "Island",
    "subcategory": "Island",
    "featured": false,
    "priority": 50
  },
  {
    "geonameId": 2098621,
    "name": "Chambri Lake",
    "latitude": -4.25767,
    "longitude": 143.11199,
    "category": "Lake",
    "subcategory": "Lake",
    "featured": false,
    "priority": 50
  },
  {
    "geonameId": 2133759,
    "name": "Chaude Peak",
    "latitude": -11.31667,
    "longitude": 154.11667,
    "category": "Mountain",
    "subcategory": "Peak",
    "featured": false,
    "priority": 50
  },
  {
    "geonameId": 2098597,
    "name": "Chilling Island",
    "latitude": -4.65,
    "longitude": 149.31667,
    "category": "Island",
    "subcategory": "Island",
    "featured": false,
    "priority": 50
  },
  {
    "geonameId": 2098588,
    "name": "Chirimosh Island",
    "latitude": -4.38333,
    "longitude": 145.23333,
    "category": "Island",
    "subcategory": "Island",
    "featured": false,
    "priority": 50
  },
  {
    "geonameId": 2098586,
    "name": "Chissi Island",
    "latitude": -6.015,
    "longitude": 147.49985,
    "category": "Island",
    "subcategory": "Island",
    "featured": false,
    "priority": 50
  },
  {
    "geonameId": 2098583,
    "name": "Chokua Island",
    "latitude": -2.37875,
    "longitude": 147.46193,
    "category": "Island",
    "subcategory": "Island",
    "featured": false,
    "priority": 50
  },
  {
    "geonameId": 11962534,
    "name": "Chouch Island",
    "latitude": -1.22121,
    "longitude": 144.22416,
    "category": "Island",
    "subcategory": "Island",
    "featured": false,
    "priority": 50
  },
  {
    "geonameId": 2098562,
    "name": "Clarkes Fort",
    "latitude": -8.45,
    "longitude": 147.83333,
    "category": "Mountain",
    "subcategory": "Mountain",
    "featured": false,
    "priority": 50
  },
  {
    "geonameId": 2098556,
    "name": "Cloud Mountain",
    "latitude": -4.40727,
    "longitude": 143.01974,
    "category": "Mountain",
    "subcategory": "Mountain",
    "featured": false,
    "priority": 50
  },
  {
    "geonameId": 2133749,
    "name": "Cocked Hat Island",
    "latitude": -10.34754,
    "longitude": 151.09876,
    "category": "Island",
    "subcategory": "Island",
    "featured": false,
    "priority": 50
  },
  {
    "geonameId": 2098543,
    "name": "Comb Peak",
    "latitude": -4.86667,
    "longitude": 141.15,
    "category": "Mountain",
    "subcategory": "Peak",
    "featured": false,
    "priority": 50
  },
  {
    "geonameId": 2098533,
    "name": "Cone Mountain",
    "latitude": -5.69782,
    "longitude": 144.22175,
    "category": "Mountain",
    "subcategory": "Mountain",
    "featured": false,
    "priority": 50
  },
  {
    "geonameId": 2098532,
    "name": "Cone Peak",
    "latitude": -9.63333,
    "longitude": 149.78333,
    "category": "Mountain",
    "subcategory": "Peak",
    "featured": false,
    "priority": 50
  },
  {
    "geonameId": 2133747,
    "name": "Conflict Group",
    "latitude": -10.76972,
    "longitude": 151.79101,
    "category": "Island",
    "subcategory": "Island Group",
    "featured": false,
    "priority": 50
  },
  {
    "geonameId": 2098531,
    "name": "Conical Peak",
    "latitude": -9.3,
    "longitude": 147.06667,
    "category": "Mountain",
    "subcategory": "Peak",
    "featured": false,
    "priority": 50
  },
  {
    "geonameId": 2133743,
    "name": "Coutance Island",
    "latitude": -10.22841,
    "longitude": 148.12075,
    "category": "Island",
    "subcategory": "Island",
    "featured": false,
    "priority": 50
  },
  {
    "geonameId": 2098525,
    "name": "Crater Lake",
    "latitude": -6.97737,
    "longitude": 142.62412,
    "category": "Lake",
    "subcategory": "Lake",
    "featured": false,
    "priority": 50
  },
  {
    "geonameId": 2098524,
    "name": "Crater Mountain",
    "latitude": -6.58249,
    "longitude": 145.09094,
    "category": "Mountain",
    "subcategory": "Mountain",
    "featured": false,
    "priority": 50
  },
  {
    "geonameId": 2098521,
    "name": "Credner Islands",
    "latitude": -4.27037,
    "longitude": 152.33308,
    "category": "Island",
    "subcategory": "Island Group",
    "featured": false,
    "priority": 50
  },
  {
    "geonameId": 2098513,
    "name": "Crown Island",
    "latitude": -5.11559,
    "longitude": 146.9584,
    "category": "Island",
    "subcategory": "Island",
    "featured": false,
    "priority": 50
  },
  {
    "geonameId": 2098511,
    "name": "Crummer Peaks",
    "latitude": -6.71185,
    "longitude": 144.28427,
    "category": "Mountain",
    "subcategory": "Peak",
    "featured": false,
    "priority": 50
  },
  {
    "geonameId": 2098501,
    "name": "Cusacks Twin Peak",
    "latitude": -9.27333,
    "longitude": 147.56944,
    "category": "Mountain",
    "subcategory": "Mountain",
    "featured": false,
    "priority": 50
  },
  {
    "geonameId": 2098430,
    "name": "D’Albertis Dome",
    "latitude": -4.91367,
    "longitude": 142.11169,
    "category": "Mountain",
    "subcategory": "Mountain",
    "featured": false,
    "priority": 50
  },
  {
    "geonameId": 2098429,
    "name": "D’Albertis Fairfax Group",
    "latitude": -8.2311,
    "longitude": 142.1605,
    "category": "Island",
    "subcategory": "Island Group",
    "featured": false,
    "priority": 50
  },
  {
    "geonameId": 2098428,
    "name": "D’Albertis Island",
    "latitude": -8.22472,
    "longitude": 142.11074,
    "category": "Island",
    "subcategory": "Island",
    "featured": false,
    "priority": 50
  },
  {
    "geonameId": 2098223,
    "name": "D’Entrecasteaux Islands",
    "latitude": -9.65,
    "longitude": 150.7,
    "category": "Island",
    "subcategory": "Island Group",
    "featured": false,
    "priority": 50
  },
  {
    "geonameId": 2098102,
    "name": "D’Lole Island",
    "latitude": -5.18333,
    "longitude": 145.81667,
    "category": "Island",
    "subcategory": "Island",
    "featured": false,
    "priority": 50
  },
  {
    "geonameId": 2097882,
    "name": "D’Urville Peak",
    "latitude": -9.53333,
    "longitude": 147.41667,
    "category": "Mountain",
    "subcategory": "Peak",
    "featured": false,
    "priority": 50
  },
  {
    "geonameId": 2133738,
    "name": "Dadda Hai Islet",
    "latitude": -11.32207,
    "longitude": 153.11629,
    "category": "Island",
    "subcategory": "Island",
    "featured": false,
    "priority": 50
  },
  {
    "geonameId": 2098479,
    "name": "Dadwai Island",
    "latitude": -4.98723,
    "longitude": 145.79428,
    "category": "Island",
    "subcategory": "Island",
    "featured": false,
    "priority": 50
  },
  {
    "geonameId": 2133736,
    "name": "Dagadagabonalua",
    "latitude": -10.59496,
    "longitude": 150.68294,
    "category": "Island",
    "subcategory": "Island",
    "featured": false,
    "priority": 50
  },
  {
    "geonameId": 2133729,
    "name": "Daiwari Island",
    "latitude": -10.30496,
    "longitude": 151.04866,
    "category": "Island",
    "subcategory": "Island",
    "featured": false,
    "priority": 50
  },
  {
    "geonameId": 2098400,
    "name": "Dambach Islands",
    "latitude": -5.71667,
    "longitude": 155.15,
    "category": "Island",
    "subcategory": "Island Group",
    "featured": false,
    "priority": 50
  },
  {
    "geonameId": 2098398,
    "name": "Dambi Peak",
    "latitude": -6.89372,
    "longitude": 146.70582,
    "category": "Mountain",
    "subcategory": "Peak",
    "featured": false,
    "priority": 50
  },
  {
    "geonameId": 2098396,
    "name": "Damdamauk Island",
    "latitude": -5.00716,
    "longitude": 145.79596,
    "category": "Island",
    "subcategory": "Island",
    "featured": false,
    "priority": 50
  },
  {
    "geonameId": 2098350,
    "name": "Danuagua Island",
    "latitude": -9.5,
    "longitude": 147.16667,
    "category": "Island",
    "subcategory": "Island",
    "featured": false,
    "priority": 50
  },
  {
    "geonameId": 2133720,
    "name": "Dari-Momo Island",
    "latitude": -10.66475,
    "longitude": 150.32475,
    "category": "Island",
    "subcategory": "Island",
    "featured": false,
    "priority": 50
  },
  {
    "geonameId": 2098329,
    "name": "Daru",
    "latitude": -9.07786,
    "longitude": 143.20893,
    "category": "City",
    "subcategory": "Regional Capital",
    "featured": false,
    "priority": 50
  },
  {
    "geonameId": 2098326,
    "name": "Daru Island",
    "latitude": -9.08443,
    "longitude": 143.20447,
    "category": "Island",
    "subcategory": "Island",
    "featured": false,
    "priority": 50
  },
  {
    "geonameId": 2133718,
    "name": "Daubodai Island",
    "latitude": -10.2,
    "longitude": 148.73333,
    "category": "Island",
    "subcategory": "Island",
    "featured": false,
    "priority": 50
  },
  {
    "geonameId": 2098312,
    "name": "Daugo Island",
    "latitude": -9.51833,
    "longitude": 147.06111,
    "category": "Island",
    "subcategory": "Island",
    "featured": false,
    "priority": 50
  },
  {
    "geonameId": 2098311,
    "name": "Daugo Islands",
    "latitude": -9.51667,
    "longitude": 147.05,
    "category": "Island",
    "subcategory": "Island Group",
    "featured": false,
    "priority": 50
  },
  {
    "geonameId": 2098302,
    "name": "Daura Island",
    "latitude": -8.41566,
    "longitude": 143.26557,
    "category": "Island",
    "subcategory": "Island",
    "featured": false,
    "priority": 50
  },
  {
    "geonameId": 2098288,
    "name": "Dawari Island",
    "latitude": -8.69395,
    "longitude": 143.37851,
    "category": "Island",
    "subcategory": "Island",
    "featured": false,
    "priority": 50
  },
  {
    "geonameId": 2098286,
    "name": "Dawok Island",
    "latitude": -6.3,
    "longitude": 150.31667,
    "category": "Island",
    "subcategory": "Island",
    "featured": false,
    "priority": 50
  },
  {
    "geonameId": 2133712,
    "name": "Dawson Island",
    "latitude": -10.39263,
    "longitude": 151.41675,
    "category": "Island",
    "subcategory": "Island",
    "featured": false,
    "priority": 50
  },
  {
    "geonameId": 2132758,
    "name": "Deboyne Island",
    "latitude": -10.68271,
    "longitude": 152.37169,
    "category": "Island",
    "subcategory": "Island",
    "featured": false,
    "priority": 50
  },
  {
    "geonameId": 2133701,
    "name": "Deedes Islet",
    "latitude": -10.52926,
    "longitude": 151.26967,
    "category": "Island",
    "subcategory": "Island",
    "featured": false,
    "priority": 50
  },
  {
    "geonameId": 2098253,
    "name": "Deia Island",
    "latitude": -8.39175,
    "longitude": 150.49399,
    "category": "Island",
    "subcategory": "Island",
    "featured": false,
    "priority": 50
  },
  {
    "geonameId": 2133697,
    "name": "Deika Deika Island",
    "latitude": -10.64834,
    "longitude": 150.67381,
    "category": "Island",
    "subcategory": "Island",
    "featured": false,
    "priority": 50
  },
  {
    "geonameId": 2133695,
    "name": "Deirina Island",
    "latitude": -10.69362,
    "longitude": 150.43651,
    "category": "Island",
    "subcategory": "Island",
    "featured": false,
    "priority": 50
  },
  {
    "geonameId": 2133693,
    "name": "Delami Island",
    "latitude": -10.51935,
    "longitude": 149.81997,
    "category": "Island",
    "subcategory": "Island",
    "featured": false,
    "priority": 50
  },
  {
    "geonameId": 2098232,
    "name": "Deneb",
    "latitude": -5.16667,
    "longitude": 141.13333,
    "category": "Mountain",
    "subcategory": "Mountain",
    "featured": false,
    "priority": 50
  },
  {
    "geonameId": 2133688,
    "name": "Diama Island",
    "latitude": -11.38875,
    "longitude": 154.28522,
    "category": "Island",
    "subcategory": "Island",
    "featured": false,
    "priority": 50
  },
  {
    "geonameId": 2098201,
    "name": "Diamond Island",
    "latitude": -6.48981,
    "longitude": 142.08593,
    "category": "Island",
    "subcategory": "Island",
    "featured": false,
    "priority": 50
  },
  {
    "geonameId": 2098196,
    "name": "Dibiri Island",
    "latitude": -8.20795,
    "longitude": 143.66384,
    "category": "Island",
    "subcategory": "Island",
    "featured": false,
    "priority": 50
  },
  {
    "geonameId": 2133683,
    "name": "Didigilo Island",
    "latitude": -10.56667,
    "longitude": 150.8,
    "category": "Island",
    "subcategory": "Island",
    "featured": false,
    "priority": 50
  },
  {
    "geonameId": 2098176,
    "name": "Digaragara Island",
    "latitude": -9.3013,
    "longitude": 151.86496,
    "category": "Island",
    "subcategory": "Island",
    "featured": false,
    "priority": 50
  },
  {
    "geonameId": 2098171,
    "name": "Dikarua Island",
    "latitude": -4.18333,
    "longitude": 151.58333,
    "category": "Island",
    "subcategory": "Island",
    "featured": false,
    "priority": 50
  },
  {
    "geonameId": 2098163,
    "name": "Dililo Island",
    "latitude": -6.302,
    "longitude": 150.31063,
    "category": "Island",
    "subcategory": "Island",
    "featured": false,
    "priority": 50
  },
  {
    "geonameId": 2133678,
    "name": "Dinana Island",
    "latitude": -10.58176,
    "longitude": 150.9024,
    "category": "Island",
    "subcategory": "Island",
    "featured": false,
    "priority": 50
  },
  {
    "geonameId": 2098133,
    "name": "Dingen Island",
    "latitude": -5.9725,
    "longitude": 148.18312,
    "category": "Island",
    "subcategory": "Island",
    "featured": false,
    "priority": 50
  },
  {
    "geonameId": 11963515,
    "name": "Djam Island",
    "latitude": -6.75861,
    "longitude": 147.91726,
    "category": "Island",
    "subcategory": "Island",
    "featured": false,
    "priority": 50
  },
  {
    "geonameId": 2098092,
    "name": "Dobu Island",
    "latitude": -9.75233,
    "longitude": 150.86979,
    "category": "Island",
    "subcategory": "Island",
    "featured": false,
    "priority": 50
  },
  {
    "geonameId": 2133664,
    "name": "Dogigi Island",
    "latitude": -10.87713,
    "longitude": 150.98438,
    "category": "Island",
    "subcategory": "Island",
    "featured": false,
    "priority": 50
  },
  {
    "geonameId": 2098080,
    "name": "Dogope Island",
    "latitude": -8.33333,
    "longitude": 143.08333,
    "category": "Island",
    "subcategory": "Island",
    "featured": false,
    "priority": 50
  },
  {
    "geonameId": 2133660,
    "name": "Doini Island",
    "latitude": -10.69687,
    "longitude": 150.71744,
    "category": "Island",
    "subcategory": "Island",
    "featured": false,
    "priority": 50
  },
  {
    "geonameId": 2098058,
    "name": "Doma Peaks",
    "latitude": -5.90245,
    "longitude": 143.15516,
    "category": "Mountain",
    "subcategory": "Peak",
    "featured": false,
    "priority": 50
  },
  {
    "geonameId": 2098052,
    "name": "Dome",
    "latitude": -7.06667,
    "longitude": 145.36667,
    "category": "Mountain",
    "subcategory": "Mountain",
    "featured": false,
    "priority": 50
  },
  {
    "geonameId": 2098051,
    "name": "Dome Mountain",
    "latitude": -5.41253,
    "longitude": 142.26914,
    "category": "Mountain",
    "subcategory": "Mountain",
    "featured": false,
    "priority": 50
  },
  {
    "geonameId": 2098048,
    "name": "Domori Island",
    "latitude": -8.30343,
    "longitude": 142.855,
    "category": "Island",
    "subcategory": "Island",
    "featured": false,
    "priority": 50
  },
  {
    "geonameId": 2098015,
    "name": "Double Head",
    "latitude": -4.05013,
    "longitude": 141.63263,
    "category": "Mountain",
    "subcategory": "Mountain",
    "featured": false,
    "priority": 50
  },
  {
    "geonameId": 2098014,
    "name": "Double Mountain",
    "latitude": -4.73488,
    "longitude": 142.6428,
    "category": "Mountain",
    "subcategory": "Mountain",
    "featured": false,
    "priority": 50
  },
  {
    "geonameId": 2113794,
    "name": "Double Peak",
    "latitude": -9.85,
    "longitude": 150.88333,
    "category": "Mountain",
    "subcategory": "Mountain",
    "featured": false,
    "priority": 50
  },
  {
    "geonameId": 2097998,
    "name": "Dowi",
    "latitude": -5.2564,
    "longitude": 147.07992,
    "category": "Mountain",
    "subcategory": "Mountain",
    "featured": false,
    "priority": 50
  },
  {
    "geonameId": 2097967,
    "name": "Duad Island",
    "latitude": -5.13333,
    "longitude": 145.8,
    "category": "Island",
    "subcategory": "Island",
    "featured": false,
    "priority": 50
  },
  {
    "geonameId": 2097965,
    "name": "Duaga Islet",
    "latitude": -4.87702,
    "longitude": 149.17949,
    "category": "Island",
    "subcategory": "Island",
    "featured": false,
    "priority": 50
  },
  {
    "geonameId": 2097955,
    "name": "Dubuaru Island",
    "latitude": -9.15,
    "longitude": 142.95,
    "category": "Island",
    "subcategory": "Island",
    "featured": false,
    "priority": 50
  },
  {
    "geonameId": 11979215,
    "name": "Dubushek Island",
    "latitude": -5.09792,
    "longitude": 145.80469,
    "category": "Island",
    "subcategory": "Island",
    "featured": false,
    "priority": 50
  },
  {
    "geonameId": 2097952,
    "name": "Dubuwaro Island",
    "latitude": -8.56158,
    "longitude": 143.30889,
    "category": "Island",
    "subcategory": "Island",
    "featured": false,
    "priority": 50
  },
  {
    "geonameId": 2133640,
    "name": "Duchateau Islands",
    "latitude": -11.27915,
    "longitude": 152.37329,
    "category": "Island",
    "subcategory": "Island Group",
    "featured": false,
    "priority": 50
  },
  {
    "geonameId": 2097951,
    "name": "Duchess Island",
    "latitude": -9.95633,
    "longitude": 150.84816,
    "category": "Island",
    "subcategory": "Island",
    "featured": false,
    "priority": 50
  },
  {
    "geonameId": 2097944,
    "name": "Duei Island",
    "latitude": -5.56667,
    "longitude": 149.51667,
    "category": "Island",
    "subcategory": "Island",
    "featured": false,
    "priority": 50
  },
  {
    "geonameId": 2097937,
    "name": "Dugumenu Island",
    "latitude": -8.8,
    "longitude": 151.91667,
    "category": "Island",
    "subcategory": "Island",
    "featured": false,
    "priority": 50
  },
  {
    "geonameId": 2133637,
    "name": "Dui Dui Bani Island",
    "latitude": -10.66667,
    "longitude": 150.43333,
    "category": "Island",
    "subcategory": "Island",
    "featured": false,
    "priority": 50
  },
  {
    "geonameId": 2133635,
    "name": "Duipoi Island",
    "latitude": -10.34292,
    "longitude": 150.6631,
    "category": "Island",
    "subcategory": "Island",
    "featured": false,
    "priority": 50
  },
  {
    "geonameId": 2097930,
    "name": "Duke of York Group",
    "latitude": -4.18892,
    "longitude": 152.42741,
    "category": "Island",
    "subcategory": "Island Group",
    "featured": false,
    "priority": 50
  },
  {
    "geonameId": 2097929,
    "name": "Duke of York Island",
    "latitude": -4.16478,
    "longitude": 152.4626,
    "category": "Island",
    "subcategory": "Island",
    "featured": false,
    "priority": 50
  },
  {
    "geonameId": 2097915,
    "name": "Dumduman Island",
    "latitude": -5,
    "longitude": 145.81667,
    "category": "Island",
    "subcategory": "Island",
    "featured": false,
    "priority": 50
  },
  {
    "geonameId": 2133631,
    "name": "Dumoulin Islands",
    "latitude": -10.89102,
    "longitude": 150.76981,
    "category": "Island",
    "subcategory": "Island Group",
    "featured": false,
    "priority": 50
  },
  {
    "geonameId": 2097907,
    "name": "Duna Peaks",
    "latitude": -5.84324,
    "longitude": 142.52827,
    "category": "Mountain",
    "subcategory": "Peak",
    "featured": false,
    "priority": 50
  },
  {
    "geonameId": 2097894,
    "name": "Dunung Island",
    "latitude": -2.36601,
    "longitude": 150.11987,
    "category": "Island",
    "subcategory": "Island",
    "featured": false,
    "priority": 50
  },
  {
    "geonameId": 2133627,
    "name": "Duperre Islets",
    "latitude": -11.18261,
    "longitude": 151.99565,
    "category": "Island",
    "subcategory": "Island Group",
    "featured": false,
    "priority": 50
  },
  {
    "geonameId": 2097887,
    "name": "Duro Island",
    "latitude": -8.18333,
    "longitude": 143.63333,
    "category": "Island",
    "subcategory": "Island",
    "featured": false,
    "priority": 50
  },
  {
    "geonameId": 2097873,
    "name": "Dyaul Island",
    "latitude": -2.94152,
    "longitude": 150.87601,
    "category": "Island",
    "subcategory": "Island",
    "featured": false,
    "priority": 50
  },
  {
    "geonameId": 2097858,
    "name": "East Dome",
    "latitude": -8.40812,
    "longitude": 147.41139,
    "category": "Mountain",
    "subcategory": "Peak",
    "featured": false,
    "priority": 50
  },
  {
    "geonameId": 2097857,
    "name": "East Embi",
    "latitude": -8.81667,
    "longitude": 148.36667,
    "category": "Lake",
    "subcategory": "Lake",
    "featured": false,
    "priority": 50
  },
  {
    "geonameId": 2133614,
    "name": "East Iguari Island",
    "latitude": -10.56019,
    "longitude": 150.72199,
    "category": "Island",
    "subcategory": "Island",
    "featured": false,
    "priority": 50
  },
  {
    "geonameId": 2133613,
    "name": "East Island",
    "latitude": -10.39556,
    "longitude": 152.10389,
    "category": "Island",
    "subcategory": "Island",
    "featured": false,
    "priority": 50
  },
  {
    "geonameId": 2097854,
    "name": "East Islands",
    "latitude": -2.49239,
    "longitude": 150.51135,
    "category": "Island",
    "subcategory": "Island Group",
    "featured": false,
    "priority": 50
  },
  {
    "geonameId": 2133612,
    "name": "East Islet",
    "latitude": -10.96439,
    "longitude": 151.08269,
    "category": "Island",
    "subcategory": "Island",
    "featured": false,
    "priority": 50
  },
  {
    "geonameId": 2097842,
    "name": "Ebanalu Island",
    "latitude": -1.50139,
    "longitude": 149.58331,
    "category": "Island",
    "subcategory": "Island",
    "featured": false,
    "priority": 50
  },
  {
    "geonameId": 11978942,
    "name": "Ebolo Island",
    "latitude": -1.53023,
    "longitude": 149.66265,
    "category": "Island",
    "subcategory": "Island",
    "featured": false,
    "priority": 50
  },
  {
    "geonameId": 2133608,
    "name": "Eboma Island",
    "latitude": -10.60445,
    "longitude": 150.65302,
    "category": "Island",
    "subcategory": "Island",
    "featured": false,
    "priority": 50
  },
  {
    "geonameId": 8435606,
    "name": "Ebuna Island",
    "latitude": -8.3739,
    "longitude": 150.46936,
    "category": "Island",
    "subcategory": "Island",
    "featured": false,
    "priority": 50
  },
  {
    "geonameId": 2097821,
    "name": "Edmago Island",
    "latitude": -2.61549,
    "longitude": 150.73752,
    "category": "Island",
    "subcategory": "Island",
    "featured": false,
    "priority": 50
  },
  {
    "geonameId": 2097801,
    "name": "Egum Islet",
    "latitude": -9.3875,
    "longitude": 151.94077,
    "category": "Island",
    "subcategory": "Island",
    "featured": false,
    "priority": 50
  },
  {
    "geonameId": 2133605,
    "name": "Ehiki Islet",
    "latitude": -11.08233,
    "longitude": 152.31303,
    "category": "Island",
    "subcategory": "Island",
    "featured": false,
    "priority": 50
  },
  {
    "geonameId": 2097781,
    "name": "Eikanump Pass",
    "latitude": -5.66667,
    "longitude": 144.53333,
    "category": "Mountain",
    "subcategory": "Mountain Pass",
    "featured": false,
    "priority": 50
  },
  {
    "geonameId": 2097778,
    "name": "Eilgul",
    "latitude": -5.01667,
    "longitude": 145.81667,
    "category": "Island",
    "subcategory": "Island",
    "featured": false,
    "priority": 50
  },
  {
    "geonameId": 2097777,
    "name": "Eilgun Island",
    "latitude": -5.03333,
    "longitude": 145.81667,
    "category": "Island",
    "subcategory": "Island",
    "featured": false,
    "priority": 50
  },
  {
    "geonameId": 2133603,
    "name": "Einamu Islet",
    "latitude": -11.15864,
    "longitude": 152.89152,
    "category": "Island",
    "subcategory": "Island",
    "featured": false,
    "priority": 50
  },
  {
    "geonameId": 2097762,
    "name": "Ekaleu Islet",
    "latitude": -1.52778,
    "longitude": 149.58571,
    "category": "Island",
    "subcategory": "Island",
    "featured": false,
    "priority": 50
  },
  {
    "geonameId": 11979004,
    "name": "Ekarokae Island",
    "latitude": -1.52572,
    "longitude": 149.5815,
    "category": "Island",
    "subcategory": "Island",
    "featured": false,
    "priority": 50
  },
  {
    "geonameId": 2097749,
    "name": "Elandora Mountain",
    "latitude": -6.53333,
    "longitude": 146.08333,
    "category": "Mountain",
    "subcategory": "Mountain",
    "featured": false,
    "priority": 50
  },
  {
    "geonameId": 2097729,
    "name": "Ellangowan Island",
    "latitude": -7.81926,
    "longitude": 141.68161,
    "category": "Island",
    "subcategory": "Island",
    "featured": false,
    "priority": 50
  },
  {
    "geonameId": 2097725,
    "name": "Eloaue Island",
    "latitude": -1.57209,
    "longitude": 149.6385,
    "category": "Island",
    "subcategory": "Island",
    "featured": false,
    "priority": 50
  },
  {
    "geonameId": 2097721,
    "name": "Elomusao Island",
    "latitude": -1.67821,
    "longitude": 150.028,
    "category": "Island",
    "subcategory": "Island",
    "featured": false,
    "priority": 50
  },
  {
    "geonameId": 2097716,
    "name": "Emananus Island",
    "latitude": -1.57362,
    "longitude": 149.58096,
    "category": "Island",
    "subcategory": "Island",
    "featured": false,
    "priority": 50
  },
  {
    "geonameId": 2133593,
    "name": "Emhoro Island",
    "latitude": -10.39233,
    "longitude": 149.45592,
    "category": "Island",
    "subcategory": "Island",
    "featured": false,
    "priority": 50
  },
  {
    "geonameId": 2097690,
    "name": "Emia Falls",
    "latitude": -6.36667,
    "longitude": 143.61667,
    "category": "Waterfall",
    "subcategory": "Waterfall",
    "featured": false,
    "priority": 50
  },
  {
    "geonameId": 2097686,
    "name": "Emirau Island",
    "latitude": -1.66613,
    "longitude": 149.96714,
    "category": "Island",
    "subcategory": "Island",
    "featured": false,
    "priority": 50
  },
  {
    "geonameId": 2097672,
    "name": "Emusau Island",
    "latitude": -1.55384,
    "longitude": 149.65812,
    "category": "Island",
    "subcategory": "Island",
    "featured": false,
    "priority": 50
  },
  {
    "geonameId": 2097670,
    "name": "Enalik Island",
    "latitude": -2.56667,
    "longitude": 150.5,
    "category": "Island",
    "subcategory": "Island",
    "featured": false,
    "priority": 50
  },
  {
    "geonameId": 2097668,
    "name": "Enang Island",
    "latitude": -2.66794,
    "longitude": 150.47261,
    "category": "Island",
    "subcategory": "Island",
    "featured": false,
    "priority": 50
  },
  {
    "geonameId": 2133592,
    "name": "Engineer Group",
    "latitude": -10.58504,
    "longitude": 151.29079,
    "category": "Island",
    "subcategory": "Island Group",
    "featured": false,
    "priority": 50
  },
  {
    "geonameId": 2097649,
    "name": "English Peaks",
    "latitude": -8.75418,
    "longitude": 147.48875,
    "category": "Mountain",
    "subcategory": "Mountain",
    "featured": false,
    "priority": 50
  },
  {
    "geonameId": 11962492,
    "name": "Entrance Island",
    "latitude": -5.14763,
    "longitude": 154.50889,
    "category": "Island",
    "subcategory": "Island",
    "featured": false,
    "priority": 50
  },
  {
    "geonameId": 2097631,
    "name": "Enuk Islands",
    "latitude": -2.65,
    "longitude": 150.73333,
    "category": "Island",
    "subcategory": "Island Group",
    "featured": false,
    "priority": 50
  },
  {
    "geonameId": 2133591,
    "name": "Epoko Islet",
    "latitude": -10.88362,
    "longitude": 153.16021,
    "category": "Island",
    "subcategory": "Island",
    "featured": false,
    "priority": 50
  },
  {
    "geonameId": 2097610,
    "name": "Erap Mountain",
    "latitude": -6.34602,
    "longitude": 146.82943,
    "category": "Mountain",
    "subcategory": "Mountain",
    "featured": false,
    "priority": 50
  },
  {
    "geonameId": 2097574,
    "name": "Erventa Islet",
    "latitude": -6.8015,
    "longitude": 155.826,
    "category": "Island",
    "subcategory": "Island",
    "featured": false,
    "priority": 50
  },
  {
    "geonameId": 11979010,
    "name": "Esapinok Island",
    "latitude": -1.52989,
    "longitude": 149.6469,
    "category": "Island",
    "subcategory": "Island",
    "featured": false,
    "priority": 50
  },
  {
    "geonameId": 11979012,
    "name": "Etanain Island",
    "latitude": -1.52534,
    "longitude": 149.64368,
    "category": "Island",
    "subcategory": "Island",
    "featured": false,
    "priority": 50
  },
  {
    "geonameId": 11979011,
    "name": "Etarabarau Island",
    "latitude": -1.52676,
    "longitude": 149.64553,
    "category": "Island",
    "subcategory": "Island",
    "featured": false,
    "priority": 50
  },
  {
    "geonameId": 11979005,
    "name": "Etararai Island",
    "latitude": -1.50706,
    "longitude": 149.58386,
    "category": "Island",
    "subcategory": "Island",
    "featured": false,
    "priority": 50
  },
  {
    "geonameId": 11979009,
    "name": "Etatait Island",
    "latitude": -1.53105,
    "longitude": 149.64767,
    "category": "Island",
    "subcategory": "Island",
    "featured": false,
    "priority": 50
  },
  {
    "geonameId": 2097549,
    "name": "Etuitui Island",
    "latitude": -1.6693,
    "longitude": 150.02671,
    "category": "Island",
    "subcategory": "Island",
    "featured": false,
    "priority": 50
  },
  {
    "geonameId": 2133587,
    "name": "Eugenie Island",
    "latitude": -10.2,
    "longitude": 148.65,
    "category": "Island",
    "subcategory": "Island",
    "featured": false,
    "priority": 50
  },
  {
    "geonameId": 2097547,
    "name": "Eunainaun Mountain",
    "latitude": -1.48333,
    "longitude": 149.65,
    "category": "Mountain",
    "subcategory": "Mountain",
    "featured": false,
    "priority": 50
  },
  {
    "geonameId": 11978944,
    "name": "Eunakuru Island",
    "latitude": -1.55667,
    "longitude": 149.59168,
    "category": "Island",
    "subcategory": "Island",
    "featured": false,
    "priority": 50
  },
  {
    "geonameId": 2097536,
    "name": "Everill Steep Pass",
    "latitude": -6.89369,
    "longitude": 142.02867,
    "category": "Mountain",
    "subcategory": "Mountain Pass",
    "featured": false,
    "priority": 50
  },
  {
    "geonameId": 2097519,
    "name": "Ewal Island",
    "latitude": -2.26756,
    "longitude": 146.82863,
    "category": "Island",
    "subcategory": "Island",
    "featured": false,
    "priority": 50
  },
  {
    "geonameId": 2114204,
    "name": "False Gap",
    "latitude": -9.03861,
    "longitude": 147.70944,
    "category": "Mountain",
    "subcategory": "Mountain Pass",
    "featured": false,
    "priority": 50
  },
  {
    "geonameId": 2133578,
    "name": "Farm Peak",
    "latitude": -10.66667,
    "longitude": 150.18333,
    "category": "Mountain",
    "subcategory": "Peak",
    "featured": false,
    "priority": 50
  },
  {
    "geonameId": 2097452,
    "name": "Fedarb Islands",
    "latitude": -2.39122,
    "longitude": 147.46884,
    "category": "Island",
    "subcategory": "Island Group",
    "featured": false,
    "priority": 50
  },
  {
    "geonameId": 2097443,
    "name": "Feni Islands",
    "latitude": -4.04964,
    "longitude": 153.67702,
    "category": "Island",
    "subcategory": "Island Group",
    "featured": false,
    "priority": 50
  },
  {
    "geonameId": 2097440,
    "name": "Ferguson Island",
    "latitude": -6.16425,
    "longitude": 141.13627,
    "category": "Island",
    "subcategory": "Island",
    "featured": false,
    "priority": 50
  },
  {
    "geonameId": 2097439,
    "name": "Fergusson Island",
    "latitude": -9.51713,
    "longitude": 150.67474,
    "category": "Island",
    "subcategory": "Island",
    "featured": false,
    "priority": 50
  },
  {
    "geonameId": 2097401,
    "name": "Five Pinnacle Peaks",
    "latitude": -9.95,
    "longitude": 149.76667,
    "category": "Mountain",
    "subcategory": "Peak",
    "featured": false,
    "priority": 50
  },
  {
    "geonameId": 2133573,
    "name": "Flat Islet",
    "latitude": -10.60185,
    "longitude": 151.36844,
    "category": "Island",
    "subcategory": "Island",
    "featured": false,
    "priority": 50
  },
  {
    "geonameId": 2097395,
    "name": "Flint Island",
    "latitude": -5.7,
    "longitude": 141.41667,
    "category": "Island",
    "subcategory": "Island",
    "featured": false,
    "priority": 50
  },
  {
    "geonameId": 2097393,
    "name": "Fly Islands",
    "latitude": -7.4359,
    "longitude": 147.34445,
    "category": "Island",
    "subcategory": "Island Group",
    "featured": false,
    "priority": 50
  },
  {
    "geonameId": 2097371,
    "name": "Foni Hills",
    "latitude": -2.78333,
    "longitude": 141.33333,
    "category": "Mountain",
    "subcategory": "Mountain",
    "featured": false,
    "priority": 50
  },
  {
    "geonameId": 2097349,
    "name": "Four Corners",
    "latitude": -4.688,
    "longitude": 141.48066,
    "category": "Mountain",
    "subcategory": "Mountain",
    "featured": false,
    "priority": 50
  },
  {
    "geonameId": 2097340,
    "name": "Frieda Mountain",
    "latitude": -4.51849,
    "longitude": 141.94083,
    "category": "Mountain",
    "subcategory": "Mountain",
    "featured": false,
    "priority": 50
  },
  {
    "geonameId": 2133560,
    "name": "Gabugabutau Island",
    "latitude": -10.72073,
    "longitude": 151.74845,
    "category": "Island",
    "subcategory": "Island",
    "featured": false,
    "priority": 50
  },
  {
    "geonameId": 2097289,
    "name": "Gabwina Island",
    "latitude": -8.36626,
    "longitude": 150.17597,
    "category": "Island",
    "subcategory": "Island",
    "featured": false,
    "priority": 50
  },
  {
    "geonameId": 2133550,
    "name": "Gado-Gadoa",
    "latitude": -10.65662,
    "longitude": 150.3433,
    "category": "Island",
    "subcategory": "Island",
    "featured": false,
    "priority": 50
  },
  {
    "geonameId": 2133547,
    "name": "Gadogadoa Island",
    "latitude": -10.62944,
    "longitude": 150.57012,
    "category": "Island",
    "subcategory": "Island",
    "featured": false,
    "priority": 50
  },
  {
    "geonameId": 2097259,
    "name": "Gaisikomat Island",
    "latitude": -7.16667,
    "longitude": 141.9,
    "category": "Island",
    "subcategory": "Island",
    "featured": false,
    "priority": 50
  },
  {
    "geonameId": 2097249,
    "name": "Galelum Island",
    "latitude": -5.83169,
    "longitude": 148.01937,
    "category": "Island",
    "subcategory": "Island",
    "featured": false,
    "priority": 50
  },
  {
    "geonameId": 2097227,
    "name": "Gamatua Island",
    "latitude": -5.48333,
    "longitude": 149.56667,
    "category": "Island",
    "subcategory": "Island",
    "featured": false,
    "priority": 50
  },
  {
    "geonameId": 2097212,
    "name": "Gana Lagoon",
    "latitude": -7.27584,
    "longitude": 141.46776,
    "category": "Lake",
    "subcategory": "Lake",
    "featured": false,
    "priority": 50
  },
  {
    "geonameId": 2133535,
    "name": "Ganau Island",
    "latitude": -10.15,
    "longitude": 148.76667,
    "category": "Island",
    "subcategory": "Island",
    "featured": false,
    "priority": 50
  },
  {
    "geonameId": 2097200,
    "name": "Ganglo Island",
    "latitude": -6.22872,
    "longitude": 149.53921,
    "category": "Island",
    "subcategory": "Island",
    "featured": false,
    "priority": 50
  },
  {
    "geonameId": 2097182,
    "name": "Garagos Mountain",
    "latitude": -6.75996,
    "longitude": 146.78041,
    "category": "Mountain",
    "subcategory": "Mountain",
    "featured": false,
    "priority": 50
  },
  {
    "geonameId": 2133531,
    "name": "Garahi Island",
    "latitude": -10.5877,
    "longitude": 150.73084,
    "category": "Island",
    "subcategory": "Island",
    "featured": false,
    "priority": 50
  },
  {
    "geonameId": 2097150,
    "name": "Garove Island",
    "latitude": -4.67609,
    "longitude": 149.49208,
    "category": "Island",
    "subcategory": "Island",
    "featured": false,
    "priority": 50
  },
  {
    "geonameId": 2097149,
    "name": "Garrandibut",
    "latitude": -9.48333,
    "longitude": 149.25,
    "category": "Island",
    "subcategory": "Island",
    "featured": false,
    "priority": 50
  },
  {
    "geonameId": 2097142,
    "name": "Garua Island",
    "latitude": -5.30206,
    "longitude": 150.07333,
    "category": "Island",
    "subcategory": "Island",
    "featured": false,
    "priority": 50
  },
  {
    "geonameId": 2097130,
    "name": "Gasmata Island",
    "latitude": -6.29381,
    "longitude": 150.292,
    "category": "Island",
    "subcategory": "Island",
    "featured": false,
    "priority": 50
  },