[
  {
    "geonameId": 1732491,
    "name": "Abanay Island",
    "latitude": 9.74753,
    "longitude": 126.04096,
    "category": "Island",
    "subcategory": "Island",
    "featured": false,
    "priority": 50
  },
  {
    "geonameId": 7387711,
    "name": "Abaton Island",
    "latitude": 10.997,
    "longitude": 119.5954,
    "category": "Island",
    "subcategory": "Island",
    "featured": false,
    "priority": 50
  },
  {
    "geonameId": 8473500,
    "name": "Abling Island",
    "latitude": 16.2671,
    "longitude": 119.94681,
    "category": "Island",
    "subcategory": "Island",
    "featured": false,
    "priority": 50
  },
  {
    "geonameId": 1732394,
    "name": "Abo’abuhan Island",
    "latitude": 12.641,
    "longitude": 124.4284,
    "category": "Island",
    "subcategory": "Island",
    "featured": false,
    "priority": 50
  },
  {
    "geonameId": 1732400,
    "name": "Abocayan Island",
    "latitude": 9.83333,
    "longitude": 124.51667,
    "category": "Island",
    "subcategory": "Island",
    "featured": false,
    "priority": 50
  },
  {
    "geonameId": 1732388,
    "name": "Abongabong Peak",
    "latitude": 6.5032,
    "longitude": 121.9842,
    "category": "Mountain",
    "subcategory": "Peak",
    "featured": false,
    "priority": 50
  },
  {
    "geonameId": 1732378,
    "name": "Abra de Ilog",
    "latitude": 13.4437,
    "longitude": 120.7291,
    "category": "City",
    "subcategory": "District Seat",
    "featured": false,
    "priority": 50
  },
  {
    "geonameId": 1732354,
    "name": "Abucay",
    "latitude": 14.73347,
    "longitude": 120.53358,
    "category": "City",
    "subcategory": "District Seat",
    "featured": false,
    "priority": 50
  },
  {
    "geonameId": 1732333,
    "name": "Abulug",
    "latitude": 18.44528,
    "longitude": 121.45333,
    "category": "City",
    "subcategory": "District Seat",
    "featured": false,
    "priority": 50
  },
  {
    "geonameId": 1732312,
    "name": "Abuyog",
    "latitude": 10.747,
    "longitude": 125.0107,
    "category": "City",
    "subcategory": "District Seat",
    "featured": false,
    "priority": 50
  },
  {
    "geonameId": 1732286,
    "name": "Achichok Island",
    "latitude": 20.31667,
    "longitude": 121.88333,
    "category": "Island",
    "subcategory": "Island",
    "featured": false,
    "priority": 50
  },
  {
    "geonameId": 1732259,
    "name": "Adams",
    "latitude": 18.46667,
    "longitude": 120.9,
    "category": "City",
    "subcategory": "District Seat",
    "featured": false,
    "priority": 50
  },
  {
    "geonameId": 1732254,
    "name": "Adcalayo Island",
    "latitude": 11.5012,
    "longitude": 123.184,
    "category": "Island",
    "subcategory": "Island",
    "featured": false,
    "priority": 50
  },
  {
    "geonameId": 1732250,
    "name": "Addison Peak",
    "latitude": 8.8079,
    "longitude": 117.777,
    "category": "Mountain",
    "subcategory": "Mountain",
    "featured": false,
    "priority": 50
  },
  {
    "geonameId": 8576827,
    "name": "Adelina I Mini Park",
    "latitude": 14.35394,
    "longitude": 121.04106,
    "category": "Park",
    "subcategory": "Park",
    "featured": false,
    "priority": 50
  },
  {
    "geonameId": 1732218,
    "name": "Adunbrat Island",
    "latitude": 10.8919,
    "longitude": 121.0481,
    "category": "Island",
    "subcategory": "Island",
    "featured": false,
    "priority": 50
  },
  {
    "geonameId": 1732205,
    "name": "Aga",
    "latitude": 14.0965,
    "longitude": 120.80217,
    "category": "City",
    "subcategory": "City",
    "featured": false,
    "priority": 50
  },
  {
    "geonameId": 1711451,
    "name": "Agat Island",
    "latitude": 15.496,
    "longitude": 119.9233,
    "category": "Island",
    "subcategory": "Island",
    "featured": false,
    "priority": 50
  },
  {
    "geonameId": 1732162,
    "name": "Agauan Island",
    "latitude": 11.83333,
    "longitude": 125.46667,
    "category": "Island",
    "subcategory": "Island",
    "featured": false,
    "priority": 50
  },
  {
    "geonameId": 1732091,
    "name": "Agdangan",
    "latitude": 13.8771,
    "longitude": 121.91305,
    "category": "City",
    "subcategory": "District Seat",
    "featured": false,
    "priority": 50
  },
  {
    "geonameId": 1732064,
    "name": "Agho Island",
    "latitude": 11.22639,
    "longitude": 123.19583,
    "category": "Island",
    "subcategory": "Island",
    "featured": false,
    "priority": 50
  },
  {
    "geonameId": 1732050,
    "name": "Aglayan",
    "latitude": 8.055,
    "longitude": 125.13417,
    "category": "City",
    "subcategory": "City",
    "featured": false,
    "priority": 50
  },
  {
    "geonameId": 1732040,
    "name": "Aglipay",
    "latitude": 16.4889,
    "longitude": 121.645,
    "category": "City",
    "subcategory": "District Seat",
    "featured": false,
    "priority": 50
  },
  {
    "geonameId": 1732005,
    "name": "Agno",
    "latitude": 16.1161,
    "longitude": 119.7993,
    "category": "City",
    "subcategory": "District Seat",
    "featured": false,
    "priority": 50
  },
  {
    "geonameId": 1731969,
    "name": "Agoncillo",
    "latitude": 13.93556,
    "longitude": 120.93261,
    "category": "City",
    "subcategory": "District Seat",
    "featured": false,
    "priority": 50
  },
  {
    "geonameId": 1731962,
    "name": "Agonoy Island",
    "latitude": 8.25675,
    "longitude": 126.36941,
    "category": "Island",
    "subcategory": "Island",
    "featured": false,
    "priority": 50
  },
  {
    "geonameId": 1731958,
    "name": "Agoo",
    "latitude": 16.3228,
    "longitude": 120.3666,
    "category": "City",
    "subcategory": "District Seat",
    "featured": false,
    "priority": 50
  },
  {
    "geonameId": 1731947,
    "name": "Agotay Island",
    "latitude": 11.5252,
    "longitude": 124.7973,
    "category": "Island",
    "subcategory": "Island",
    "featured": false,
    "priority": 50
  },
  {
    "geonameId": 1731938,
    "name": "Agpisan Island",
    "latitude": 13.5354,
    "longitude": 121.8526,
    "category": "Island",
    "subcategory": "Island",
    "featured": false,
    "priority": 50
  },
  {
    "geonameId": 1731885,
    "name": "Aguada Island",
    "latitude": 12.3481,
    "longitude": 124.0526,
    "category": "Island",
    "subcategory": "Island",
    "featured": false,
    "priority": 50
  },
  {
    "geonameId": 1731859,
    "name": "Aguilar",
    "latitude": 15.8884,
    "longitude": 120.2378,
    "category": "City",
    "subcategory": "District Seat",
    "featured": false,
    "priority": 50
  },
  {
    "geonameId": 1731838,
    "name": "Aguisan",
    "latitude": 10.1603,
    "longitude": 122.8615,
    "category": "City",
    "subcategory": "City",
    "featured": false,
    "priority": 50
  },
  {
    "geonameId": 1731825,
    "name": "Agupit",
    "latitude": 13.4225,
    "longitude": 123.32472,
    "category": "City",
    "subcategory": "City",
    "featured": false,
    "priority": 50
  },
  {
    "geonameId": 1731813,
    "name": "Agus Falls",
    "latitude": 8.18363,
    "longitude": 124.1943,
    "category": "Waterfall",
    "subcategory": "Waterfall",
    "featured": false,
    "priority": 50
  },
  {
    "geonameId": 1731820,
    "name": "Agusan",
    "latitude": 8.49056,
    "longitude": 124.73722,
    "category": "City",
    "subcategory": "City",
    "featured": false,
    "priority": 50
  },
  {
    "geonameId": 1731798,
    "name": "Agutaya",
    "latitude": 11.148,
    "longitude": 120.9417,
    "category": "City",
    "subcategory": "City",
    "featured": false,
    "priority": 50
  },
  {
    "geonameId": 1731797,
    "name": "Agutaya Island",
    "latitude": 11.1529,
    "longitude": 120.9637,
    "category": "Island",
    "subcategory": "Island",
    "featured": false,
    "priority": 50
  },
  {
    "geonameId": 1731790,
    "name": "Agutayan Island",
    "latitude": 13.8965,
    "longitude": 124.3941,
    "category": "Island",
    "subcategory": "Island",
    "featured": false,
    "priority": 50
  },
  {
    "geonameId": 1731765,
    "name": "Ajuy",
    "latitude": 11.1724,
    "longitude": 123.0197,
    "category": "City",
    "subcategory": "District Seat",
    "featured": false,
    "priority": 50
  },
  {
    "geonameId": 1731759,
    "name": "Akir-Akir Mountain",
    "latitude": 7.43333,
    "longitude": 124.6,
    "category": "Mountain",
    "subcategory": "Mountain",
    "featured": false,
    "priority": 50
  },
  {
    "geonameId": 13118057,
    "name": "Al-Barka",
    "latitude": 6.48623,
    "longitude": 122.17552,
    "category": "City",
    "subcategory": "District Seat",
    "featured": false,
    "priority": 50
  },
  {
    "geonameId": 1731749,
    "name": "Alabat",
    "latitude": 14.101,
    "longitude": 122.0125,
    "category": "City",
    "subcategory": "City",
    "featured": false,
    "priority": 50
  },
  {
    "geonameId": 1731747,
    "name": "Alabat Island",
    "latitude": 14.11667,
    "longitude": 122.05,
    "category": "Island",
    "subcategory": "Island",
    "featured": false,
    "priority": 50
  },
  {
    "geonameId": 1731744,
    "name": "Alabel",
    "latitude": 6.10179,
    "longitude": 125.29048,
    "category": "City",
    "subcategory": "County Seat",
    "featured": false,
    "priority": 50
  },
  {
    "geonameId": 1731727,
    "name": "Alad Island",
    "latitude": 12.62272,
    "longitude": 122.25501,
    "category": "Island",
    "subcategory": "Island",
    "featured": false,
    "priority": 50
  },
  {
    "geonameId": 1731726,
    "name": "Alae",
    "latitude": 8.42444,
    "longitude": 124.81278,
    "category": "City",
    "subcategory": "City",
    "featured": false,
    "priority": 50
  },
  {
    "geonameId": 1731717,
    "name": "Alaguasin Island",
    "latitude": 7.28333,
    "longitude": 124.85,
    "category": "Island",
    "subcategory": "Island",
    "featured": false,
    "priority": 50
  },
  {
    "geonameId": 1731698,
    "name": "Alalum Falls",
    "latitude": 8.32194,
    "longitude": 124.97861,
    "category": "Waterfall",
    "subcategory": "Waterfall",
    "featured": false,
    "priority": 50
  },
  {
    "geonameId": 1731685,
    "name": "Alaminos",
    "latitude": 16.15611,
    "longitude": 119.98111,
    "category": "City",
    "subcategory": "District Seat",
    "featured": false,
    "priority": 50
  },
  {
    "geonameId": 1731676,
    "name": "Alangalang",
    "latitude": 11.20611,
    "longitude": 124.84667,
    "category": "City",
    "subcategory": "District Seat",
    "featured": false,
    "priority": 50
  },
  {
    "geonameId": 1731728,
    "name": "Alao Island",
    "latitude": 11.9279,
    "longitude": 119.9687,
    "category": "Island",
    "subcategory": "Island",
    "featured": false,
    "priority": 50
  },
  {
    "geonameId": 1731635,
    "name": "Alava Island",
    "latitude": 11.7391,
    "longitude": 119.9313,
    "category": "Island",
    "subcategory": "Island",
    "featured": false,
    "priority": 50
  },
  {
    "geonameId": 1731621,
    "name": "Albaguen Island",
    "latitude": 10.5026,
    "longitude": 119.1392,
    "category": "Island",
    "subcategory": "Island",
    "featured": false,
    "priority": 50
  },
  {
    "geonameId": 1731614,
    "name": "Albay Island",
    "latitude": 8.0734,
    "longitude": 117.0407,
    "category": "Island",
    "subcategory": "Island",
    "featured": false,
    "priority": 50
  },
  {
    "geonameId": 1731608,
    "name": "Albuera",
    "latitude": 10.9158,
    "longitude": 124.6945,
    "category": "City",
    "subcategory": "District Seat",
    "featured": false,
    "priority": 50
  },
  {
    "geonameId": 1731604,
    "name": "Alburquerque",
    "latitude": 9.60806,
    "longitude": 123.95806,
    "category": "City",
    "subcategory": "District Seat",
    "featured": false,
    "priority": 50
  },
  {
    "geonameId": 1731597,
    "name": "Alcala",
    "latitude": 17.9021,
    "longitude": 121.65595,
    "category": "City",
    "subcategory": "District Seat",
    "featured": false,
    "priority": 50
  },
  {
    "geonameId": 1731592,
    "name": "Alcantara",
    "latitude": 12.2589,
    "longitude": 122.0544,
    "category": "City",
    "subcategory": "District Seat",
    "featured": false,
    "priority": 50
  },
  {
    "geonameId": 1731589,
    "name": "Alcisiras Island",
    "latitude": 11.42367,
    "longitude": 120.81165,
    "category": "Island",
    "subcategory": "Island",
    "featured": false,
    "priority": 50
  },
  {
    "geonameId": 1731586,
    "name": "Alcoy",
    "latitude": 9.7102,
    "longitude": 123.5067,
    "category": "City",
    "subcategory": "District Seat",
    "featured": false,
    "priority": 50
  },
  {
    "geonameId": 1731554,
    "name": "Alegria",
    "latitude": 12.3984,
    "longitude": 124.3261,
    "category": "City",
    "subcategory": "City",
    "featured": false,
    "priority": 50
  },
  {
    "geonameId": 1731547,
    "name": "Alejal",
    "latitude": 7.38417,
    "longitude": 125.66,
    "category": "City",
    "subcategory": "City",
    "featured": false,
    "priority": 50
  },
  {
    "geonameId": 1731537,
    "name": "Alfonso",
    "latitude": 14.14083,
    "longitude": 120.85389,
    "category": "City",
    "subcategory": "District Seat",
    "featured": false,
    "priority": 50
  },
  {
    "geonameId": 1731534,
    "name": "Alfonso Castañeda",
    "latitude": 15.8006,
    "longitude": 121.3054,
    "category": "City",
    "subcategory": "City",
    "featured": false,
    "priority": 50
  },
  {
    "geonameId": 1731528,
    "name": "Aliaga",
    "latitude": 15.5,
    "longitude": 120.843,
    "category": "City",
    "subcategory": "District Seat",
    "featured": false,
    "priority": 50
  },
  {
    "geonameId": 1731509,
    "name": "Alibatan Island",
    "latitude": 12.21476,
    "longitude": 121.28111,
    "category": "Island",
    "subcategory": "Island",
    "featured": false,
    "priority": 50
  },
  {
    "geonameId": 1731504,
    "name": "Alibijaban Island",
    "latitude": 13.3447,
    "longitude": 122.7189,
    "category": "Island",
    "subcategory": "Island",
    "featured": false,
    "priority": 50
  },
  {
    "geonameId": 1731494,
    "name": "Alicante",
    "latitude": 10.89704,
    "longitude": 123.0185,
    "category": "City",
    "subcategory": "City",
    "featured": false,
    "priority": 50
  },
  {
    "geonameId": 1731486,
    "name": "Alicia",
    "latitude": 16.77936,
    "longitude": 121.69734,
    "category": "City",
    "subcategory": "District Seat",
    "featured": false,
    "priority": 50
  },
  {
    "geonameId": 1731484,
    "name": "Aliguay Island",
    "latitude": 8.74621,
    "longitude": 123.22276,
    "category": "Island",
    "subcategory": "Island",
    "featured": false,
    "priority": 50
  },
  {
    "geonameId": 1731466,
    "name": "Alilem",
    "latitude": 16.8861,
    "longitude": 120.5304,
    "category": "City",
    "subcategory": "District Seat",
    "featured": false,
    "priority": 50
  },
  {
    "geonameId": 1731453,
    "name": "Alimango Island",
    "latitude": 10.81667,
    "longitude": 123.53333,
    "category": "Island",
    "subcategory": "Island",
    "featured": false,
    "priority": 50
  },
  {
    "geonameId": 1731441,
    "name": "Alimodian",
    "latitude": 10.82139,
    "longitude": 122.43111,
    "category": "City",
    "subcategory": "District Seat",
    "featured": false,
    "priority": 50
  },
  {
    "geonameId": 1731415,
    "name": "Aling Island",
    "latitude": 9.55472,
    "longitude": 125.83732,
    "category": "Island",
    "subcategory": "Island",
    "featured": false,
    "priority": 50
  },
  {
    "geonameId": 1731382,
    "name": "Alitagtag",
    "latitude": 13.8645,
    "longitude": 121.0041,
    "category": "City",
    "subcategory": "District Seat",
    "featured": false,
    "priority": 50
  },
  {
    "geonameId": 1731358,
    "name": "Allacapan",
    "latitude": 18.22598,
    "longitude": 121.55615,
    "category": "City",
    "subcategory": "District Seat",
    "featured": false,
    "priority": 50
  },
  {
    "geonameId": 1731340,
    "name": "Allen",
    "latitude": 12.5006,
    "longitude": 124.2849,
    "category": "City",
    "subcategory": "District Seat",
    "featured": false,
    "priority": 50
  },
  {
    "geonameId": 1731337,
    "name": "Alligator",
    "latitude": 14.18258,
    "longitude": 121.20631,
    "category": "Lake",
    "subcategory": "Lake",
    "featured": false,
    "priority": 50
  },
  {
    "geonameId": 1699995,
    "name": "Alligator Island",
    "latitude": 10.8479,
    "longitude": 119.3016,
    "category": "Island",
    "subcategory": "Island",
    "featured": false,
    "priority": 50
  },
  {
    "geonameId": 1731324,
    "name": "Almagro",
    "latitude": 11.9109,
    "longitude": 124.2858,
    "category": "City",
    "subcategory": "District Seat",
    "featured": false,
    "priority": 50
  },
  {
    "geonameId": 1731322,
    "name": "Almagro Island",
    "latitude": 11.926,
    "longitude": 124.3052,
    "category": "Island",
    "subcategory": "Island",
    "featured": false,
    "priority": 50
  },
  {
    "geonameId": 7412993,
    "name": "Almasigan Lake",
    "latitude": 16.97005,
    "longitude": 122.41174,
    "category": "Lake",
    "subcategory": "Lake",
    "featured": false,
    "priority": 50
  },
  {
    "geonameId": 1731314,
    "name": "Almeria",
    "latitude": 11.62028,
    "longitude": 124.38167,
    "category": "City",
    "subcategory": "District Seat",
    "featured": false,
    "priority": 50
  },
  {
    "geonameId": 1731711,
    "name": "Alo Island",
    "latitude": 16.2097,
    "longitude": 119.999,
    "category": "Island",
    "subcategory": "Island",
    "featured": false,
    "priority": 50
  },
  {
    "geonameId": 1731302,
    "name": "Aloguinsan",
    "latitude": 10.2219,
    "longitude": 123.5483,
    "category": "City",
    "subcategory": "District Seat",
    "featured": false,
    "priority": 50
  },
  {
    "geonameId": 11805114,
    "name": "Aloyon Island",
    "latitude": 14.88117,
    "longitude": 121.97511,
    "category": "Island",
    "subcategory": "Island",
    "featured": false,
    "priority": 50
  },
  {
    "geonameId": 1731276,
    "name": "Altavas",
    "latitude": 11.538,
    "longitude": 122.487,
    "category": "City",
    "subcategory": "District Seat",
    "featured": false,
    "priority": 50
  },
  {
    "geonameId": 1731267,
    "name": "Alto Peak",
    "latitude": 11.10611,
    "longitude": 124.70972,
    "category": "Mountain",
    "subcategory": "Mountain",
    "featured": false,
    "priority": 50
  },
  {
    "geonameId": 1731254,
    "name": "Alubijid",
    "latitude": 8.57333,
    "longitude": 124.47361,
    "category": "City",
    "subcategory": "District Seat",
    "featured": false,
    "priority": 50
  },
  {
    "geonameId": 1731219,
    "name": "Amaanang Island",
    "latitude": 5.21667,
    "longitude": 120.31667,
    "category": "Island",
    "subcategory": "Island",
    "featured": false,
    "priority": 50
  },
  {
    "geonameId": 1731212,
    "name": "Amadeo",
    "latitude": 14.17056,
    "longitude": 120.92361,
    "category": "City",
    "subcategory": "District Seat",
    "featured": false,
    "priority": 50
  },
  {
    "geonameId": 1731205,
    "name": "Amaga Island",
    "latitude": 9.53901,
    "longitude": 125.89994,
    "category": "Island",
    "subcategory": "Island",
    "featured": false,
    "priority": 50
  },
  {
    "geonameId": 1731196,
    "name": "Amalia Island",
    "latitude": 14.37889,
    "longitude": 123.0375,
    "category": "Island",
    "subcategory": "Island",
    "featured": false,
    "priority": 50
  },
  {
    "geonameId": 1731164,
    "name": "Amas",
    "latitude": 7.05694,
    "longitude": 124.98389,
    "category": "City",
    "subcategory": "City",
    "featured": false,
    "priority": 50
  },
  {
    "geonameId": 1731133,
    "name": "Ambal Cataract",
    "latitude": 7.62247,
    "longitude": 124.35478,
    "category": "Waterfall",
    "subcategory": "Waterfall",
    "featured": false,
    "priority": 50
  },
  {
    "geonameId": 1731113,
    "name": "Ambil Island",
    "latitude": 13.8034,
    "longitude": 120.3014,
    "category": "Island",
    "subcategory": "Island",
    "featured": false,
    "priority": 50
  },
  {
    "geonameId": 9972547,
    "name": "Ambon-Ambon Falls",
    "latitude": 14.67449,
    "longitude": 120.4105,
    "category": "Waterfall",
    "subcategory": "Waterfall",
    "featured": false,
    "priority": 50
  },
  {
    "geonameId": 1731086,
    "name": "Ambugan Island",
    "latitude": 10.0708,
    "longitude": 124.023,
    "category": "Island",
    "subcategory": "Island",
    "featured": false,
    "priority": 50
  },
  {
    "geonameId": 1731084,
    "name": "Ambuklao Reservoir",
    "latitude": 16.47828,
    "longitude": 120.74892,
    "category": "Lake",
    "subcategory": "Reservoir",
    "featured": false,
    "priority": 50
  },
  {
    "geonameId": 1731077,
    "name": "Ambulong",
    "latitude": 14.08804,
    "longitude": 121.06127,
    "category": "City",
    "subcategory": "City",
    "featured": false,
    "priority": 50
  },
  {
    "geonameId": 1731074,
    "name": "Ambulong Island",
    "latitude": 12.21492,
    "longitude": 121.01673,
    "category": "Island",
    "subcategory": "Island",
    "featured": false,
    "priority": 50
  },
  {
    "geonameId": 1730983,
    "name": "Ampatuan",
    "latitude": 6.86667,
    "longitude": 124.46667,
    "category": "City",
    "subcategory": "District Seat",
    "featured": false,
    "priority": 50
  },
  {
    "geonameId": 1730958,
    "name": "Amulung",
    "latitude": 17.8357,
    "longitude": 121.72375,
    "category": "City",
    "subcategory": "District Seat",
    "featured": false,
    "priority": 50
  },
  {
    "geonameId": 1730956,
    "name": "Amuñgan",
    "latitude": 15.3652,
    "longitude": 119.9582,
    "category": "City",
    "subcategory": "City",
    "featured": false,
    "priority": 50
  },
  {
    "geonameId": 1730928,
    "name": "Anaga Falls",
    "latitude": 8.18333,
    "longitude": 124.21667,
    "category": "Waterfall",
    "subcategory": "Waterfall",
    "featured": false,
    "priority": 50
  },
  {
    "geonameId": 1730927,
    "name": "Anaganahao Island",
    "latitude": 13.4276,
    "longitude": 121.2161,
    "category": "Island",
    "subcategory": "Island",
    "featured": false,
    "priority": 50
  },
  {
    "geonameId": 1730922,
    "name": "Anahap Island",
    "latitude": 11.25028,
    "longitude": 125.55611,
    "category": "Island",
    "subcategory": "Island",
    "featured": false,
    "priority": 50
  },
  {
    "geonameId": 1730919,
    "name": "Anahau Island",
    "latitude": 13.9017,
    "longitude": 123.6265,
    "category": "Island",
    "subcategory": "Island",
    "featured": false,
    "priority": 50
  },
  {
    "geonameId": 1730915,
    "name": "Anahawan",
    "latitude": 10.27722,
    "longitude": 125.2625,
    "category": "City",
    "subcategory": "District Seat",
    "featured": false,
    "priority": 50
  },
  {
    "geonameId": 1730905,
    "name": "Anajao Island",
    "latitude": 11.84028,
    "longitude": 125.44833,
    "category": "Island",
    "subcategory": "Island",
    "featured": false,
    "priority": 50
  },
  {
    "geonameId": 1730901,
    "name": "Anajauan Island",
    "latitude": 9.8286,
    "longitude": 122.3664,
    "category": "Island",
    "subcategory": "Island",
    "featured": false,
    "priority": 50
  },
  {
    "geonameId": 1730878,
    "name": "Anao",
    "latitude": 15.7291,
    "longitude": 120.6253,
    "category": "City",
    "subcategory": "District Seat",
    "featured": false,
    "priority": 50
  },
  {
    "geonameId": 1730854,
    "name": "Anas Island",
    "latitude": 10.6929,
    "longitude": 120.271,
    "category": "Island",
    "subcategory": "Island",
    "featured": false,
    "priority": 50
  },
  {
    "geonameId": 1730849,
    "name": "Anato Island",
    "latitude": 11.01997,
    "longitude": 119.30637,
    "category": "Island",
    "subcategory": "Island",
    "featured": false,
    "priority": 50
  },
  {
    "geonameId": 1730848,
    "name": "Anato Peak",
    "latitude": 11.015,
    "longitude": 119.32278,
    "category": "Mountain",
    "subcategory": "Mountain",
    "featured": false,
    "priority": 50
  },
  {
    "geonameId": 1730846,
    "name": "Anauayan Island",
    "latitude": 11.0958,
    "longitude": 123.1544,
    "category": "Island",
    "subcategory": "Island",
    "featured": false,
    "priority": 50
  },
  {
    "geonameId": 1730839,
    "name": "Anawan Island",
    "latitude": 14.93007,
    "longitude": 122.04894,
    "category": "Island",
    "subcategory": "Island",
    "featured": false,
    "priority": 50
  },
  {
    "geonameId": 7387155,
    "name": "Anbodotong Island",
    "latitude": 10.7211,
    "longitude": 119.4557,
    "category": "Island",
    "subcategory": "Island",
    "featured": false,
    "priority": 50
  },
  {
    "geonameId": 1730825,
    "name": "Anchor Island",
    "latitude": 13.9565,
    "longitude": 123.5376,
    "category": "Island",
    "subcategory": "Island",
    "featured": false,
    "priority": 50
  },
  {
    "geonameId": 1730827,
    "name": "Anchorage Island",
    "latitude": 10.89863,
    "longitude": 119.24377,
    "category": "Island",
    "subcategory": "Island",
    "featured": false,
    "priority": 50
  },
  {
    "geonameId": 1730819,
    "name": "Anda",
    "latitude": 16.2892,
    "longitude": 119.95,
    "category": "City",
    "subcategory": "District Seat",
    "featured": false,
    "priority": 50
  },
  {
    "geonameId": 1730799,
    "name": "Andis Island",
    "latitude": 11.63889,
    "longitude": 125.48361,
    "category": "Island",
    "subcategory": "Island",
    "featured": false,
    "priority": 50
  },
  {
    "geonameId": 1958713,
    "name": "Andop",
    "latitude": 7.86111,
    "longitude": 125.75389,
    "category": "City",
    "subcategory": "City",
    "featured": false,
    "priority": 50
  },
  {
    "geonameId": 1730789,
    "name": "Andres Bonifacio",
    "latitude": 10.91667,
    "longitude": 123.25,
    "category": "City",
    "subcategory": "City",
    "featured": false,
    "priority": 50
  },
  {
    "geonameId": 1730784,
    "name": "Anduligan Island",
    "latitude": 4.7732,
    "longitude": 119.246,
    "category": "Island",
    "subcategory": "Island",
    "featured": false,
    "priority": 50
  },
  {
    "geonameId": 1730776,
    "name": "Anepahan Peaks",
    "latitude": 9.6417,
    "longitude": 118.4503,
    "category": "Mountain",
    "subcategory": "Peak",
    "featured": false,
    "priority": 50
  },
  {
    "geonameId": 1730771,
    "name": "Angadanan",
    "latitude": 16.75526,
    "longitude": 121.74834,
    "category": "City",
    "subcategory": "District Seat",
    "featured": false,
    "priority": 50
  },
  {
    "geonameId": 1730749,
    "name": "Angat",
    "latitude": 14.9285,
    "longitude": 121.03,
    "category": "City",
    "subcategory": "District Seat",
    "featured": false,
    "priority": 50
  },
  {
    "geonameId": 1730746,
    "name": "Angat Reservoir",
    "latitude": 14.97474,
    "longitude": 121.19662,
    "category": "Lake",
    "subcategory": "Reservoir",
    "featured": false,
    "priority": 50
  },
  {
    "geonameId": 1730737,
    "name": "Angeles City",
    "latitude": 15.15,
    "longitude": 120.58333,
    "category": "City",
    "subcategory": "City",
    "featured": false,
    "priority": 50
  },
  {
    "geonameId": 1730724,
    "name": "Angilut Peak",
    "latitude": 8.5,
    "longitude": 125.4,
    "category": "Mountain",
    "subcategory": "Mountain",
    "featured": false,
    "priority": 50
  },
  {
    "geonameId": 1730713,
    "name": "Angono",
    "latitude": 14.5266,
    "longitude": 121.1536,
    "category": "City",
    "subcategory": "District Seat",
    "featured": false,
    "priority": 50
  },
  {
    "geonameId": 1730664,
    "name": "Anilao",
    "latitude": 10.97778,
    "longitude": 122.75222,
    "category": "City",
    "subcategory": "District Seat",
    "featured": false,
    "priority": 50
  },
  {
    "geonameId": 8335515,
    "name": "Anilao Hill",
    "latitude": 13.9093,
    "longitude": 121.1781,
    "category": "Mountain",
    "subcategory": "Mountain",
    "featured": false,
    "priority": 50
  },
  {
    "geonameId": 1730653,
    "name": "Anima Sola Island",
    "latitude": 13.22005,
    "longitude": 123.0466,
    "category": "Island",
    "subcategory": "Island",
    "featured": false,
    "priority": 50
  },
  {
    "geonameId": 1730645,
    "name": "Anini-y",
    "latitude": 10.4312,
    "longitude": 121.927,
    "category": "City",
    "subcategory": "District Seat",
    "featured": false,
    "priority": 50
  },
  {
    "geonameId": 1730637,
    "name": "Anirong Island",
    "latitude": 14.91313,
    "longitude": 122.0359,
    "category": "Island",
    "subcategory": "Island",
    "featured": false,
    "priority": 50
  },
  {
    "geonameId": 1730579,
    "name": "Anonang",
    "latitude": 11,
    "longitude": 124.03333,
    "category": "City",
    "subcategory": "City",
    "featured": false,
    "priority": 50
  },
  {
    "geonameId": 1730530,
    "name": "Antequera",
    "latitude": 9.7809,
    "longitude": 123.8988,
    "category": "City",
    "subcategory": "District Seat",
    "featured": false,
    "priority": 50
  },
  {
    "geonameId": 1730501,
    "name": "Antipolo",
    "latitude": 14.62578,
    "longitude": 121.12251,
    "category": "City",
    "subcategory": "County Seat",
    "featured": false,
    "priority": 50
  },
  {
    "geonameId": 1730486,
    "name": "Antokon Island",
    "latitude": 9.60472,
    "longitude": 126.17861,
    "category": "Island",
    "subcategory": "Island",
    "featured": false,
    "priority": 50
  },
  {
    "geonameId": 1730481,
    "name": "Antonia Island",
    "latitude": 11.557,
    "longitude": 123.3457,
    "category": "Island",
    "subcategory": "Island",
    "featured": false,
    "priority": 50
  },
  {
    "geonameId": 1730468,
    "name": "Anuling",
    "latitude": 6.03556,
    "longitude": 121.00667,
    "category": "City",
    "subcategory": "City",
    "featured": false,
    "priority": 50
  },
  {
    "geonameId": 1730466,
    "name": "Anuling Island",
    "latitude": 9.61667,
    "longitude": 121.3,
    "category": "Island",
    "subcategory": "Island",
    "featured": false,
    "priority": 50
  },
  {
    "geonameId": 1730874,
    "name": "Anyao Island",
    "latitude": 15.7588,
    "longitude": 121.6323,
    "category": "Island",
    "subcategory": "Island",
    "featured": false,
    "priority": 50
  },
  {
    "geonameId": 1730413,
    "name": "Apalit",
    "latitude": 14.95333,
    "longitude": 120.77,
    "category": "City",
    "subcategory": "District Seat",
    "featured": false,
    "priority": 50
  },
  {
    "geonameId": 1730398,
    "name": "Aparri",
    "latitude": 18.3566,
    "longitude": 121.6406,
    "category": "City",
    "subcategory": "District Seat",
    "featured": false,
    "priority": 50
  },
  {
    "geonameId": 10628881,
    "name": "Apas",
    "latitude": 10.34076,
    "longitude": 123.90261,
    "category": "City",
    "subcategory": "City",
    "featured": false,
    "priority": 50
  },
  {
    "geonameId": 1730390,
    "name": "Apat Island",
    "latitude": 14.00487,
    "longitude": 122.30663,
    "category": "Island",
    "subcategory": "Island",
    "featured": false,
    "priority": 50
  },
  {
    "geonameId": 1730356,
    "name": "Apit Island",
    "latitude": 10.51883,
    "longitude": 124.67152,
    "category": "Island",
    "subcategory": "Island",
    "featured": false,
    "priority": 50
  },
  {
    "geonameId": 1730351,
    "name": "Apitong Island",
    "latitude": 12.165,
    "longitude": 125.5215,
    "category": "Island",
    "subcategory": "Island",
    "featured": false,
    "priority": 50
  },
  {
    "geonameId": 7390727,
    "name": "Apitongan Lake",
    "latitude": 13.1612,
    "longitude": 120.6748,
    "category": "Lake",
    "subcategory": "Lake",
    "featured": false,
    "priority": 50
  },
  {
    "geonameId": 1966030,
    "name": "Apo East Pass",
    "latitude": 13.23417,
    "longitude": 120.40028,
    "category": "Mountain",
    "subcategory": "Mountain Pass",
    "featured": false,
    "priority": 50
  },
  {
    "geonameId": 6569483,
    "name": "Apo Hill",
    "latitude": 8.0875,
    "longitude": 124.20667,
    "category": "Mountain",
    "subcategory": "Mountain",
    "featured": false,
    "priority": 50
  },
  {
    "geonameId": 1730328,
    "name": "Apo Island",
    "latitude": 12.6601,
    "longitude": 120.4144,
    "category": "Island",
    "subcategory": "Island",
    "featured": false,
    "priority": 50
  },
  {
    "geonameId": 1730339,
    "name": "Apo Mountain",
    "latitude": 11.1858,
    "longitude": 122.7744,
    "category": "Mountain",
    "subcategory": "Mountain",
    "featured": false,
    "priority": 50
  },
  {
    "geonameId": 1730317,
    "name": "Aporoo Island",
    "latitude": 11.13217,
    "longitude": 125.2849,
    "category": "Island",
    "subcategory": "Island",
    "featured": false,
    "priority": 50
  },
  {
    "geonameId": 1730309,
    "name": "Apuao Grande Island",
    "latitude": 14.086,
    "longitude": 123.0916,
    "category": "Island",
    "subcategory": "Island",
    "featured": false,
    "priority": 50
  },
  {
    "geonameId": 1730308,
    "name": "Apuao Island",
    "latitude": 14.0889,
    "longitude": 123.0824,
    "category": "Island",
    "subcategory": "Island",
    "featured": false,
    "priority": 50
  },
  {
    "geonameId": 1730299,
    "name": "Apulagan Island",
    "latitude": 18.24727,
    "longitude": 122.32765,
    "category": "Island",
    "subcategory": "Island",
    "featured": false,
    "priority": 50
  },
  {
    "geonameId": 1886812,
    "name": "Apuli Mountain",
    "latitude": 10.75,
    "longitude": 124.5,
    "category": "Mountain",
    "subcategory": "Mountain",
    "featured": false,
    "priority": 50
  },
  {
    "geonameId": 1730296,
    "name": "Apulit Island",
    "latitude": 10.9587,
    "longitude": 119.6139,
    "category": "Island",
    "subcategory": "Island",
    "featured": false,
    "priority": 50
  },
  {
    "geonameId": 1730249,
    "name": "Arangasa Islands",
    "latitude": 8.88111,
    "longitude": 126.33722,
    "category": "Island",
    "subcategory": "Island Group",
    "featured": false,
    "priority": 50
  },
  {
    "geonameId": 1730232,
    "name": "Aras-asan",
    "latitude": 8.88781,
    "longitude": 126.3112,
    "category": "City",
    "subcategory": "City",
    "featured": false,
    "priority": 50
  },
  {
    "geonameId": 1730225,
    "name": "Arayat",
    "latitude": 15.1505,
    "longitude": 120.7697,
    "category": "City",
    "subcategory": "District Seat",
    "featured": false,
    "priority": 50
  },
  {
    "geonameId": 1730220,
    "name": "Arboles Island",
    "latitude": 7.16028,
    "longitude": 125.68111,
    "category": "Island",
    "subcategory": "Island",
    "featured": false,
    "priority": 50
  },
  {
    "geonameId": 1730210,
    "name": "Arena Island",
    "latitude": 13.15169,
    "longitude": 122.80069,
    "category": "Island",
    "subcategory": "Island",
    "featured": false,
    "priority": 50
  },
  {
    "geonameId": 1730194,
    "name": "Argao",
    "latitude": 9.87944,
    "longitude": 123.59556,
    "category": "City",
    "subcategory": "District Seat",
    "featured": false,
    "priority": 50
  },
  {
    "geonameId": 1730178,
    "name": "Ari Island",
    "latitude": 11.79011,
    "longitude": 124.72369,
    "category": "Island",
    "subcategory": "Island",
    "featured": false,
    "priority": 50
  },
  {
    "geonameId": 1730184,
    "name": "Arigara Island",
    "latitude": 11.5308,
    "longitude": 119.8813,
    "category": "Island",
    "subcategory": "Island",
    "featured": false,
    "priority": 50
  },
  {
    "geonameId": 1730171,
    "name": "Aringay",
    "latitude": 16.394,
    "longitude": 120.3545,
    "category": "City",
    "subcategory": "District Seat",
    "featured": false,
    "priority": 50
  },
  {
    "geonameId": 1730162,
    "name": "Aritao",
    "latitude": 16.2979,
    "longitude": 121.0345,
    "category": "City",
    "subcategory": "District Seat",
    "featured": false,
    "priority": 50
  },
  {
    "geonameId": 1730143,
    "name": "Aroroy",
    "latitude": 12.5111,
    "longitude": 123.3977,
    "category": "City",
    "subcategory": "District Seat",
    "featured": false,
    "priority": 50
  },
  {
    "geonameId": 1730140,
    "name": "Arorunga Island",
    "latitude": 11.42507,
    "longitude": 120.81947,
    "category": "Island",
    "subcategory": "Island",
    "featured": false,
    "priority": 50
  },
  {
    "geonameId": 1730130,
    "name": "Arrecife Island",
    "latitude": 9.9103,
    "longitude": 118.8791,
    "category": "Island",
    "subcategory": "Island",
    "featured": false,
    "priority": 50
  },
  {
    "geonameId": 1730123,
    "name": "Arteche",
    "latitude": 12.2645,
    "longitude": 125.4048,
    "category": "City",
    "subcategory": "District Seat",
    "featured": false,
    "priority": 50
  },
  {
    "geonameId": 7384285,
    "name": "Asalogan Lake",
    "latitude": 10.53453,
    "longitude": 119.25713,
    "category": "Lake",
    "subcategory": "Lake",
    "featured": false,
    "priority": 50
  },
  {
    "geonameId": 1730097,
    "name": "Asia",
    "latitude": 9.5506,
    "longitude": 122.5164,
    "category": "City",
    "subcategory": "City",
    "featured": false,
    "priority": 50
  },
  {
    "geonameId": 11783647,
    "name": "Asik-asik Falls",
    "latitude": 7.56161,
    "longitude": 124.53536,
    "category": "Waterfall",
    "subcategory": "Waterfall",
    "featured": false,
    "priority": 50
  },
  {
    "geonameId": 1730070,
    "name": "Asingan",
    "latitude": 16.0051,
    "longitude": 120.6695,
    "category": "City",
    "subcategory": "District Seat",
    "featured": false,
    "priority": 50
  },
  {
    "geonameId": 1730055,
    "name": "Aslom Island",
    "latitude": 12.26505,
    "longitude": 121.27721,
    "category": "Island",
    "subcategory": "Island",
    "featured": false,
    "priority": 50
  },
  {
    "geonameId": 1730048,
    "name": "Aslum Peak",
    "latitude": 11.05,
    "longitude": 124.63333,
    "category": "Mountain",
    "subcategory": "Mountain",
    "featured": false,
    "priority": 50
  },
  {
    "geonameId": 1730039,
    "name": "Astorga",
    "latitude": 6.90722,
    "longitude": 125.45583,
    "category": "City",
    "subcategory": "City",
    "featured": false,
    "priority": 50
  },
  {
    "geonameId": 1730032,
    "name": "Asturias",
    "latitude": 10.5669,
    "longitude": 123.7161,
    "category": "City",
    "subcategory": "City",
    "featured": false,
    "priority": 50
  },
  {
    "geonameId": 1729987,
    "name": "Atimonan",
    "latitude": 14.0027,
    "longitude": 121.92078,
    "category": "City",
    "subcategory": "City",
    "featured": false,
    "priority": 50
  },
  {
    "geonameId": 1729969,
    "name": "Atok",
    "latitude": 16.58355,
    "longitude": 120.69949,
    "category": "City",
    "subcategory": "District Seat",
    "featured": false,
    "priority": 50
  },
  {
    "geonameId": 1730018,
    "name": "Atta Island",
    "latitude": 13.5325,
    "longitude": 121.851,
    "category": "Island",
    "subcategory": "Island",
    "featured": false,
    "priority": 50
  },
  {
    "geonameId": 1729958,
    "name": "Atugan Canyon",
    "latitude": 8.30583,
    "longitude": 125.01111,
    "category": "Mountain",
    "subcategory": "Canyon",
    "featured": false,
    "priority": 50
  },
  {
    "geonameId": 1729953,
    "name": "Atulayan",
    "latitude": 17.6648,
    "longitude": 121.6937,
    "category": "City",
    "subcategory": "City",
    "featured": false,
    "priority": 50
  },
  {
    "geonameId": 1729951,
    "name": "Atulayan Island",
    "latitude": 13.5862,
    "longitude": 123.5684,
    "category": "Island",
    "subcategory": "Island",
    "featured": false,
    "priority": 50
  },
  {
    "geonameId": 1729938,
    "name": "Auqui Island",
    "latitude": 9.38917,
    "longitude": 126.05167,
    "category": "Island",
    "subcategory": "Island",
    "featured": false,
    "priority": 50
  },
  {
    "geonameId": 1689994,
    "name": "Aurora",
    "latitude": 13.3476,
    "longitude": 122.5195,
    "category": "City",
    "subcategory": "City",
    "featured": false,
    "priority": 50
  },
  {
    "geonameId": 1729920,
    "name": "Ave Maria Island",
    "latitude": 10.54546,
    "longitude": 122.5177,
    "category": "Island",
    "subcategory": "Island",
    "featured": false,
    "priority": 50
  },
  {
    "geonameId": 1729907,
    "name": "Awang",
    "latitude": 7.15306,
    "longitude": 124.22111,
    "category": "City",
    "subcategory": "City",
    "featured": false,
    "priority": 50
  },
  {
    "geonameId": 1729898,
    "name": "Awasan Island",
    "latitude": 9.89639,
    "longitude": 125.63278,
    "category": "Island",
    "subcategory": "Island",
    "featured": false,
    "priority": 50
  },
  {
    "geonameId": 9034624,
    "name": "Ayala Triangle",
    "latitude": 14.55681,
    "longitude": 121.02424,
    "category": "Park",
    "subcategory": "Park",
    "featured": false,
    "priority": 50
  },
  {
    "geonameId": 1729860,
    "name": "Ayninan Island",
    "latitude": 8.78,
    "longitude": 126.30722,
    "category": "Island",
    "subcategory": "Island",
    "featured": false,
    "priority": 50
  },
  {
    "geonameId": 1729846,
    "name": "Ayungon",
    "latitude": 9.8589,
    "longitude": 123.1444,
    "category": "City",
    "subcategory": "District Seat",
    "featured": false,
    "priority": 50
  },
  {
    "geonameId": 1684212,
    "name": "Baabag-Sahasa Island",
    "latitude": 5.8326,
    "longitude": 119.6524,
    "category": "Island",
    "subcategory": "Island",
    "featured": false,
    "priority": 50
  },
  {
    "geonameId": 1729814,
    "name": "Baao",
    "latitude": 13.4549,
    "longitude": 123.3653,
    "category": "City",
    "subcategory": "District Seat",
    "featured": false,
    "priority": 50
  },
  {
    "geonameId": 7388156,
    "name": "Babac Island",
    "latitude": 11.5276,
    "longitude": 119.7324,
    "category": "Island",
    "subcategory": "Island",
    "featured": false,
    "priority": 50
  },
  {
    "geonameId": 7388294,
    "name": "Babahalid Island",
    "latitude": 11.4723,
    "longitude": 119.7946,
    "category": "Island",
    "subcategory": "Island",
    "featured": false,
    "priority": 50
  },
  {
    "geonameId": 1729784,
    "name": "Babak",
    "latitude": 7.13639,
    "longitude": 125.6875,
    "category": "City",
    "subcategory": "District Seat",
    "featured": false,
    "priority": 50
  },
  {
    "geonameId": 1729767,
    "name": "Babarogon Island",
    "latitude": 10.67717,
    "longitude": 119.6018,
    "category": "Island",
    "subcategory": "Island",
    "featured": false,
    "priority": 50
  },
  {
    "geonameId": 1729760,
    "name": "Babatngon",
    "latitude": 11.4238,
    "longitude": 124.8449,
    "category": "City",
    "subcategory": "City",
    "featured": false,
    "priority": 50
  },
  {
    "geonameId": 1729728,
    "name": "Baboy Island",
    "latitude": 16.3179,
    "longitude": 119.9327,
    "category": "Island",
    "subcategory": "Island",
    "featured": false,
    "priority": 50
  },
  {
    "geonameId": 1729726,
    "name": "Babuan Island",
    "latitude": 5.43972,
    "longitude": 120.54417,
    "category": "Island",
    "subcategory": "Island",
    "featured": false,
    "priority": 50
  },
  {
    "geonameId": 1729713,
    "name": "Babuy Peak",
    "latitude": 13.38333,
    "longitude": 120.8,
    "category": "Mountain",
    "subcategory": "Mountain",
    "featured": false,
    "priority": 50
  },
  {
    "geonameId": 1729717,
    "name": "Babuyan Island",
    "latitude": 19.5306,
    "longitude": 121.94926,
    "category": "Island",
    "subcategory": "Island",
    "featured": false,
    "priority": 50
  },
  {
    "geonameId": 1729716,
    "name": "Babuyan Islands",
    "latitude": 19.25,
    "longitude": 121.66667,
    "category": "Island",
    "subcategory": "Island Group",
    "featured": false,
    "priority": 50
  },
  {
    "geonameId": 1729636,
    "name": "Bac Bac Island",
    "latitude": 12.17457,
    "longitude": 119.87901,
    "category": "Island",
    "subcategory": "Island",
    "featured": false,
    "priority": 50
  },
  {
    "geonameId": 1729701,
    "name": "Bacacay",
    "latitude": 13.2934,
    "longitude": 123.7919,
    "category": "City",
    "subcategory": "District Seat",
    "featured": false,
    "priority": 50
  },
  {
    "geonameId": 1729696,
    "name": "Bacag",
    "latitude": 15.93,
    "longitude": 120.58222,
    "category": "City",
    "subcategory": "City",
    "featured": false,
    "priority": 50
  },
  {
    "geonameId": 1729687,
    "name": "Bacalan Island",
    "latitude": 11.26362,
    "longitude": 124.98111,
    "category": "Island",
    "subcategory": "Island",
    "featured": false,
    "priority": 50
  },
  {
    "geonameId": 1729676,
    "name": "Bacan Island",
    "latitude": 12.6,
    "longitude": 125.15,
    "category": "Island",
    "subcategory": "Island",
    "featured": false,
    "priority": 50
  },
  {
    "geonameId": 1729665,
    "name": "Bacao Island",
    "latitude": 5.21667,
    "longitude": 120.35,
    "category": "Island",
    "subcategory": "Island",
    "featured": false,
    "priority": 50
  },
  {
    "geonameId": 7388620,
    "name": "Bacaon Island",
    "latitude": 11.783,
    "longitude": 119.976,
    "category": "Island",
    "subcategory": "Island",
    "featured": false,
    "priority": 50
  },
  {
    "geonameId": 1729655,
    "name": "Bacarra",
    "latitude": 18.2529,
    "longitude": 120.6125,
    "category": "City",
    "subcategory": "District Seat",
    "featured": false,
    "priority": 50
  },
  {
    "geonameId": 1729613,
    "name": "Baclaran",
    "latitude": 14.53194,
    "longitude": 120.99417,
    "category": "City",
    "subcategory": "City",
    "featured": false,
    "priority": 50
  },
  {
    "geonameId": 1729604,
    "name": "Baclayon",
    "latitude": 9.62639,
    "longitude": 123.89417,
    "category": "City",
    "subcategory": "District Seat",
    "featured": false,
    "priority": 50
  },
  {
    "geonameId": 1729594,
    "name": "Bacnotan",
    "latitude": 16.72222,
    "longitude": 120.3525,
    "category": "City",
    "subcategory": "District Seat",
    "featured": false,
    "priority": 50
  },
  {
    "geonameId": 1729592,
    "name": "Baco",
    "latitude": 13.3573,
    "longitude": 121.0983,
    "category": "City",
    "subcategory": "District Seat",
    "featured": false,
    "priority": 50
  },
  {
    "geonameId": 1729590,
    "name": "Baco Chico Island",
    "latitude": 13.485,
    "longitude": 121.1829,
    "category": "Island",
    "subcategory": "Island",
    "featured": false,
    "priority": 50
  },
  {
    "geonameId": 1729586,
    "name": "Baco Island",
    "latitude": 13.4673,
    "longitude": 121.1602,
    "category": "Island",
    "subcategory": "Island",
    "featured": false,
    "priority": 50
  },
  {
    "geonameId": 1729556,
    "name": "Baco Medio Island",
    "latitude": 13.4759,
    "longitude": 121.1688,
    "category": "Island",
    "subcategory": "Island",
    "featured": false,
    "priority": 50
  },
  {
    "geonameId": 1729584,
    "name": "Bacol Island",
    "latitude": 11.4053,
    "longitude": 124.9669,
    "category": "Island",
    "subcategory": "Island",
    "featured": false,
    "priority": 50
  },
  {
    "geonameId": 1729580,
    "name": "Bacolod",
    "latitude": 8.11667,
    "longitude": 123.91667,
    "category": "City",
    "subcategory": "City",
    "featured": false,
    "priority": 50
  },
  {
    "geonameId": 1729564,
    "name": "Bacolod City",
    "latitude": 10.66667,
    "longitude": 122.95,
    "category": "City",
    "subcategory": "County Seat",
    "featured": false,
    "priority": 50
  },
  {
    "geonameId": 6685925,
    "name": "Bacolod Island",
    "latitude": 7.5863,
    "longitude": 123.0668,
    "category": "Island",
    "subcategory": "Island",
    "featured": false,
    "priority": 50
  },
  {
    "geonameId": 1729559,
    "name": "Bacolog Island",
    "latitude": 7.5882,
    "longitude": 123.0376,
    "category": "Island",
    "subcategory": "Island",
    "featured": false,
    "priority": 50
  },
  {
    "geonameId": 1729557,
    "name": "Bacolor",
    "latitude": 15.0003,
    "longitude": 120.652,
    "category": "City",
    "subcategory": "District Seat",
    "featured": false,
    "priority": 50
  },
  {
    "geonameId": 1729554,
    "name": "Bacon",
    "latitude": 13.03778,
    "longitude": 124.04111,
    "category": "City",
    "subcategory": "District Seat",
    "featured": false,
    "priority": 50
  },
  {
    "geonameId": 1729530,
    "name": "Bacon Island",
    "latitude": 13.9662,
    "longitude": 123.5888,
    "category": "Island",
    "subcategory": "Island",
    "featured": false,
    "priority": 50
  },
  {
    "geonameId": 1729550,
    "name": "Bacong",
    "latitude": 9.2464,
    "longitude": 123.2956,
    "category": "City",
    "subcategory": "District Seat",
    "featured": false,
    "priority": 50
  },
  {
    "geonameId": 9034621,
    "name": "Bacood Park",
    "latitude": 14.5972,
    "longitude": 121.01597,
    "category": "Park",
    "subcategory": "Park",
    "featured": false,
    "priority": 50
  },
  {
    "geonameId": 1729524,
    "name": "Bacoor",
    "latitude": 14.45896,
    "longitude": 120.93851,
    "category": "City",
    "subcategory": "District Seat",
    "featured": false,
    "priority": 50
  },
  {
    "geonameId": 1729513,
    "name": "Bacsal Island",
    "latitude": 11.524,
    "longitude": 124.8087,
    "category": "Island",
    "subcategory": "Island",
    "featured": false,
    "priority": 50
  },
  {
    "geonameId": 1729484,
    "name": "Bactol Island",
    "latitude": 12.0858,
    "longitude": 125.4925,
    "category": "Island",
    "subcategory": "Island",
    "featured": false,
    "priority": 50
  },
  {
    "geonameId": 1729478,
    "name": "Bacuag",
    "latitude": 9.60806,
    "longitude": 125.63889,
    "category": "City",
    "subcategory": "District Seat",
    "featured": false,
    "priority": 50
  },
  {
    "geonameId": 1729464,
    "name": "Baculongan",
    "latitude": 16.8,
    "longitude": 120.8333,
    "category": "City",
    "subcategory": "City",
    "featured": false,
    "priority": 50
  },
  {
    "geonameId": 1729454,
    "name": "Bacungan Island",
    "latitude": 7.38972,
    "longitude": 122.42917,
    "category": "Island",
    "subcategory": "Island",
    "featured": false,
    "priority": 50
  },
  {
    "geonameId": 1729445,
    "name": "Bacuyangan",
    "latitude": 9.637,
    "longitude": 122.4721,
    "category": "City",
    "subcategory": "City",
    "featured": false,
    "priority": 50
  },
  {
    "geonameId": 1966226,
    "name": "Badak",
    "latitude": 6.84722,
    "longitude": 124.72056,
    "category": "City",
    "subcategory": "City",
    "featured": false,
    "priority": 50
  },
  {
    "geonameId": 1729369,
    "name": "Badi Island",
    "latitude": 13.96667,
    "longitude": 123.6,
    "category": "Island",
    "subcategory": "Island",
    "featured": false,
    "priority": 50
  },
  {
    "geonameId": 1729411,
    "name": "Badian",
    "latitude": 9.86472,
    "longitude": 123.39639,
    "category": "City",
    "subcategory": "District Seat",
    "featured": false,
    "priority": 50
  },
  {
    "geonameId": 1729375,
    "name": "Badian Island",
    "latitude": 11.6078,
    "longitude": 124.7576,
    "category": "Island",
    "subcategory": "Island",
    "featured": false,
    "priority": 50
  },
  {
    "geonameId": 1729386,
    "name": "Badiangan",
    "latitude": 11.00573,
    "longitude": 122.50051,
    "category": "City",
    "subcategory": "District Seat",
    "featured": false,
    "priority": 50
  },
  {
    "geonameId": 1729357,
    "name": "Badoc",
    "latitude": 17.9265,
    "longitude": 120.4764,
    "category": "City",
    "subcategory": "District Seat",
    "featured": false,
    "priority": 50
  },
  {
    "geonameId": 1729355,
    "name": "Badoc Island",
    "latitude": 17.9203,
    "longitude": 120.4144,
    "category": "Island",
    "subcategory": "Island",
    "featured": false,
    "priority": 50
  },
  {
    "geonameId": 1729346,
    "name": "Badungbadung Island",
    "latitude": 11.12599,
    "longitude": 125.19091,
    "category": "Island",
    "subcategory": "Island",
    "featured": false,
    "priority": 50
  },
  {
    "geonameId": 1729327,
    "name": "Bagababoy Island",
    "latitude": 12.699,
    "longitude": 123.6082,
    "category": "Island",
    "subcategory": "Island",
    "featured": false,
    "priority": 50
  },
  {
    "geonameId": 1729322,
    "name": "Bagabag",
    "latitude": 16.6068,
    "longitude": 121.2542,
    "category": "City",
    "subcategory": "District Seat",
    "featured": false,
    "priority": 50
  },
  {
    "geonameId": 1729312,
    "name": "Bagabu Island",
    "latitude": 11.2024,
    "longitude": 123.1339,
    "category": "Island",
    "subcategory": "Island",
    "featured": false,
    "priority": 50
  },
  {
    "geonameId": 1729310,
    "name": "Bagac",
    "latitude": 14.5962,
    "longitude": 120.3928,
    "category": "City",
    "subcategory": "District Seat",
    "featured": false,
    "priority": 50
  },
  {
    "geonameId": 1729256,
    "name": "Bagacay Island",
    "latitude": 13.9893,
    "longitude": 123.64,
    "category": "Island",
    "subcategory": "Island",
    "featured": false,
    "priority": 50
  },
  {
    "geonameId": 1729239,
    "name": "Bagadomolog Islet",
    "latitude": 13.0499,
    "longitude": 123.2874,
    "category": "Island",
    "subcategory": "Island",
    "featured": false,
    "priority": 50
  },
  {
    "geonameId": 1729225,
    "name": "Bagahupi Peak",
    "latitude": 11.32333,
    "longitude": 124.89222,
    "category": "Mountain",
    "subcategory": "Mountain",
    "featured": false,
    "priority": 50
  },
  {
    "geonameId": 1729200,
    "name": "Bagalibas Island",
    "latitude": 11.38333,
    "longitude": 124.98333,
    "category": "Island",
    "subcategory": "Island",
    "featured": false,
    "priority": 50
  },
  {
    "geonameId": 1729195,
    "name": "Bagamanoc",
    "latitude": 13.9404,
    "longitude": 124.28962,
    "category": "City",
    "subcategory": "District Seat",
    "featured": false,
    "priority": 50
  },
  {
    "geonameId": 1729193,
    "name": "Bagambangan Island",
    "latitude": 11.2475,
    "longitude": 119.7138,
    "category": "Island",
    "subcategory": "Island",
    "featured": false,
    "priority": 50
  },
  {
    "geonameId": 1729052,
    "name": "Bagambanua Island",
    "latitude": 10.0557,
    "longitude": 123.8996,
    "category": "Island",
    "subcategory": "Island",
    "featured": false,
    "priority": 50
  },
  {
    "geonameId": 1729188,
    "name": "Baganbanua Island",
    "latitude": 11.05538,
    "longitude": 125.66229,
    "category": "Island",
    "subcategory": "Island",
    "featured": false,
    "priority": 50
  },
  {
    "geonameId": 1729181,
    "name": "Baganga",
    "latitude": 7.57389,
    "longitude": 126.56,
    "category": "City",
    "subcategory": "City",
    "featured": false,
    "priority": 50
  },
  {
    "geonameId": 1729155,
    "name": "Bagasin Island",
    "latitude": 8.44861,
    "longitude": 126.38778,
    "category": "Island",
    "subcategory": "Island",
    "featured": false,
    "priority": 50
  },
  {
    "geonameId": 1729154,
    "name": "Bagasumbut Islands",
    "latitude": 11.33796,
    "longitude": 124.97536,
    "category": "Island",
    "subcategory": "Island Group",
    "featured": false,
    "priority": 50
  },
  {
    "geonameId": 1729153,
    "name": "Bagatao Island",
    "latitude": 12.82944,
    "longitude": 123.80917,
    "category": "Island",
    "subcategory": "Island",
    "featured": false,
    "priority": 50
  },
  {
    "geonameId": 1729145,
    "name": "Bagayag Chico Island",
    "latitude": 11.13333,
    "longitude": 123.7,
    "category": "Island",
    "subcategory": "Island",
    "featured": false,
    "priority": 50
  },
  {
    "geonameId": 1729144,
    "name": "Bagayag Island",
    "latitude": 11.13528,
    "longitude": 123.71889,
    "category": "Island",
    "subcategory": "Island",
    "featured": false,
    "priority": 50
  },
  {
    "geonameId": 1729143,
    "name": "Bagayag Islands",
    "latitude": 11.11667,
    "longitude": 123.71667,
    "category": "Island",
    "subcategory": "Island Group",
    "featured": false,
    "priority": 50
  },
  {
    "geonameId": 1729324,
    "name": "Baggabag B",
    "latitude": 16.50588,
    "longitude": 121.19014,
    "category": "City",
    "subcategory": "City",
    "featured": false,
    "priority": 50
  },
  {
    "geonameId": 1729113,
    "name": "Bagieng Island",
    "latitude": 13.86333,
    "longitude": 123.85722,
    "category": "Island",
    "subcategory": "Island",
    "featured": false,
    "priority": 50
  },
  {
    "geonameId": 1729085,
    "name": "Bago City",
    "latitude": 10.53333,
    "longitude": 122.83333,
    "category": "City",
    "subcategory": "City",
    "featured": false,
    "priority": 50
  },
  {
    "geonameId": 1729048,
    "name": "Bagong Barrio",
    "latitude": 14.66638,
    "longitude": 120.99322,
    "category": "City",
    "subcategory": "City",
    "featured": false,
    "priority": 50
  },
  {
    "geonameId": 8355161,
    "name": "Bagong Bayan II-A",
    "latitude": 14.0682,
    "longitude": 121.3192,
    "category": "City",
    "subcategory": "City",
    "featured": false,
    "priority": 50
  },
  {
    "geonameId": 1729032,
    "name": "Bagong Island",
    "latitude": 9.56667,
    "longitude": 125.76667,
    "category": "Island",
    "subcategory": "Island",
    "featured": false,
    "priority": 50
  },
  {
    "geonameId": 1966336,
    "name": "Bagong Pagasa",
    "latitude": 14.6627,
    "longitude": 121.0328,
    "category": "City",
    "subcategory": "City",
    "featured": false,
    "priority": 50
  },
  {
    "geonameId": 1729022,
    "name": "Bagong Sikat",
    "latitude": 12.36745,
    "longitude": 121.06171,
    "category": "City",
    "subcategory": "City",
    "featured": false,
    "priority": 50
  },
  {
    "geonameId": 1957488,
    "name": "Bagong Silang",
    "latitude": 7.73139,
    "longitude": 122.90056,
    "category": "Mountain",
    "subcategory": "Mountain",
    "featured": false,
    "priority": 50
  },
  {
    "geonameId": 7090987,
    "name": "Bagong Silangan",
    "latitude": 14.706,
    "longitude": 121.108,
    "category": "City",
    "subcategory": "City",
    "featured": false,
    "priority": 50
  },
  {
    "geonameId": 1729007,
    "name": "Bagontapay",
    "latitude": 6.85889,
    "longitude": 124.90889,
    "category": "City",
    "subcategory": "City",
    "featured": false,
    "priority": 50
  },
  {
    "geonameId": 7430083,
    "name": "Bagosipol Island",
    "latitude": 11.2368,
    "longitude": 123.1962,
    "category": "Island",
    "subcategory": "Island",
    "featured": false,
    "priority": 50
  },
  {
    "geonameId": 1729004,
    "name": "Bagoso Island",
    "latitude": 7.71407,
    "longitude": 126.57162,
    "category": "Island",
    "subcategory": "Island",
    "featured": false,
    "priority": 50
  },
  {
    "geonameId": 7387637,
    "name": "Bagtasan Island",
    "latitude": 10.54678,
    "longitude": 119.733,
    "category": "Island",
    "subcategory": "Island",
    "featured": false,
    "priority": 50
  },
  {
    "geonameId": 1728956,
    "name": "Baguan Island",
    "latitude": 6.10373,
    "longitude": 118.4477,
    "category": "Island",
    "subcategory": "Island",
    "featured": false,
    "priority": 50
  },
  {
    "geonameId": 1728930,
    "name": "Baguio",
    "latitude": 16.41639,
    "longitude": 120.59306,
    "category": "City",
    "subcategory": "Regional Capital",
    "featured": false,
    "priority": 50
  },
  {
    "geonameId": 1728914,
    "name": "Bagulin",
    "latitude": 16.60833,
    "longitude": 120.43944,
    "category": "City",
    "subcategory": "District Seat",
    "featured": false,
    "priority": 50
  },
  {
    "geonameId": 1728876,
    "name": "Bagum Island",
    "latitude": 9.73333,
    "longitude": 125.48333,
    "category": "Island",
    "subcategory": "Island",
    "featured": false,
    "priority": 50
  },
  {
    "geonameId": 1728909,
    "name": "Bagumbanua Island",
    "latitude": 12.3898,
    "longitude": 123.2427,
    "category": "Island",
    "subcategory": "Island",
    "featured": false,
    "priority": 50
  },
  {
    "geonameId": 1728872,
    "name": "Bagunbanua Island",
    "latitude": 10.874,
    "longitude": 123.5625,
    "category": "Island",
    "subcategory": "Island",
    "featured": false,
    "priority": 50
  },
  {
    "geonameId": 1728825,
    "name": "Bah-Bah",
    "latitude": 8.60722,
    "longitude": 125.91444,
    "category": "City",
    "subcategory": "City",
    "featured": false,
    "priority": 50
  },
  {
    "geonameId": 1728834,
    "name": "Bahay Island",
    "latitude": 12.6375,
    "longitude": 124.4389,
    "category": "Island",
    "subcategory": "Island",
    "featured": false,
    "priority": 50
  },
  {
    "geonameId": 1728830,
    "name": "Bahay Pare",
    "latitude": 15.03238,
    "longitude": 120.88083,
    "category": "City",
    "subcategory": "City",
    "featured": false,
    "priority": 50
  },
  {
    "geonameId": 1728797,
    "name": "Bahul Island",
    "latitude": 10.51667,
    "longitude": 122.5,
    "category": "Island",
    "subcategory": "Island",
    "featured": false,
    "priority": 50
  },
  {
    "geonameId": 1708007,
    "name": "Bahungus Island",
    "latitude": 5.7997,
    "longitude": 119.7253,
    "category": "Island",
    "subcategory": "Island",
    "featured": false,
    "priority": 50
  },
  {
    "geonameId": 1728782,
    "name": "Baira Island",
    "latitude": 5.1752,
    "longitude": 120.0432,
    "category": "Island",
    "subcategory": "Island",
    "featured": false,
    "priority": 50
  },
  {
    "geonameId": 1728772,
    "name": "Bais",
    "latitude": 9.59111,
    "longitude": 123.12278,
    "category": "City",
    "subcategory": "City",
    "featured": false,
    "priority": 50
  },
  {
    "geonameId": 1728763,
    "name": "Baja Hanura Island",
    "latitude": 9.29167,
    "longitude": 118.001,
    "category": "Island",
    "subcategory": "Island",
    "featured": false,
    "priority": 50
  },
  {
    "geonameId": 1728743,
    "name": "Bakalod Island",
    "latitude": 11.93333,
    "longitude": 125.43333,
    "category": "Island",
    "subcategory": "Island",
    "featured": false,
    "priority": 50
  },
  {
    "geonameId": 1728737,
    "name": "Bakbak Island",
    "latitude": 11.9324,
    "longitude": 119.9776,
    "category": "Island",
    "subcategory": "Island",
    "featured": false,
    "priority": 50
  },
  {
    "geonameId": 1728736,
    "name": "Bakeke Islet",
    "latitude": 5.2775,
    "longitude": 120.37417,
    "category": "Island",
    "subcategory": "Island",
    "featured": false,
    "priority": 50
  },
  {
    "geonameId": 1728734,
    "name": "Bakhan Dakula Island",
    "latitude": 5.08963,
    "longitude": 119.78661,
    "category": "Island",
    "subcategory": "Island",
    "featured": false,
    "priority": 50
  },
  {
    "geonameId": 1728733,
    "name": "Bakhau Island",
    "latitude": 5.09194,
    "longitude": 119.81944,
    "category": "Island",
    "subcategory": "Island",
    "featured": false,
    "priority": 50
  },
  {
    "geonameId": 1728708,
    "name": "Bakolod Island",
    "latitude": 11.93333,
    "longitude": 125.43333,
    "category": "Island",
    "subcategory": "Island",
    "featured": false,
    "priority": 50
  },
  {
    "geonameId": 1728689,
    "name": "Bakun",
    "latitude": 16.7895,
    "longitude": 120.6631,
    "category": "City",
    "subcategory": "District Seat",
    "featured": false,
    "priority": 50
  },
  {
    "geonameId": 1727425,
    "name": "Bakungan Island",
    "latitude": 6.07493,
    "longitude": 121.16959,
    "category": "Island",
    "subcategory": "Island",
    "featured": false,
    "priority": 50
  },
  {
    "geonameId": 1728675,
    "name": "Balabac",
    "latitude": 7.98363,
    "longitude": 117.04868,
    "category": "City",
    "subcategory": "District Seat",
    "featured": false,
    "priority": 50
  },
  {
    "geonameId": 1728672,
    "name": "Balabac Island",
    "latitude": 7.9552,
    "longitude": 117.01984,
    "category": "Island",
    "subcategory": "Island",
    "featured": false,
    "priority": 50
  },
  {
    "geonameId": 1728671,
    "name": "Balabac Peak",
    "latitude": 7.924,
    "longitude": 117.0525,
    "category": "Mountain",
    "subcategory": "Mountain",
    "featured": false,
    "priority": 50
  },
  {
    "geonameId": 1728659,
    "name": "Balabag",
    "latitude": 11.97,
    "longitude": 121.91917,
    "category": "City",
    "subcategory": "City",
    "featured": false,
    "priority": 50
  },
  {
    "geonameId": 1728653,
    "name": "Balabagan",
    "latitude": 7.52639,
    "longitude": 124.11417,
    "category": "City",
    "subcategory": "District Seat",
    "featured": false,
    "priority": 50
  },
  {
    "geonameId": 7387895,
    "name": "Balabalo Island",
    "latitude": 11.0867,
    "longitude": 119.6256,
    "category": "Island",
    "subcategory": "Island",
    "featured": false,
    "priority": 50
  },
  {
    "geonameId": 7388619,
    "name": "Balacatop Island",
    "latitude": 11.7875,
    "longitude": 119.9806,
    "category": "Island",
    "subcategory": "Island",
    "featured": false,
    "priority": 50
  },
  {
    "geonameId": 1728633,
    "name": "Balacay Island",
    "latitude": 13.7186,
    "longitude": 124.3982,
    "category": "Island",
    "subcategory": "Island",
    "featured": false,
    "priority": 50
  },
  {
    "geonameId": 1728619,
    "name": "Balading Island",
    "latitude": 11.79611,
    "longitude": 124.71444,
    "category": "Island",
    "subcategory": "Island",
    "featured": false,
    "priority": 50
  },
  {
    "geonameId": 1728599,
    "name": "Balagbag Island",
    "latitude": 14.4923,
    "longitude": 122.9303,
    "category": "Island",
    "subcategory": "Island Group",
    "featured": false,
    "priority": 50
  },
  {
    "geonameId": 1728584,
    "name": "Balagtas",
    "latitude": 14.81667,
    "longitude": 120.86667,
    "category": "City",
    "subcategory": "District Seat",
    "featured": false,
    "priority": 50
  },
  {
    "geonameId": 1703208,
    "name": "Balahibongmanoc Island",
    "latitude": 13.6272,
    "longitude": 120.9652,
    "category": "Island",
    "subcategory": "Island",
    "featured": false,
    "priority": 50
  },
  {
    "geonameId": 1728546,
    "name": "Balamban",
    "latitude": 10.5039,
    "longitude": 123.7156,
    "category": "City",
    "subcategory": "District Seat",
    "featured": false,
    "priority": 50
  },
  {
    "geonameId": 1728523,
    "name": "Balanga",
    "latitude": 14.67611,
    "longitude": 120.53611,
    "category": "City",
    "subcategory": "County Seat",
    "featured": false,
    "priority": 50
  },
  {
    "geonameId": 1728500,
    "name": "Balangiga",
    "latitude": 11.10972,
    "longitude": 125.3875,
    "category": "City",
    "subcategory": "City",
    "featured": false,
    "priority": 50
  },
  {
    "geonameId": 1728479,
    "name": "Balanguingue Island",
    "latitude": 11.83497,
    "longitude": 124.10171,
    "category": "Island",
    "subcategory": "Island",
    "featured": false,
    "priority": 50
  },
  {
    "geonameId": 1728478,
    "name": "Balanguingui Island",
    "latitude": 6.02172,
    "longitude": 121.69044,
    "category": "Island",
    "subcategory": "Island",
    "featured": false,
    "priority": 50
  },
  {
    "geonameId": 7388297,
    "name": "Balaniko Island",
    "latitude": 11.4958,
    "longitude": 119.7755,
    "category": "Island",
    "subcategory": "Island",
    "featured": false,
    "priority": 50
  },
  {
    "geonameId": 1728439,
    "name": "Balaoan",
    "latitude": 16.8219,
    "longitude": 120.4045,
    "category": "City",
    "subcategory": "District Seat",
    "featured": false,
    "priority": 50
  },
  {
    "geonameId": 11610828,
    "name": "Balara Filters Park",
    "latitude": 14.65751,
    "longitude": 121.07843,
    "category": "Park",
    "subcategory": "Park",
    "featured": false,
    "priority": 50
  },
  {
    "geonameId": 1728411,
    "name": "Balasan",
    "latitude": 11.4728,
    "longitude": 123.0878,
    "category": "City",
    "subcategory": "District Seat",
    "featured": false,
    "priority": 50
  },
  {
    "geonameId": 1728389,
    "name": "Balatan",
    "latitude": 13.32111,
    "longitude": 123.23333,
    "category": "City",
    "subcategory": "District Seat",
    "featured": false,
    "priority": 50
  },
  {
    "geonameId": 1728386,
    "name": "Balatanai Island",
    "latitude": 6.6796,
    "longitude": 121.9149,
    "category": "Island",
    "subcategory": "Island",
    "featured": false,
    "priority": 50
  },
  {
    "geonameId": 1728346,
    "name": "Balawan Island",
    "latitude": 9.75,
    "longitude": 125.56667,
    "category": "Island",
    "subcategory": "Island",
    "featured": false,
    "priority": 50
  },
  {
    "geonameId": 1728336,
    "name": "Balayan",
    "latitude": 13.93714,
    "longitude": 120.73224,
    "category": "City",
    "subcategory": "District Seat",
    "featured": false,
    "priority": 50
  },
  {
    "geonameId": 1728309,
    "name": "Balbagon Island",
    "latitude": 11.5833,
    "longitude": 123.2799,
    "category": "Island",
    "subcategory": "Island",
    "featured": false,
    "priority": 50
  },
  {
    "geonameId": 1728304,
    "name": "Balbalan",
    "latitude": 17.44139,
    "longitude": 121.20194,
    "category": "City",
    "subcategory": "District Seat",
    "featured": false,
    "priority": 50
  },
  {
    "geonameId": 1727811,
    "name": "Balbalwan Island",
    "latitude": 11.58127,
    "longitude": 124.9129,
    "category": "Island",
    "subcategory": "Island",
    "featured": false,
    "priority": 50
  },
  {
    "geonameId": 1728289,
    "name": "Bald Dome Peak",
    "latitude": 6.30989,
    "longitude": 125.17137,
    "category": "Mountain",
    "subcategory": "Mountain",
    "featured": false,
    "priority": 50
  },
  {
    "geonameId": 1728281,
    "name": "Bald Peak",
    "latitude": 16.98333,
    "longitude": 120.48333,
    "category": "Mountain",
    "subcategory": "Mountain",
    "featured": false,
    "priority": 50
  },
  {
    "geonameId": 1728275,
    "name": "Balele",
    "latitude": 14.06532,
    "longitude": 121.09363,
    "category": "City",
    "subcategory": "City",
    "featured": false,
    "priority": 50
  },
  {
    "geonameId": 1728272,
    "name": "Baleno",
    "latitude": 12.4739,
    "longitude": 123.4982,
    "category": "City",
    "subcategory": "District Seat",
    "featured": false,
    "priority": 50
  },
  {
    "geonameId": 1728264,
    "name": "Baler",
    "latitude": 15.7589,
    "longitude": 121.5607,
    "category": "City",
    "subcategory": "District Seat",
    "featured": false,
    "priority": 50
  },
  {
    "geonameId": 1728257,
    "name": "Balesin Island",
    "latitude": 14.42417,
    "longitude": 122.03722,
    "category": "Island",
    "subcategory": "Island",
    "featured": false,
    "priority": 50
  },
  {
    "geonameId": 1728240,
    "name": "Balete",
    "latitude": 14.01983,
    "longitude": 121.09506,
    "category": "City",
    "subcategory": "District Seat",
    "featured": false,
    "priority": 50
  },
  {
    "geonameId": 1728196,
    "name": "Balibago",
    "latitude": 15.1624,
    "longitude": 120.5954,
    "category": "City",
    "subcategory": "City",
    "featured": false,
    "priority": 50
  },
  {
    "geonameId": 1728180,
    "name": "Balicasag Island",
    "latitude": 9.51696,
    "longitude": 123.68436,
    "category": "Island",
    "subcategory": "Island",
    "featured": false,
    "priority": 50
  },
  {
    "geonameId": 1728174,
    "name": "Balicuatro Island",
    "latitude": 12.68222,
    "longitude": 124.39333,
    "category": "Island",
    "subcategory": "Island",
    "featured": false,
    "priority": 50
  },
  {
    "geonameId": 1728173,
    "name": "Balicuatro Islands",
    "latitude": 12.6187,
    "longitude": 124.4341,
    "category": "Island",
    "subcategory": "Island Group",
    "featured": false,
    "priority": 50
  },
  {
    "geonameId": 1728165,
    "name": "Baligang",
    "latitude": 13.1537,
    "longitude": 123.6432,
    "category": "City",
    "subcategory": "City",
    "featured": false,
    "priority": 50
  },
  {
    "geonameId": 1728154,
    "name": "Baliguian Island",
    "latitude": 11.20278,
    "longitude": 123.33944,
    "category": "Island",
    "subcategory": "Island",
    "featured": false,
    "priority": 50
  },
  {
    "geonameId": 1728134,
    "name": "Balilihan",
    "latitude": 9.7561,
    "longitude": 123.973,
    "category": "City",
    "subcategory": "District Seat",
    "featured": false,
    "priority": 50
  },
  {
    "geonameId": 1728125,
    "name": "Balimbing",
    "latitude": 5.0825,
    "longitude": 119.96583,
    "category": "City",
    "subcategory": "City",
    "featured": false,
    "priority": 50
  },
  {
    "geonameId": 1728115,
    "name": "Balinatio Island",
    "latitude": 11.1,
    "longitude": 125.57694,
    "category": "Island",
    "subcategory": "Island",
    "featured": false,
    "priority": 50
  },
  {
    "geonameId": 1728113,
    "name": "Balinbagan Island",
    "latitude": 13.87028,
    "longitude": 123.84861,
    "category": "Island",
    "subcategory": "Island",
    "featured": false,
    "priority": 50
  },
  {
    "geonameId": 1728103,
    "name": "Balindong",
    "latitude": 7.91667,
    "longitude": 124.20028,
    "category": "City",
    "subcategory": "District Seat",
    "featured": false,
    "priority": 50
  },
  {
    "geonameId": 1728098,
    "name": "Balingasag",
    "latitude": 8.74417,
    "longitude": 124.77694,
    "category": "City",
    "subcategory": "District Seat",
    "featured": false,
    "priority": 50
  },
  {
    "geonameId": 1728093,
    "name": "Balingasag Island",
    "latitude": 10.58036,
    "longitude": 122.5098,
    "category": "Island",
    "subcategory": "Island",
    "featured": false,
    "priority": 50
  },
  {
    "geonameId": 1728085,
    "name": "Balingcanaway",
    "latitude": 15.48215,
    "longitude": 120.68543,
    "category": "City",
    "subcategory": "City",
    "featured": false,
    "priority": 50
  },
  {
    "geonameId": 1728082,
    "name": "Balingoan",
    "latitude": 9.00389,
    "longitude": 124.85194,
    "category": "City",
    "subcategory": "District Seat",
    "featured": false,
    "priority": 50
  },
  {
    "geonameId": 8301202,
    "name": "Balinsog Hill",
    "latitude": 13.394,
    "longitude": 122.5943,
    "category": "Mountain",
    "subcategory": "Mountain",
    "featured": false,
    "priority": 50
  },
  {
    "geonameId": 1728066,
    "name": "Balintang Island",
    "latitude": 19.95863,
    "longitude": 122.145,
    "category": "Island",
    "subcategory": "Island",
    "featured": false,
    "priority": 50
  },
  {
    "geonameId": 1728065,
    "name": "Balintang Islands",
    "latitude": 19.95833,
    "longitude": 122.15167,
    "category": "Island",
    "subcategory": "Island Group",
    "featured": false,
    "priority": 50
  },
  {
    "geonameId": 1886797,
    "name": "Balisasaq Island",
    "latitude": 9.5,
    "longitude": 123.58333,
    "category": "Island",
    "subcategory": "Island",
    "featured": false,
    "priority": 50
  },
  {
    "geonameId": 1728037,
    "name": "Baliskan Island",
    "latitude": 14.24307,
    "longitude": 121.90061,
    "category": "Island",
    "subcategory": "Island",
    "featured": false,
    "priority": 50
  },
  {
    "geonameId": 6569760,
    "name": "Balitan Hump",
    "latitude": 6.47444,
    "longitude": 125.35611,
    "category": "Mountain",
    "subcategory": "Mountain",
    "featured": false,
    "priority": 50
  },
  {
    "geonameId": 1728002,
    "name": "Balite Segundo",
    "latitude": 14.1832,
    "longitude": 120.97433,
    "category": "City",
    "subcategory": "City",
    "featured": false,
    "priority": 50
  },
  {
    "geonameId": 1727999,
    "name": "Baliton",
    "latitude": 5.74361,
    "longitude": 125.23639,
    "category": "City",
    "subcategory": "City",
    "featured": false,
    "priority": 50
  },
  {
    "geonameId": 1727995,
    "name": "Baliuag",
    "latitude": 14.95472,
    "longitude": 120.89694,
    "category": "City",
    "subcategory": "District Seat",
    "featured": false,
    "priority": 50
  },
  {
    "geonameId": 1727962,
    "name": "Ballesteros",
    "latitude": 18.4126,
    "longitude": 121.5152,
    "category": "City",
    "subcategory": "District Seat",
    "featured": false,
    "priority": 50
  },
  {
    "geonameId": 1727940,
    "name": "Baloc",
    "latitude": 15.6435,
    "longitude": 120.8852,
    "category": "City",
    "subcategory": "City",
    "featured": false,
    "priority": 50
  },
  {
    "geonameId": 1727909,
    "name": "Balogo",
    "latitude": 10.8868,
    "longitude": 124.7105,
    "category": "City",
    "subcategory": "City",
    "featured": false,
    "priority": 50
  },
  {
    "geonameId": 1727884,
    "name": "Balokon Mountain",
    "latitude": 6.05167,
    "longitude": 124.70472,
    "category": "Mountain",
    "subcategory": "Mountain",
    "featured": false,
    "priority": 50
  },
  {
    "geonameId": 1727874,
    "name": "Balombon Island",
    "latitude": 13,
    "longitude": 124.16667,
    "category": "Island",
    "subcategory": "Island",
    "featured": false,
    "priority": 50
  },
  {
    "geonameId": 1727842,
    "name": "Balsic",
    "latitude": 14.85906,
    "longitude": 120.4824,
    "category": "City",
    "subcategory": "City",
    "featured": false,
    "priority": 50
  },
  {
    "geonameId": 1727837,
    "name": "Baltasar Island",
    "latitude": 13.22549,
    "longitude": 121.81217,
    "category": "Island",
    "subcategory": "Island",
    "featured": false,
    "priority": 50
  },
  {
    "geonameId": 1727836,
    "name": "Baltimore Peak",
    "latitude": 16.08333,
    "longitude": 122.05,
    "category": "Mountain",
    "subcategory": "Mountain",
    "featured": false,
    "priority": 50
  },
  {
    "geonameId": 1727750,
    "name": "Balu Island",
    "latitude": 5.21667,
    "longitude": 120.31667,
    "category": "Island",
    "subcategory": "Island",
    "featured": false,
    "priority": 50
  },
  {
    "geonameId": 1727822,
    "name": "Baluarte Island",
    "latitude": 11.55972,
    "longitude": 122.65556,
    "category": "Island",
    "subcategory": "Island",
    "featured": false,
    "priority": 50
  },
  {
    "geonameId": 1727795,
    "name": "Balucuc",
    "latitude": 14.95282,
    "longitude": 120.81452,
    "category": "City",
    "subcategory": "City",
    "featured": false,
    "priority": 50
  },
  {
    "geonameId": 1727783,
    "name": "Balud",
    "latitude": 12.03686,
    "longitude": 123.19351,
    "category": "City",
    "subcategory": "District Seat",
    "featured": false,
    "priority": 50
  },
  {
    "geonameId": 1727780,
    "name": "Balud Island",
    "latitude": 10.51627,
    "longitude": 122.5016,
    "category": "Island",
    "subcategory": "Island",
    "featured": false,
    "priority": 50
  },
  {
    "geonameId": 1727755,
    "name": "Balugo Mountain",
    "latitude": 6.26104,
    "longitude": 124.29549,
    "category": "Mountain",
    "subcategory": "Mountain",
    "featured": false,
    "priority": 50
  },
  {
    "geonameId": 1727747,
    "name": "Balukbaluk Island",
    "latitude": 6.67237,
    "longitude": 121.70972,
    "category": "Island",
    "subcategory": "Island",
    "featured": false,
    "priority": 50
  },
  {
    "geonameId": 1957436,
    "name": "Balukbaluk Lake",
    "latitude": 6.6726,
    "longitude": 121.7087,
    "category": "Lake",
    "subcategory": "Lake",
    "featured": false,
    "priority": 50
  },
  {
    "geonameId": 1727741,
    "name": "Balulang",
    "latitude": 8.44528,
    "longitude": 124.63139,
    "category": "City",
    "subcategory": "City",
    "featured": false,
    "priority": 50
  },
  {
    "geonameId": 1727734,
    "name": "Balungao",
    "latitude": 15.89806,
    "longitude": 120.68833,
    "category": "City",
    "subcategory": "District Seat",
    "featured": false,
    "priority": 50
  },
  {
    "geonameId": 1727704,
    "name": "Balut Island",
    "latitude": 14.63333,
    "longitude": 120.96667,
    "category": "Island",
    "subcategory": "Island",
    "featured": false,
    "priority": 50
  },
  {
    "geonameId": 1713993,
    "name": "Balutmaito Island",
    "latitude": 7.83077,
    "longitude": 124.17187,
    "category": "Island",
    "subcategory": "Island",
    "featured": false,
    "priority": 50
  },
  {
    "geonameId": 1679613,
    "name": "Balutmasla Island",
    "latitude": 7.83365,
    "longitude": 124.15814,
    "category": "Island",
    "subcategory": "Island",
    "featured": false,
    "priority": 50
  },
  {
    "geonameId": 1721246,
    "name": "Balyala Island",
    "latitude": 11.4762,
    "longitude": 119.6578,
    "category": "Island",
    "subcategory": "Island",
    "featured": false,
    "priority": 50
  },
  {
    "geonameId": 1727679,
    "name": "Bamban",
    "latitude": 15.6747,
    "longitude": 120.3315,
    "category": "City",
    "subcategory": "District Seat",
    "featured": false,
    "priority": 50
  },
  {
    "geonameId": 1727663,
    "name": "Bambang",
    "latitude": 16.3865,
    "longitude": 121.1066,
    "category": "City",
    "subcategory": "District Seat",
    "featured": false,
    "priority": 50
  },
  {
    "geonameId": 1727660,
    "name": "Bambannan Island",
    "latitude": 5.62328,
    "longitude": 120.2767,
    "category": "Island",
    "subcategory": "Island",
    "featured": false,
    "priority": 50
  },
  {
    "geonameId": 1727621,
    "name": "Banacon Island",
    "latitude": 10.20316,
    "longitude": 124.17952,
    "category": "Island",
    "subcategory": "Island",
    "featured": false,
    "priority": 50
  },
  {
    "geonameId": 1727556,
    "name": "Banaran Island",
    "latitude": 5.0243,
    "longitude": 120.1226,
    "category": "Island",
    "subcategory": "Island",
    "featured": false,
    "priority": 50
  },
  {
    "geonameId": 1727544,
    "name": "Banate",
    "latitude": 11.00222,
    "longitude": 122.8175,
    "category": "City",
    "subcategory": "District Seat",
    "featured": false,
    "priority": 50
  },
  {
    "geonameId": 1727529,
    "name": "Banaue",
    "latitude": 16.91356,
    "longitude": 121.06184,
    "category": "City",
    "subcategory": "District Seat",
    "featured": false,
    "priority": 50
  },
  {
    "geonameId": 1727521,
    "name": "Banaybanay",
    "latitude": 13.9331,
    "longitude": 121.1151,
    "category": "City",
    "subcategory": "City",
    "featured": false,
    "priority": 50
  },
  {
    "geonameId": 1727513,
    "name": "Banayoyo",
    "latitude": 17.23333,
    "longitude": 120.48333,
    "category": "City",
    "subcategory": "District Seat",
    "featured": false,
    "priority": 50
  },
  {
    "geonameId": 1727659,
    "name": "Banbanon Island",
    "latitude": 10.1819,
    "longitude": 124.2995,
    "category": "Island",
    "subcategory": "Island",
    "featured": false,
    "priority": 50
  },
  {
    "geonameId": 1727461,
    "name": "Bancalan Island",
    "latitude": 8.22935,
    "longitude": 117.10089,
    "category": "Island",
    "subcategory": "Island",
    "featured": false,
    "priority": 50
  },
  {
    "geonameId": 1727460,
    "name": "Bancalayot Island",
    "latitude": 11.73333,
    "longitude": 124.71667,
    "category": "Island",
    "subcategory": "Island",
    "featured": false,
    "priority": 50
  },
  {
    "geonameId": 1717288,
    "name": "Bancauan Island",
    "latitude": 12.56639,
    "longitude": 124.32111,
    "category": "Island",
    "subcategory": "Island",
    "featured": false,
    "priority": 50
  },
  {
    "geonameId": 1727442,
    "name": "Bancay Islet",
    "latitude": 9.66667,
    "longitude": 125.6,
    "category": "Island",
    "subcategory": "Island",
    "featured": false,
    "priority": 50
  },
  {
    "geonameId": 1727431,
    "name": "Bancoran Island",
    "latitude": 7.96417,
    "longitude": 118.67139,
    "category": "Island",
    "subcategory": "Island",
    "featured": false,
    "priority": 50
  },
  {
    "geonameId": 7388060,
    "name": "Bancuan Mountain",
    "latitude": 11.1712,
    "longitude": 119.6132,
    "category": "Mountain",
    "subcategory": "Mountain",
    "featured": false,
    "priority": 50
  },
  {
    "geonameId": 1727423,
    "name": "Bancuyo Island",
    "latitude": 9.7369,
    "longitude": 126.0449,
    "category": "Island",
    "subcategory": "Island",
    "featured": false,
    "priority": 50
  },
  {
    "geonameId": 1727412,
    "name": "Bando Peak",
    "latitude": 10.9695,
    "longitude": 119.33,
    "category": "Mountain",
    "subcategory": "Peak",
    "featured": false,
    "priority": 50
  },
  {
    "geonameId": 1727401,
    "name": "Banga",
    "latitude": 6.42381,
    "longitude": 124.77603,
    "category": "City",
    "subcategory": "City",
    "featured": false,
    "priority": 50
  },
  {
    "geonameId": 1727400,
    "name": "Bañga",
    "latitude": 6.42389,
    "longitude": 124.77833,
    "category": "City",
    "subcategory": "City",
    "featured": false,
    "priority": 50
  },
  {
    "geonameId": 1727380,
    "name": "Bangaan Island",
    "latitude": 7.49472,
    "longitude": 122.41854,
    "category": "Island",
    "subcategory": "Island",
    "featured": false,
    "priority": 50
  },
  {
    "geonameId": 1727351,
    "name": "Bangalao Island",
    "latitude": 6.01984,
    "longitude": 121.5415,
    "category": "Island",
    "subcategory": "Island",
    "featured": false,
    "priority": 50
  },
  {
    "geonameId": 1727326,
    "name": "Bangar",
    "latitude": 16.8936,
    "longitude": 120.4243,
    "category": "City",
    "subcategory": "District Seat",
    "featured": false,
    "priority": 50
  },
  {
    "geonameId": 1727319,
    "name": "Bangawan Island",
    "latitude": 9.14218,
    "longitude": 118.1871,
    "category": "Island",
    "subcategory": "Island",
    "featured": false,
    "priority": 50
  },
  {
    "geonameId": 7382143,
    "name": "Bangiaon Islet",
    "latitude": 10.36469,
    "longitude": 118.9655,
    "category": "Island",
    "subcategory": "Island",
    "featured": false,
    "priority": 50
  },
  {
    "geonameId": 1695269,
    "name": "Bangipitan Island",
    "latitude": 11.4919,
    "longitude": 119.8383,
    "category": "Island",
    "subcategory": "Island",
    "featured": false,
    "priority": 50
  },
  {
    "geonameId": 1727087,
    "name": "Bangkirohan",
    "latitude": 13.0553,
    "longitude": 123.7468,
    "category": "City",
    "subcategory": "City",
    "featured": false,
    "priority": 50
  },
  {
    "geonameId": 1727231,
    "name": "Bangon Island",
    "latitude": 11.9504,
    "longitude": 124.7067,
    "category": "Island",
    "subcategory": "Island",
    "featured": false,
    "priority": 50
  },
  {
    "geonameId": 1727230,
    "name": "Bangon Pass",
    "latitude": 12.91667,
    "longitude": 120.98333,
    "category": "Mountain",
    "subcategory": "Mountain Pass",
    "featured": false,
    "priority": 50
  },
  {
    "geonameId": 1727214,
    "name": "Bangued",
    "latitude": 17.60833,
    "longitude": 120.63806,
    "category": "City",
    "subcategory": "County Seat",
    "featured": false,
    "priority": 50
  },
  {
    "geonameId": 1727217,
    "name": "Bangug Island",
    "latitude": 12.56713,
    "longitude": 122.23891,
    "category": "Island",
    "subcategory": "Island",
    "featured": false,
    "priority": 50
  },
  {
    "geonameId": 1727211,
    "name": "Bangui",
    "latitude": 18.5376,
    "longitude": 120.7671,
    "category": "City",
    "subcategory": "District Seat",
    "featured": false,
    "priority": 50
  },
  {
    "geonameId": 1727193,
    "name": "Bani",
    "latitude": 16.185,
    "longitude": 119.8613,
    "category": "City",
    "subcategory": "District Seat",
    "featured": false,
    "priority": 50
  },
  {
    "geonameId": 1727181,
    "name": "Bani Island",
    "latitude": 13.9728,
    "longitude": 123.5528,
    "category": "Island",
    "subcategory": "Island",
    "featured": false,
    "priority": 50
  },
  {
    "geonameId": 1727161,
    "name": "Banisilan",
    "latitude": 7.49083,
    "longitude": 124.72417,
    "category": "City",
    "subcategory": "City",
    "featured": false,
    "priority": 50
  },
  {
    "geonameId": 7520247,
    "name": "Bankawan Island",
    "latitude": 12.5546,
    "longitude": 124.3563,
    "category": "Island",
    "subcategory": "Island",
    "featured": false,
    "priority": 50
  },
  {
    "geonameId": 7388621,
    "name": "Bankelon Island",
    "latitude": 11.7676,
    "longitude": 119.9645,
    "category": "Island",
    "subcategory": "Island",
    "featured": false,
    "priority": 50
  },
  {
    "geonameId": 7388623,
    "name": "Bankil Island",
    "latitude": 11.7164,
    "longitude": 119.9741,
    "category": "Island",
    "subcategory": "Island",
    "featured": false,
    "priority": 50
  },
  {
    "geonameId": 1726906,
    "name": "Banluto Island",
    "latitude": 9.68667,
    "longitude": 125.99574,
    "category": "Island",
    "subcategory": "Island",
    "featured": false,
    "priority": 50
  },
  {
    "geonameId": 1727110,
    "name": "Banogay Island",
    "latitude": 11.502,
    "longitude": 123.011,
    "category": "Island",
    "subcategory": "Island",
    "featured": false,
    "priority": 50
  },
  {
    "geonameId": 1727093,
    "name": "Banot Island",
    "latitude": 13.5432,
    "longitude": 121.9565,
    "category": "Island",
    "subcategory": "Island",
    "featured": false,
    "priority": 50
  },
  {
    "geonameId": 1726520,
    "name": "Bansaan Island",
    "latitude": 10.21986,
    "longitude": 124.32444,
    "category": "Island",
    "subcategory": "Island",
    "featured": false,
    "priority": 50
  },
  {
    "geonameId": 1727080,
    "name": "Bansalan",
    "latitude": 6.78611,
    "longitude": 125.21333,
    "category": "City",
    "subcategory": "District Seat",
    "featured": false,
    "priority": 50
  },
  {
    "geonameId": 1727073,
    "name": "Bansud",
    "latitude": 12.865,
    "longitude": 121.45639,
    "category": "City",
    "subcategory": "District Seat",
    "featured": false,
    "priority": 50
  },
  {
    "geonameId": 7388622,
    "name": "Banta Island",
    "latitude": 11.7366,
    "longitude": 119.9524,
    "category": "Island",
    "subcategory": "Island",
    "featured": false,
    "priority": 50
  },
  {
    "geonameId": 1727071,
    "name": "Bantac Island",
    "latitude": 12.22336,
    "longitude": 120.39041,
    "category": "Island",
    "subcategory": "Island",
    "featured": false,
    "priority": 50
  },
  {
    "geonameId": 1727052,
    "name": "Bantay",
    "latitude": 17.58472,
    "longitude": 120.38917,
    "category": "City",
    "subcategory": "District Seat",
    "featured": false,
    "priority": 50
  },
  {
    "geonameId": 1712084,
    "name": "Bantay Tirad",
    "latitude": 17.50078,
    "longitude": 120.46696,
    "category": "Mountain",
    "subcategory": "Mountain",
    "featured": false,
    "priority": 50
  },
  {
    "geonameId": 1727043,
    "name": "Bantayan",
    "latitude": 11.1683,
    "longitude": 123.7223,
    "category": "City",
    "subcategory": "District Seat",
    "featured": false,
    "priority": 50
  },
  {
    "geonameId": 1727033,
    "name": "Bantayan Island",
    "latitude": 11.2054,
    "longitude": 123.7398,
    "category": "Island",
    "subcategory": "Island",
    "featured": false,
    "priority": 50
  },
  {
    "geonameId": 1727017,
    "name": "Bantigua Island",
    "latitude": 14.4494,
    "longitude": 122.9835,
    "category": "Island",
    "subcategory": "Island",
    "featured": false,
    "priority": 50
  },
  {
    "geonameId": 1727002,
    "name": "Bantigui Island",
    "latitude": 11.5721,
    "longitude": 123.3596,
    "category": "Island",
    "subcategory": "Island",
    "featured": false,
    "priority": 50
  },
  {
    "geonameId": 1726994,
    "name": "Bantilan",
    "latitude": 14.75814,
    "longitude": 121.66902,
    "category": "City",
    "subcategory": "City",
    "featured": false,
    "priority": 50
  },
  {
    "geonameId": 1726977,
    "name": "Bantogon",
    "latitude": 6.53333,
    "longitude": 124.03333,
    "category": "City",
    "subcategory": "City",
    "featured": false,
    "priority": 50
  },
  {
    "geonameId": 1726964,
    "name": "Bantolinos Islets",
    "latitude": 6.6688,
    "longitude": 121.5299,
    "category": "Island",
    "subcategory": "Island Group",
    "featured": false,
    "priority": 50
  },
  {
    "geonameId": 1726958,
    "name": "Banton Island",
    "latitude": 12.9321,
    "longitude": 122.07282,
    "category": "Island",
    "subcategory": "Island",
    "featured": false,
    "priority": 50
  },
  {
    "geonameId": 1726959,
    "name": "Bantoncillo Island",
    "latitude": 12.88431,
    "longitude": 122.00772,
    "category": "Island",
    "subcategory": "Island",
    "featured": false,
    "priority": 50
  },
  {
    "geonameId": 1726922,
    "name": "Banug Islet",
    "latitude": 9.76667,
    "longitude": 125.68333,
    "category": "Island",
    "subcategory": "Island",
    "featured": false,
    "priority": 50
  },
  {
    "geonameId": 1726923,
    "name": "Banugbanug Island",
    "latitude": 9.75,
    "longitude": 125.68333,
    "category": "Island",
    "subcategory": "Island",
    "featured": false,
    "priority": 50
  },
  {
    "geonameId": 7386826,
    "name": "Banwayan Island",
    "latitude": 10.8751,
    "longitude": 119.3072,
    "category": "Island",
    "subcategory": "Island",
    "featured": false,
    "priority": 50
  },
  {
    "geonameId": 1726885,
    "name": "Baohan Island",
    "latitude": 12.0213,
    "longitude": 125.5578,
    "category": "Island",
    "subcategory": "Island",
    "featured": false,
    "priority": 50
  },
  {
    "geonameId": 1726875,
    "name": "Baong Island",
    "latitude": 7.125,
    "longitude": 122.27389,
    "category": "Island",
    "subcategory": "Island",
    "featured": false,
    "priority": 50
  },
  {
    "geonameId": 1726877,
    "name": "Baongan Island",
    "latitude": 7.35,
    "longitude": 122.91667,
    "category": "Island",
    "subcategory": "Island",
    "featured": false,
    "priority": 50
  },
  {
    "geonameId": 1726865,
    "name": "Baquero Norte",
    "latitude": 15.7162,
    "longitude": 120.5543,
    "category": "City",
    "subcategory": "City",
    "featured": false,
    "priority": 50
  },
  {
    "geonameId": 1726854,
    "name": "Baquit Island",
    "latitude": 12.0067,
    "longitude": 120.1681,
    "category": "Island",
    "subcategory": "Island",
    "featured": false,
    "priority": 50
  },
  {
    "geonameId": 1726650,
    "name": "Bar Islet",
    "latitude": 10.99645,
    "longitude": 125.70405,
    "category": "Island",
    "subcategory": "Island",
    "featured": false,
    "priority": 50
  },
  {
    "geonameId": 1726844,
    "name": "Baracatan",
    "latitude": 6.9675,
    "longitude": 125.41583,
    "category": "City",
    "subcategory": "City",
    "featured": false,
    "priority": 50
  },
  {
    "geonameId": 7387713,
    "name": "Baradasen Island",
    "latitude": 10.8821,
    "longitude": 119.6184,
    "category": "Island",
    "subcategory": "Island",
    "featured": false,
    "priority": 50
  },
  {
    "geonameId": 1726832,
    "name": "Barahan",
    "latitude": 13.0121,
    "longitude": 120.762,
    "category": "City",
    "subcategory": "City",
    "featured": false,
    "priority": 50
  },
  {
    "geonameId": 9485503,
    "name": "Barangay of Poblacion",
    "latitude": 13.31768,
    "longitude": 122.07935,
    "category": "City",
    "subcategory": "Local Seat",
    "featured": false,
    "priority": 50
  },
  {
    "geonameId": 7430735,
    "name": "Barangkalan Mountain",
    "latitude": 11.4817,
    "longitude": 123.2236,
    "category": "Mountain",
    "subcategory": "Mountain",
    "featured": false,
    "priority": 50
  },
  {
    "geonameId": 1726797,
    "name": "Barangonan Island",
    "latitude": 11.3429,
    "longitude": 119.7045,
    "category": "Island",
    "subcategory": "Island",
    "featured": false,
    "priority": 50
  },
  {
    "geonameId": 1726783,
    "name": "Bararin Island",
    "latitude": 10.875,
    "longitude": 120.9371,
    "category": "Island",
    "subcategory": "Island",
    "featured": false,
    "priority": 50
  },
  {
    "geonameId": 1726765,
    "name": "Baras",
    "latitude": 14.51691,
    "longitude": 121.2658,
    "category": "City",
    "subcategory": "District Seat",
    "featured": false,
    "priority": 50
  },
  {
    "geonameId": 1726716,
    "name": "Barbaza",
    "latitude": 11.19572,
    "longitude": 122.03861,
    "category": "City",
    "subcategory": "District Seat",
    "featured": false,
    "priority": 50
  },
  {
    "geonameId": 1726705,
    "name": "Barcelona",
    "latitude": 12.8683,
    "longitude": 124.1419,
    "category": "City",
    "subcategory": "District Seat",
    "featured": false,
    "priority": 50
  },
  {
    "geonameId": 1726670,
    "name": "Barili",
    "latitude": 10.115,
    "longitude": 123.5103,
    "category": "City",
    "subcategory": "District Seat",
    "featured": false,
    "priority": 50
  },
  {
    "geonameId": 1726655,
    "name": "Barira",
    "latitude": 7.48722,
    "longitude": 124.29917,
    "category": "City",
    "subcategory": "District Seat",
    "featured": false,
    "priority": 50
  },
  {
    "geonameId": 1726639,
    "name": "Barit Island",
    "latitude": 18.86417,
    "longitude": 121.2525,
    "category": "Island",
    "subcategory": "Island",
    "featured": false,
    "priority": 50
  },
  {
    "geonameId": 1726630,
    "name": "Barlig",
    "latitude": 17.03725,
    "longitude": 121.10384,
    "category": "City",
    "subcategory": "District Seat",
    "featured": false,
    "priority": 50
  },
  {
    "geonameId": 1726623,
    "name": "Barobo",
    "latitude": 8.53528,
    "longitude": 126.12139,
    "category": "City",
    "subcategory": "District Seat",
    "featured": false,
    "priority": 50
  },
  {
    "geonameId": 1726594,
    "name": "Barotac Nuevo",
    "latitude": 10.89417,
    "longitude": 122.70444,
    "category": "City",
    "subcategory": "District Seat",
    "featured": false,
    "priority": 50
  },
  {
    "geonameId": 1726591,
    "name": "Barotac Viejo",
    "latitude": 11.04194,
    "longitude": 122.85222,
    "category": "City",
    "subcategory": "District Seat",
    "featured": false,
    "priority": 50
  },