[
  {
    "geonameId": 2272379,
    "name": "A dos Cunhados",
    "latitude": 39.15237,
    "longitude": -9.2972,
    "category": "City",
    "subcategory": "City",
    "featured": false,
    "priority": 50
  },
  {
    "geonameId": 2272447,
    "name": "Abrantes",
    "latitude": 39.46667,
    "longitude": -8.2,
    "category": "City",
    "subcategory": "County Seat",
    "featured": false,
    "priority": 50
  },
  {
    "geonameId": 2743428,
    "name": "Abraveses",
    "latitude": 40.68137,
    "longitude": -7.92102,
    "category": "City",
    "subcategory": "City",
    "featured": false,
    "priority": 50
  },
  {
    "geonameId": 2743373,
    "name": "Afurada de Baixo",
    "latitude": 41.14389,
    "longitude": -8.64639,
    "category": "City",
    "subcategory": "City",
    "featured": false,
    "priority": 50
  },
  {
    "geonameId": 2743304,
    "name": "Águas Santas",
    "latitude": 41.21017,
    "longitude": -8.57599,
    "category": "City",
    "subcategory": "City",
    "featured": false,
    "priority": 50
  },
  {
    "geonameId": 2743292,
    "name": "Águeda",
    "latitude": 40.5772,
    "longitude": -8.44442,
    "category": "City",
    "subcategory": "County Seat",
    "featured": false,
    "priority": 50
  },
  {
    "geonameId": 2743283,
    "name": "Aguiar da Beira",
    "latitude": 40.81726,
    "longitude": -7.54431,
    "category": "City",
    "subcategory": "County Seat",
    "featured": false,
    "priority": 50
  },
  {
    "geonameId": 2272287,
    "name": "Aguieira",
    "latitude": 39.61667,
    "longitude": -9.05,
    "category": "Mountain",
    "subcategory": "Mountain",
    "featured": false,
    "priority": 50
  },
  {
    "geonameId": 2272260,
    "name": "Alagoa",
    "latitude": 39.36125,
    "longitude": -7.53894,
    "category": "City",
    "subcategory": "District Seat",
    "featured": false,
    "priority": 50
  },
  {
    "geonameId": 2272242,
    "name": "Alandroal",
    "latitude": 38.702,
    "longitude": -7.40309,
    "category": "City",
    "subcategory": "County Seat",
    "featured": false,
    "priority": 50
  },
  {
    "geonameId": 2743233,
    "name": "Albergaria-a-Velha",
    "latitude": 40.69318,
    "longitude": -8.47994,
    "category": "City",
    "subcategory": "County Seat",
    "featured": false,
    "priority": 50
  },
  {
    "geonameId": 2272222,
    "name": "Albufeira",
    "latitude": 37.08819,
    "longitude": -8.2503,
    "category": "City",
    "subcategory": "City",
    "featured": false,
    "priority": 50
  },
  {
    "geonameId": 2742402,
    "name": "Albufeira da Barragem de Santa Luzia",
    "latitude": 40.10562,
    "longitude": -7.84307,
    "category": "Lake",
    "subcategory": "Reservoir",
    "featured": false,
    "priority": 50
  },
  {
    "geonameId": 2268716,
    "name": "Albufeira da Defeza",
    "latitude": 38.59383,
    "longitude": -8.0624,
    "category": "Lake",
    "subcategory": "Reservoir",
    "featured": false,
    "priority": 50
  },
  {
    "geonameId": 2732833,
    "name": "Albufeira da Venda Nova",
    "latitude": 41.67527,
    "longitude": -7.96758,
    "category": "Lake",
    "subcategory": "Reservoir",
    "featured": false,
    "priority": 50
  },
  {
    "geonameId": 7870703,
    "name": "Albufeira de Vilar",
    "latitude": 40.95549,
    "longitude": -7.53691,
    "category": "Lake",
    "subcategory": "Lake",
    "featured": false,
    "priority": 50
  },
  {
    "geonameId": 2740002,
    "name": "Albufeira do Ermal",
    "latitude": 41.58933,
    "longitude": -8.13212,
    "category": "Lake",
    "subcategory": "Reservoir",
    "featured": false,
    "priority": 50
  },
  {
    "geonameId": 2264799,
    "name": "Albufeira do Peso",
    "latitude": 38.8389,
    "longitude": -8.19016,
    "category": "Lake",
    "subcategory": "Reservoir",
    "featured": false,
    "priority": 50
  },
  {
    "geonameId": 2262585,
    "name": "Albufeira do Torres",
    "latitude": 38.50613,
    "longitude": -7.85888,
    "category": "Lake",
    "subcategory": "Lake",
    "featured": false,
    "priority": 50
  },
  {
    "geonameId": 7870702,
    "name": "Albufera do Alto Rabagao",
    "latitude": 41.74976,
    "longitude": -7.79058,
    "category": "Lake",
    "subcategory": "Lake",
    "featured": false,
    "priority": 50
  },
  {
    "geonameId": 2272215,
    "name": "Alcabideche",
    "latitude": 38.73366,
    "longitude": -9.40928,
    "category": "City",
    "subcategory": "City",
    "featured": false,
    "priority": 50
  },
  {
    "geonameId": 2272212,
    "name": "Alcácer do Sal",
    "latitude": 38.37326,
    "longitude": -8.51444,
    "category": "City",
    "subcategory": "County Seat",
    "featured": false,
    "priority": 50
  },
  {
    "geonameId": 2272190,
    "name": "Alcanede",
    "latitude": 39.41501,
    "longitude": -8.82189,
    "category": "City",
    "subcategory": "City",
    "featured": false,
    "priority": 50
  },
  {
    "geonameId": 2272189,
    "name": "Alcanena",
    "latitude": 39.459,
    "longitude": -8.66892,
    "category": "City",
    "subcategory": "County Seat",
    "featured": false,
    "priority": 50
  },
  {
    "geonameId": 2272147,
    "name": "Alcobaça",
    "latitude": 39.55223,
    "longitude": -8.97749,
    "category": "City",
    "subcategory": "County Seat",
    "featured": false,
    "priority": 50
  },
  {
    "geonameId": 2272144,
    "name": "Alcochete",
    "latitude": 38.75534,
    "longitude": -8.96086,
    "category": "City",
    "subcategory": "County Seat",
    "featured": false,
    "priority": 50
  },
  {
    "geonameId": 2272130,
    "name": "Alcoutim",
    "latitude": 37.47432,
    "longitude": -7.47228,
    "category": "City",
    "subcategory": "County Seat",
    "featured": false,
    "priority": 50
  },
  {
    "geonameId": 2272091,
    "name": "Aldeia de Paio Pires",
    "latitude": 38.61667,
    "longitude": -9.08333,
    "category": "City",
    "subcategory": "City",
    "featured": false,
    "priority": 50
  },
  {
    "geonameId": 2743131,
    "name": "Aldoar",
    "latitude": 41.1671,
    "longitude": -8.6691,
    "category": "City",
    "subcategory": "City",
    "featured": false,
    "priority": 50
  },
  {
    "geonameId": 2272045,
    "name": "Alegrete",
    "latitude": 39.23983,
    "longitude": -7.32342,
    "category": "City",
    "subcategory": "District Seat",
    "featured": false,
    "priority": 50
  },
  {
    "geonameId": 2272036,
    "name": "Alenquer",
    "latitude": 39.05315,
    "longitude": -9.00928,
    "category": "City",
    "subcategory": "County Seat",
    "featured": false,
    "priority": 50
  },
  {
    "geonameId": 2743101,
    "name": "Alfândega da Fé",
    "latitude": 41.34315,
    "longitude": -6.96112,
    "category": "City",
    "subcategory": "County Seat",
    "featured": false,
    "priority": 50
  },
  {
    "geonameId": 2743095,
    "name": "Alfena",
    "latitude": 41.23671,
    "longitude": -8.52454,
    "category": "City",
    "subcategory": "City",
    "featured": false,
    "priority": 50
  },
  {
    "geonameId": 2272005,
    "name": "Alfornelos",
    "latitude": 38.76098,
    "longitude": -9.20508,
    "category": "City",
    "subcategory": "City",
    "featured": false,
    "priority": 50
  },
  {
    "geonameId": 2271985,
    "name": "Algés",
    "latitude": 38.70245,
    "longitude": -9.22936,
    "category": "City",
    "subcategory": "City",
    "featured": false,
    "priority": 50
  },
  {
    "geonameId": 2271977,
    "name": "Algueirão",
    "latitude": 38.79764,
    "longitude": -9.3437,
    "category": "City",
    "subcategory": "City",
    "featured": false,
    "priority": 50
  },
  {
    "geonameId": 2271975,
    "name": "Alhandra",
    "latitude": 38.92732,
    "longitude": -9.00864,
    "category": "City",
    "subcategory": "City",
    "featured": false,
    "priority": 50
  },
  {
    "geonameId": 2271970,
    "name": "Alhos Vedros",
    "latitude": 38.65486,
    "longitude": -9.02368,
    "category": "City",
    "subcategory": "City",
    "featured": false,
    "priority": 50
  },
  {
    "geonameId": 2743067,
    "name": "Alijó",
    "latitude": 41.27644,
    "longitude": -7.47489,
    "category": "City",
    "subcategory": "City",
    "featured": false,
    "priority": 50
  },
  {
    "geonameId": 2271968,
    "name": "Aljezur",
    "latitude": 37.31745,
    "longitude": -8.80147,
    "category": "City",
    "subcategory": "County Seat",
    "featured": false,
    "priority": 50
  },
  {
    "geonameId": 2271966,
    "name": "Aljubarrota",
    "latitude": 39.56715,
    "longitude": -8.92925,
    "category": "City",
    "subcategory": "City",
    "featured": false,
    "priority": 50
  },
  {
    "geonameId": 2271965,
    "name": "Aljustrel",
    "latitude": 37.87759,
    "longitude": -8.16516,
    "category": "City",
    "subcategory": "County Seat",
    "featured": false,
    "priority": 50
  },
  {
    "geonameId": 2271961,
    "name": "Almada",
    "latitude": 38.67902,
    "longitude": -9.1569,
    "category": "City",
    "subcategory": "County Seat",
    "featured": false,
    "priority": 50
  },
  {
    "geonameId": 2271947,
    "name": "Almancil",
    "latitude": 37.08686,
    "longitude": -8.03074,
    "category": "City",
    "subcategory": "City",
    "featured": false,
    "priority": 50
  },
  {
    "geonameId": 2271945,
    "name": "Almargem",
    "latitude": 38.84485,
    "longitude": -9.27315,
    "category": "City",
    "subcategory": "City",
    "featured": false,
    "priority": 50
  },
  {
    "geonameId": 2271926,
    "name": "Almeirim",
    "latitude": 39.20837,
    "longitude": -8.62635,
    "category": "City",
    "subcategory": "County Seat",
    "featured": false,
    "priority": 50
  },
  {
    "geonameId": 2271912,
    "name": "Almodôvar",
    "latitude": 37.51279,
    "longitude": -8.06008,
    "category": "City",
    "subcategory": "County Seat",
    "featured": false,
    "priority": 50
  },
  {
    "geonameId": 2743038,
    "name": "Alpendurada",
    "latitude": 41.08944,
    "longitude": -8.24643,
    "category": "City",
    "subcategory": "City",
    "featured": false,
    "priority": 50
  },
  {
    "geonameId": 2271878,
    "name": "Alpiarça",
    "latitude": 39.25712,
    "longitude": -8.58187,
    "category": "City",
    "subcategory": "County Seat",
    "featured": false,
    "priority": 50
  },
  {
    "geonameId": 7870753,
    "name": "Alqueva Reservoir",
    "latitude": 38.21553,
    "longitude": -7.48856,
    "category": "Lake",
    "subcategory": "Reservoir",
    "featured": false,
    "priority": 50
  },
  {
    "geonameId": 2742735,
    "name": "Alto da Armada",
    "latitude": 41.48333,
    "longitude": -7.81667,
    "category": "Mountain",
    "subcategory": "Mountain",
    "featured": false,
    "priority": 50
  },
  {
    "geonameId": 9781469,
    "name": "Alto da Baleia",
    "latitude": 38.63839,
    "longitude": -28.72114,
    "category": "Mountain",
    "subcategory": "Mountain",
    "featured": false,
    "priority": 50
  },
  {
    "geonameId": 2270820,
    "name": "Alto da Boa Vista",
    "latitude": 38.81667,
    "longitude": -7.53333,
    "category": "Mountain",
    "subcategory": "Mountain",
    "featured": false,
    "priority": 50
  },
  {
    "geonameId": 2742077,
    "name": "Alto da Bouça do Rego",
    "latitude": 41.31667,
    "longitude": -8.38333,
    "category": "Mountain",
    "subcategory": "Mountain",
    "featured": false,
    "priority": 50
  },
  {
    "geonameId": 2741792,
    "name": "Alto da Cacheira",
    "latitude": 41.9,
    "longitude": -6.71667,
    "category": "Mountain",
    "subcategory": "Mountain",
    "featured": false,
    "priority": 50
  },
  {
    "geonameId": 2741622,
    "name": "Alto da Canada",
    "latitude": 41.38333,
    "longitude": -6.53333,
    "category": "Mountain",
    "subcategory": "Mountain",
    "featured": false,
    "priority": 50
  },
  {
    "geonameId": 2741042,
    "name": "Alto da Castanheira",
    "latitude": 41.36667,
    "longitude": -6.75,
    "category": "Mountain",
    "subcategory": "Mountain",
    "featured": false,
    "priority": 50
  },
  {
    "geonameId": 2740717,
    "name": "Alto da Cilha",
    "latitude": 41.55,
    "longitude": -7.81667,
    "category": "Mountain",
    "subcategory": "Mountain",
    "featured": false,
    "priority": 50
  },
  {
    "geonameId": 2740562,
    "name": "Alto da Corda",
    "latitude": 41.48333,
    "longitude": -7.83333,
    "category": "Mountain",
    "subcategory": "Mountain",
    "featured": false,
    "priority": 50
  },
  {
    "geonameId": 2740445,
    "name": "Alto da Costa",
    "latitude": 41.88333,
    "longitude": -6.9,
    "category": "Mountain",
    "subcategory": "Mountain",
    "featured": false,
    "priority": 50
  },
  {
    "geonameId": 2740427,
    "name": "Alto da Cota",
    "latitude": 41.31667,
    "longitude": -7.83333,
    "category": "Mountain",
    "subcategory": "Mountain",
    "featured": false,
    "priority": 50
  },
  {
    "geonameId": 2268906,
    "name": "Alto da Cotovia",
    "latitude": 39.98333,
    "longitude": -8.33333,
    "category": "Mountain",
    "subcategory": "Mountain",
    "featured": false,
    "priority": 50
  },
  {
    "geonameId": 2739953,
    "name": "Alto da Escaladinha",
    "latitude": 41.88333,
    "longitude": -7.13333,
    "category": "Mountain",
    "subcategory": "Mountain",
    "featured": false,
    "priority": 50
  },
  {
    "geonameId": 2739721,
    "name": "Alto da Feira",
    "latitude": 40.08333,
    "longitude": -7.71667,
    "category": "Mountain",
    "subcategory": "Mountain",
    "featured": false,
    "priority": 50
  },
  {
    "geonameId": 2738171,
    "name": "Alto da Louriceira",
    "latitude": 40.5,
    "longitude": -8.3,
    "category": "Mountain",
    "subcategory": "Mountain",
    "featured": false,
    "priority": 50
  },
  {
    "geonameId": 2738150,
    "name": "Alto da Lousa",
    "latitude": 40.5,
    "longitude": -8.28333,
    "category": "Mountain",
    "subcategory": "Mountain",
    "featured": false,
    "priority": 50
  },
  {
    "geonameId": 2737977,
    "name": "Alto da Malhoeira",
    "latitude": 40.35,
    "longitude": -7.43333,
    "category": "Mountain",
    "subcategory": "Mountain",
    "featured": false,
    "priority": 50
  },
  {
    "geonameId": 2737354,
    "name": "Alto da Mossa",
    "latitude": 41.58333,
    "longitude": -7.83333,
    "category": "Mountain",
    "subcategory": "Mountain",
    "featured": false,
    "priority": 50
  },
  {
    "geonameId": 2736566,
    "name": "Alto da Pedra Pinta",
    "latitude": 41.7,
    "longitude": -7.88333,
    "category": "Mountain",
    "subcategory": "Mountain",
    "featured": false,
    "priority": 50
  },
  {
    "geonameId": 11494671,
    "name": "Alto da Pedrada",
    "latitude": 41.9297,
    "longitude": -8.29187,
    "category": "Mountain",
    "subcategory": "Mountain",
    "featured": false,
    "priority": 50
  },
  {
    "geonameId": 2736573,
    "name": "Alto da Pedradeira",
    "latitude": 41.65,
    "longitude": -7.88333,
    "category": "Mountain",
    "subcategory": "Mountain",
    "featured": false,
    "priority": 50
  },
  {
    "geonameId": 2736474,
    "name": "Alto da Pena Cereja",
    "latitude": 41.88333,
    "longitude": -7.88333,
    "category": "Mountain",
    "subcategory": "Mountain",
    "featured": false,
    "priority": 50
  },
  {
    "geonameId": 2735760,
    "name": "Alto da Praça",
    "latitude": 40.05,
    "longitude": -7.6,
    "category": "Mountain",
    "subcategory": "Mountain",
    "featured": false,
    "priority": 50
  },
  {
    "geonameId": 2735717,
    "name": "Alto da Preguiça",
    "latitude": 41.98333,
    "longitude": -8.3,
    "category": "Mountain",
    "subcategory": "Mountain",
    "featured": false,
    "priority": 50
  },
  {
    "geonameId": 2735633,
    "name": "Alto da Quinta",
    "latitude": 41.61667,
    "longitude": -8.13333,
    "category": "Mountain",
    "subcategory": "Mountain",
    "featured": false,
    "priority": 50
  },
  {
    "geonameId": 2734833,
    "name": "Alto da Samoa",
    "latitude": 40.18333,
    "longitude": -8.06667,
    "category": "Mountain",
    "subcategory": "Mountain",
    "featured": false,
    "priority": 50
  },
  {
    "geonameId": 2734146,
    "name": "Alto da Senhora",
    "latitude": 41.31667,
    "longitude": -8.28333,
    "category": "Mountain",
    "subcategory": "Mountain",
    "featured": false,
    "priority": 50
  },
  {
    "geonameId": 2734058,
    "name": "Alto da Serra",
    "latitude": 41,
    "longitude": -7.8,
    "category": "Mountain",
    "subcategory": "Mountain",
    "featured": false,
    "priority": 50
  },
  {
    "geonameId": 2733950,
    "name": "Alto da Soalheira",
    "latitude": 41.28333,
    "longitude": -6.75,
    "category": "Mountain",
    "subcategory": "Mountain",
    "featured": false,
    "priority": 50
  },
  {
    "geonameId": 2733901,
    "name": "Alto da Sobreira",
    "latitude": 40.50055,
    "longitude": -8.26775,
    "category": "Mountain",
    "subcategory": "Mountain",
    "featured": false,
    "priority": 50
  },
  {
    "geonameId": 2733860,
    "name": "Alto da Soreira de Cima",
    "latitude": 41.46667,
    "longitude": -7.48333,
    "category": "Mountain",
    "subcategory": "Mountain",
    "featured": false,
    "priority": 50
  },
  {
    "geonameId": 2733629,
    "name": "Alto da Teixosa",
    "latitude": 41,
    "longitude": -8,
    "category": "Mountain",
    "subcategory": "Mountain",
    "featured": false,
    "priority": 50
  },
  {
    "geonameId": 2733497,
    "name": "Alto da Torre",
    "latitude": 40.06667,
    "longitude": -7.63333,
    "category": "Mountain",
    "subcategory": "Mountain",
    "featured": false,
    "priority": 50
  },
  {
    "geonameId": 2733290,
    "name": "Alto da Ursa",
    "latitude": 41.41667,
    "longitude": -7.48333,
    "category": "Mountain",
    "subcategory": "Mountain",
    "featured": false,
    "priority": 50
  },
  {
    "geonameId": 2742235,
    "name": "Alto das Bezerreiras",
    "latitude": 41.93333,
    "longitude": -8.3,
    "category": "Mountain",
    "subcategory": "Mountain",
    "featured": false,
    "priority": 50
  },
  {
    "geonameId": 2742067,
    "name": "Alto das Bouças",
    "latitude": 41.83333,
    "longitude": -7.21667,
    "category": "Mountain",
    "subcategory": "Mountain",
    "featured": false,
    "priority": 50
  },
  {
    "geonameId": 2741866,
    "name": "Alto das Cabeceiras",
    "latitude": 41.41667,
    "longitude": -7.11667,
    "category": "Mountain",
    "subcategory": "Mountain",
    "featured": false,
    "priority": 50
  },
  {
    "geonameId": 2739688,
    "name": "Alto das Felgueiras",
    "latitude": 41.58333,
    "longitude": -7.88333,
    "category": "Mountain",
    "subcategory": "Mountain",
    "featured": false,
    "priority": 50
  },
  {
    "geonameId": 2739415,
    "name": "Alto das Fontes",
    "latitude": 41.35,
    "longitude": -7.86667,
    "category": "Mountain",
    "subcategory": "Mountain",
    "featured": false,
    "priority": 50
  },
  {
    "geonameId": 2736418,
    "name": "Alto das Penicias",
    "latitude": 42.03333,
    "longitude": -8.41667,
    "category": "Mountain",
    "subcategory": "Mountain",
    "featured": false,
    "priority": 50
  },
  {
    "geonameId": 2735045,
    "name": "Alto das Rodeiras",
    "latitude": 41.41667,
    "longitude": -7.43333,
    "category": "Mountain",
    "subcategory": "Mountain",
    "featured": false,
    "priority": 50
  },
  {
    "geonameId": 2733307,
    "name": "Alto das Urgas",
    "latitude": 40.53333,
    "longitude": -7.33333,
    "category": "Mountain",
    "subcategory": "Mountain",
    "featured": false,
    "priority": 50
  },
  {
    "geonameId": 11049256,
    "name": "Alto das Veias",
    "latitude": 41.27222,
    "longitude": -7.91639,
    "category": "Mountain",
    "subcategory": "Mountain",
    "featured": false,
    "priority": 50
  },
  {
    "geonameId": 2732794,
    "name": "Alto das Verejas",
    "latitude": 41.43333,
    "longitude": -7.8,
    "category": "Mountain",
    "subcategory": "Mountain",
    "featured": false,
    "priority": 50
  },
  {
    "geonameId": 2740910,
    "name": "Alto de Ceias",
    "latitude": 40.08333,
    "longitude": -7.66667,
    "category": "Mountain",
    "subcategory": "Mountain",
    "featured": false,
    "priority": 50
  },
  {
    "geonameId": 2740840,
    "name": "Alto de Ceroulas",
    "latitude": 41.33333,
    "longitude": -8.41667,
    "category": "Mountain",
    "subcategory": "Mountain",
    "featured": false,
    "priority": 50
  },
  {
    "geonameId": 2740738,
    "name": "Alto de Choupinho",
    "latitude": 41.41667,
    "longitude": -6.86667,
    "category": "Mountain",
    "subcategory": "Mountain",
    "featured": false,
    "priority": 50
  },
  {
    "geonameId": 2737627,
    "name": "Alto de Miudeiros",
    "latitude": 40.11667,
    "longitude": -7.91667,
    "category": "Mountain",
    "subcategory": "Mountain",
    "featured": false,
    "priority": 50
  },
  {
    "geonameId": 2736198,
    "name": "Alto de Pinheiro",
    "latitude": 41.6,
    "longitude": -7.76667,
    "category": "Mountain",
    "subcategory": "Mountain",
    "featured": false,
    "priority": 50
  },
  {
    "geonameId": 2734732,
    "name": "Alto de Santa Cruz",
    "latitude": 41.35,
    "longitude": -7.86667,
    "category": "Mountain",
    "subcategory": "Mountain",
    "featured": false,
    "priority": 50
  },
  {
    "geonameId": 2734465,
    "name": "Alto de São Jorge",
    "latitude": 41.48333,
    "longitude": -7.73333,
    "category": "Mountain",
    "subcategory": "Mountain",
    "featured": false,
    "priority": 50
  },
  {
    "geonameId": 2733268,
    "name": "Alto de Vaires",
    "latitude": 41.85,
    "longitude": -7.91667,
    "category": "Mountain",
    "subcategory": "Mountain",
    "featured": false,
    "priority": 50
  },
  {
    "geonameId": 2732613,
    "name": "Alto de Vila Lobos",
    "latitude": 41.05771,
    "longitude": -7.88819,
    "category": "Mountain",
    "subcategory": "Mountain",
    "featured": false,
    "priority": 50
  },
  {
    "geonameId": 2742346,
    "name": "Alto do Barrocal",
    "latitude": 40.32973,
    "longitude": -6.94157,
    "category": "Mountain",
    "subcategory": "Mountain",
    "featured": false,
    "priority": 50
  },
  {
    "geonameId": 11496307,
    "name": "Alto do Cabeço",
    "latitude": 41.85786,
    "longitude": -8.52805,
    "category": "Mountain",
    "subcategory": "Peak",
    "featured": false,
    "priority": 50
  },
  {
    "geonameId": 2741500,
    "name": "Alto do Carapito",
    "latitude": 40.4831,
    "longitude": -6.9503,
    "category": "Mountain",
    "subcategory": "Mountain",
    "featured": false,
    "priority": 50
  },
  {
    "geonameId": 2741454,
    "name": "Alto do Carqueijal",
    "latitude": 41.85,
    "longitude": -6.65,
    "category": "Mountain",
    "subcategory": "Mountain",
    "featured": false,
    "priority": 50
  },
  {
    "geonameId": 2740937,
    "name": "Alto do Cavalo",
    "latitude": 41.81667,
    "longitude": -8.56667,
    "category": "Mountain",
    "subcategory": "Mountain",
    "featured": false,
    "priority": 50
  },
  {
    "geonameId": 3373185,
    "name": "Alto do Chão",
    "latitude": 38.6,
    "longitude": -28.71667,
    "category": "Mountain",
    "subcategory": "Mountain",
    "featured": false,
    "priority": 50
  },
  {
    "geonameId": 2740444,
    "name": "Alto do Costa",
    "latitude": 41.85,
    "longitude": -6.63333,
    "category": "Mountain",
    "subcategory": "Mountain",
    "featured": false,
    "priority": 50
  },
  {
    "geonameId": 2739978,
    "name": "Alto do Ervedal",
    "latitude": 40.2,
    "longitude": -7.86667,
    "category": "Mountain",
    "subcategory": "Mountain",
    "featured": false,
    "priority": 50
  },
  {
    "geonameId": 2739748,
    "name": "Alto do Farinho",
    "latitude": 41.41638,
    "longitude": -7.91575,
    "category": "Mountain",
    "subcategory": "Mountain",
    "featured": false,
    "priority": 50
  },
  {
    "geonameId": 2739710,
    "name": "Alto do Feital",
    "latitude": 40.74238,
    "longitude": -7.27558,
    "category": "Mountain",
    "subcategory": "Mountain",
    "featured": false,
    "priority": 50
  },
  {
    "geonameId": 2739534,
    "name": "Alto do Fojo",
    "latitude": 42.01053,
    "longitude": -8.25374,
    "category": "Mountain",
    "subcategory": "Mountain",
    "featured": false,
    "priority": 50
  },
  {
    "geonameId": 2739059,
    "name": "Alto do Gato",
    "latitude": 41.85,
    "longitude": -6.61667,
    "category": "Mountain",
    "subcategory": "Mountain",
    "featured": false,
    "priority": 50
  },
  {
    "geonameId": 2738668,
    "name": "Alto do Janeiro",
    "latitude": 41.3,
    "longitude": -7.31667,
    "category": "Mountain",
    "subcategory": "Mountain",
    "featured": false,
    "priority": 50
  },
  {
    "geonameId": 2738446,
    "name": "Alto do Lameirão",
    "latitude": 41.15,
    "longitude": -7.43333,
    "category": "Mountain",
    "subcategory": "Mountain",
    "featured": false,
    "priority": 50
  },
  {
    "geonameId": 2738237,
    "name": "Alto do Lombo da Trave",
    "latitude": 41.86667,
    "longitude": -7.2,
    "category": "Mountain",
    "subcategory": "Mountain",
    "featured": false,
    "priority": 50
  },
  {
    "geonameId": 2737982,
    "name": "Alto do Malhão",
    "latitude": 41.41667,
    "longitude": -6.81667,
    "category": "Mountain",
    "subcategory": "Mountain",
    "featured": false,
    "priority": 50
  },
  {
    "geonameId": 2737928,
    "name": "Alto do Marco",
    "latitude": 40.03333,
    "longitude": -8.3,
    "category": "Mountain",
    "subcategory": "Mountain",
    "featured": false,
    "priority": 50
  },
  {
    "geonameId": 2737646,
    "name": "Alto do Miradouro",
    "latitude": 41.01667,
    "longitude": -8.11667,
    "category": "Mountain",
    "subcategory": "Mountain",
    "featured": false,
    "priority": 50
  },
  {
    "geonameId": 8378744,
    "name": "Alto do Monte Abraão",
    "latitude": 38.4715,
    "longitude": -8.98918,
    "category": "Mountain",
    "subcategory": "Peak",
    "featured": false,
    "priority": 50
  },
  {
    "geonameId": 2736280,
    "name": "Alto do Picadouro",
    "latitude": 41.45,
    "longitude": -7.36667,
    "category": "Mountain",
    "subcategory": "Mountain",
    "featured": false,
    "priority": 50
  },
  {
    "geonameId": 2736254,
    "name": "Alto do Picoto",
    "latitude": 41.46667,
    "longitude": -7.45,
    "category": "Mountain",
    "subcategory": "Mountain",
    "featured": false,
    "priority": 50
  },
  {
    "geonameId": 2735668,
    "name": "Alto do Queimado",
    "latitude": 41.78333,
    "longitude": -7.51667,
    "category": "Mountain",
    "subcategory": "Mountain",
    "featured": false,
    "priority": 50
  },
  {
    "geonameId": 2735660,
    "name": "Alto do Queiroal",
    "latitude": 41.56667,
    "longitude": -7.9,
    "category": "Mountain",
    "subcategory": "Mountain",
    "featured": false,
    "priority": 50
  },
  {
    "geonameId": 2734920,
    "name": "Alto do Sabugueiro",
    "latitude": 41.33333,
    "longitude": -7.85,
    "category": "Mountain",
    "subcategory": "Mountain",
    "featured": false,
    "priority": 50
  },
  {
    "geonameId": 2733703,
    "name": "Alto do Talefe",
    "latitude": 40.98559,
    "longitude": -7.98305,
    "category": "Mountain",
    "subcategory": "Mountain",
    "featured": false,
    "priority": 50
  },
  {
    "geonameId": 2733581,
    "name": "Alto do Terreiro",
    "latitude": 41.65,
    "longitude": -7.83333,
    "category": "Mountain",
    "subcategory": "Mountain",
    "featured": false,
    "priority": 50
  },
  {
    "geonameId": 2733199,
    "name": "Alto do Vale da Grua",
    "latitude": 41.83333,
    "longitude": -7.1,
    "category": "Mountain",
    "subcategory": "Mountain",
    "featured": false,
    "priority": 50
  },
  {
    "geonameId": 2732256,
    "name": "Alto do Viso",
    "latitude": 41.86667,
    "longitude": -7.13333,
    "category": "Mountain",
    "subcategory": "Mountain",
    "featured": false,
    "priority": 50
  },
  {
    "geonameId": 2741385,
    "name": "Alto dos Carriços",
    "latitude": 41.43333,
    "longitude": -7.45,
    "category": "Mountain",
    "subcategory": "Mountain",
    "featured": false,
    "priority": 50
  },
  {
    "geonameId": 2741289,
    "name": "Alto dos Carvalhinhos",
    "latitude": 41.78333,
    "longitude": -8.61667,
    "category": "Mountain",
    "subcategory": "Mountain",
    "featured": false,
    "priority": 50
  },
  {
    "geonameId": 2739526,
    "name": "Alto dos Fojos",
    "latitude": 41.46667,
    "longitude": -8.06667,
    "category": "Mountain",
    "subcategory": "Mountain",
    "featured": false,
    "priority": 50
  },
  {
    "geonameId": 2735687,
    "name": "Alto dos Púcaros",
    "latitude": 41.6,
    "longitude": -7.81667,
    "category": "Mountain",
    "subcategory": "Mountain",
    "featured": false,
    "priority": 50
  },
  {
    "geonameId": 2733695,
    "name": "Alto dos Talhões",
    "latitude": 41.86667,
    "longitude": -7.06667,
    "category": "Mountain",
    "subcategory": "Mountain",
    "featured": false,
    "priority": 50
  },
  {
    "geonameId": 7932369,
    "name": "Alto S. Gens",
    "latitude": 41.04461,
    "longitude": -8.2975,
    "category": "Mountain",
    "subcategory": "Peak",
    "featured": false,
    "priority": 50
  },
  {
    "geonameId": 7932370,
    "name": "Alto S. Paul",
    "latitude": 41.04942,
    "longitude": -8.31386,
    "category": "Mountain",
    "subcategory": "Peak",
    "featured": false,
    "priority": 50
  },
  {
    "geonameId": 2271814,
    "name": "Alvaiázere",
    "latitude": 39.82256,
    "longitude": -8.37999,
    "category": "City",
    "subcategory": "County Seat",
    "featured": false,
    "priority": 50
  },
  {
    "geonameId": 6930162,
    "name": "Alvalade",
    "latitude": 38.75328,
    "longitude": -9.14397,
    "category": "City",
    "subcategory": "City",
    "featured": false,
    "priority": 50
  },
  {
    "geonameId": 2271789,
    "name": "Alvito",
    "latitude": 38.25611,
    "longitude": -7.99158,
    "category": "City",
    "subcategory": "County Seat",
    "featured": false,
    "priority": 50
  },
  {
    "geonameId": 2271782,
    "name": "Alvor",
    "latitude": 37.12994,
    "longitude": -8.59174,
    "category": "City",
    "subcategory": "City",
    "featured": false,
    "priority": 50
  },
  {
    "geonameId": 2271772,
    "name": "Amadora",
    "latitude": 38.75382,
    "longitude": -9.23083,
    "category": "City",
    "subcategory": "City",
    "featured": false,
    "priority": 50
  },
  {
    "geonameId": 2742965,
    "name": "Amarante",
    "latitude": 41.27271,
    "longitude": -8.08245,
    "category": "City",
    "subcategory": "County Seat",
    "featured": false,
    "priority": 50
  },
  {
    "geonameId": 2742958,
    "name": "Amares",
    "latitude": 41.63091,
    "longitude": -8.35117,
    "category": "City",
    "subcategory": "County Seat",
    "featured": false,
    "priority": 50
  },
  {
    "geonameId": 2742951,
    "name": "Ameal",
    "latitude": 41.16667,
    "longitude": -8.6,
    "category": "City",
    "subcategory": "City",
    "featured": false,
    "priority": 50
  },
  {
    "geonameId": 2271680,
    "name": "Amora",
    "latitude": 38.62961,
    "longitude": -9.11557,
    "category": "City",
    "subcategory": "City",
    "featured": false,
    "priority": 50
  },
  {
    "geonameId": 2742908,
    "name": "Anadia",
    "latitude": 40.43841,
    "longitude": -8.43352,
    "category": "City",
    "subcategory": "County Seat",
    "featured": false,
    "priority": 50
  },
  {
    "geonameId": 2742885,
    "name": "Angeiras",
    "latitude": 41.26713,
    "longitude": -8.71081,
    "category": "City",
    "subcategory": "City",
    "featured": false,
    "priority": 50
  },
  {
    "geonameId": 3373348,
    "name": "Angra do Heroísmo",
    "latitude": 38.6539,
    "longitude": -27.21839,
    "category": "City",
    "subcategory": "City",
    "featured": false,
    "priority": 50
  },
  {
    "geonameId": 2271635,
    "name": "Anicha",
    "latitude": 38.478,
    "longitude": -8.97287,
    "category": "Island",
    "subcategory": "Island",
    "featured": false,
    "priority": 50
  },
  {
    "geonameId": 2271650,
    "name": "Ansião",
    "latitude": 39.91177,
    "longitude": -8.43568,
    "category": "City",
    "subcategory": "County Seat",
    "featured": false,
    "priority": 50
  },
  {
    "geonameId": 2742868,
    "name": "Anta",
    "latitude": 41.26634,
    "longitude": -8.62844,
    "category": "City",
    "subcategory": "City",
    "featured": false,
    "priority": 50
  },
  {
    "geonameId": 2742864,
    "name": "Antanhol",
    "latitude": 40.16837,
    "longitude": -8.46334,
    "category": "City",
    "subcategory": "City",
    "featured": false,
    "priority": 50
  },
  {
    "geonameId": 2271623,
    "name": "Apelação",
    "latitude": 38.81387,
    "longitude": -9.13225,
    "category": "City",
    "subcategory": "City",
    "featured": false,
    "priority": 50
  },
  {
    "geonameId": 2742833,
    "name": "Aradas",
    "latitude": 40.62084,
    "longitude": -8.64195,
    "category": "City",
    "subcategory": "City",
    "featured": false,
    "priority": 50
  },
  {
    "geonameId": 2742827,
    "name": "Arazede",
    "latitude": 40.28627,
    "longitude": -8.64999,
    "category": "City",
    "subcategory": "City",
    "featured": false,
    "priority": 50
  },
  {
    "geonameId": 2742808,
    "name": "Arcos",
    "latitude": 41.52185,
    "longitude": -8.42151,
    "category": "City",
    "subcategory": "City",
    "featured": false,
    "priority": 50
  },
  {
    "geonameId": 2742804,
    "name": "Arcos de Valdevez",
    "latitude": 41.84668,
    "longitude": -8.41905,
    "category": "City",
    "subcategory": "City",
    "featured": false,
    "priority": 50
  },
  {
    "geonameId": 2742796,
    "name": "Arcozelo",
    "latitude": 41.06187,
    "longitude": -8.63192,
    "category": "City",
    "subcategory": "City",
    "featured": false,
    "priority": 50
  },
  {
    "geonameId": 2271547,
    "name": "Areeiro",
    "latitude": 38.741,
    "longitude": -9.138,
    "category": "City",
    "subcategory": "City",
    "featured": false,
    "priority": 50
  },
  {
    "geonameId": 2742768,
    "name": "Areosa",
    "latitude": 41.18146,
    "longitude": -8.58777,
    "category": "City",
    "subcategory": "City",
    "featured": false,
    "priority": 50
  },
  {
    "geonameId": 2742757,
    "name": "Arganil",
    "latitude": 40.21826,
    "longitude": -8.05403,
    "category": "City",
    "subcategory": "County Seat",
    "featured": false,
    "priority": 50
  },
  {
    "geonameId": 2742750,
    "name": "Argoncilhe",
    "latitude": 41.02541,
    "longitude": -8.53885,
    "category": "City",
    "subcategory": "City",
    "featured": false,
    "priority": 50
  },
  {
    "geonameId": 2271542,
    "name": "Armação de Pêra",
    "latitude": 37.10256,
    "longitude": -8.35695,
    "category": "City",
    "subcategory": "City",
    "featured": false,
    "priority": 50
  },
  {
    "geonameId": 2742731,
    "name": "Armamar",
    "latitude": 41.10765,
    "longitude": -7.69139,
    "category": "City",
    "subcategory": "County Seat",
    "featured": false,
    "priority": 50
  },
  {
    "geonameId": 2742700,
    "name": "Arouca",
    "latitude": 40.93057,
    "longitude": -8.24488,
    "category": "City",
    "subcategory": "County Seat",
    "featured": false,
    "priority": 50
  },
  {
    "geonameId": 12060239,
    "name": "Arrábida Nature Park",
    "latitude": 38.48146,
    "longitude": -8.98934,
    "category": "Park",
    "subcategory": "Nature Reserve",
    "featured": false,
    "priority": 50
  },
  {
    "geonameId": 2271488,
    "name": "Arraiolos",
    "latitude": 38.72363,
    "longitude": -7.98478,
    "category": "City",
    "subcategory": "County Seat",
    "featured": false,
    "priority": 50
  },
  {
    "geonameId": 2271473,
    "name": "Arrentela",
    "latitude": 38.625,
    "longitude": -9.10151,
    "category": "City",
    "subcategory": "City",
    "featured": false,
    "priority": 50
  },
  {
    "geonameId": 2742681,
    "name": "Arrifana",
    "latitude": 40.91565,
    "longitude": -8.49657,
    "category": "City",
    "subcategory": "City",
    "featured": false,
    "priority": 50
  },
  {
    "geonameId": 3373329,
    "name": "Arrifes",
    "latitude": 37.76667,
    "longitude": -25.7,
    "category": "City",
    "subcategory": "City",
    "featured": false,
    "priority": 50
  },
  {
    "geonameId": 2271448,
    "name": "Arronches",
    "latitude": 39.12242,
    "longitude": -7.28619,
    "category": "City",
    "subcategory": "County Seat",
    "featured": false,
    "priority": 50
  },
  {
    "geonameId": 2271438,
    "name": "Arruda dos Vinhos",
    "latitude": 38.98411,
    "longitude": -9.07746,
    "category": "City",
    "subcategory": "County Seat",
    "featured": false,
    "priority": 50
  },
  {
    "geonameId": 2742661,
    "name": "Árvore",
    "latitude": 41.33922,
    "longitude": -8.71806,
    "category": "City",
    "subcategory": "City",
    "featured": false,
    "priority": 50
  },
  {
    "geonameId": 2742649,
    "name": "Assafarge",
    "latitude": 40.15895,
    "longitude": -8.43167,
    "category": "City",
    "subcategory": "City",
    "featured": false,
    "priority": 50
  },
  {
    "geonameId": 2271354,
    "name": "Atouguia da Baleia",
    "latitude": 39.33814,
    "longitude": -9.3263,
    "category": "City",
    "subcategory": "City",
    "featured": false,
    "priority": 50
  },
  {
    "geonameId": 2742617,
    "name": "Avanca",
    "latitude": 40.80771,
    "longitude": -8.5722,
    "category": "City",
    "subcategory": "City",
    "featured": false,
    "priority": 50
  },
  {
    "geonameId": 2742611,
    "name": "Aveiro",
    "latitude": 40.64575,
    "longitude": -8.64643,
    "category": "City",
    "subcategory": "Regional Capital",
    "featured": false,
    "priority": 50
  },
  {
    "geonameId": 2742595,
    "name": "Aveleda",
    "latitude": 41.52113,
    "longitude": -8.46682,
    "category": "City",
    "subcategory": "City",
    "featured": false,
    "priority": 50
  },
  {
    "geonameId": 11789553,
    "name": "Avenida Luísa Todi",
    "latitude": 38.52272,
    "longitude": -8.89837,
    "category": "Park",
    "subcategory": "Park",
    "featured": false,
    "priority": 50
  },
  {
    "geonameId": 2742578,
    "name": "Aver-o-Mar",
    "latitude": 41.40607,
    "longitude": -8.77958,
    "category": "City",
    "subcategory": "City",
    "featured": false,
    "priority": 50
  },
  {
    "geonameId": 2742577,
    "name": "Aves",
    "latitude": 41.37034,
    "longitude": -8.4101,
    "category": "City",
    "subcategory": "City",
    "featured": false,
    "priority": 50
  },
  {
    "geonameId": 2742565,
    "name": "Avintes",
    "latitude": 41.10711,
    "longitude": -8.55131,
    "category": "City",
    "subcategory": "City",
    "featured": false,
    "priority": 50
  },
  {
    "geonameId": 2271340,
    "name": "Avis",
    "latitude": 39.05391,
    "longitude": -7.89156,
    "category": "City",
    "subcategory": "County Seat",
    "featured": false,
    "priority": 50
  },
  {
    "geonameId": 2271337,
    "name": "Azambuja",
    "latitude": 39.07029,
    "longitude": -8.86822,
    "category": "City",
    "subcategory": "County Seat",
    "featured": false,
    "priority": 50
  },
  {
    "geonameId": 11808241,
    "name": "Azeitão",
    "latitude": 38.51919,
    "longitude": -9.0139,
    "category": "City",
    "subcategory": "City",
    "featured": false,
    "priority": 50
  },
  {
    "geonameId": 2742557,
    "name": "Azenha",
    "latitude": 41.07651,
    "longitude": -8.62468,
    "category": "City",
    "subcategory": "City",
    "featured": false,
    "priority": 50
  },
  {
    "geonameId": 2742545,
    "name": "Azevedo",
    "latitude": 41.15,
    "longitude": -8.56667,
    "category": "City",
    "subcategory": "City",
    "featured": false,
    "priority": 50
  },
  {
    "geonameId": 2271297,
    "name": "Azinhaga",
    "latitude": 39.05,
    "longitude": -9.35,
    "category": "City",
    "subcategory": "City",
    "featured": false,
    "priority": 50
  },
  {
    "geonameId": 3373385,
    "name": "Azores",
    "latitude": 37.74058,
    "longitude": -25.67282,
    "category": "Island",
    "subcategory": "Island Group",
    "featured": false,
    "priority": 50
  },
  {
    "geonameId": 2742506,
    "name": "Baguim do Monte",
    "latitude": 41.19203,
    "longitude": -8.54118,
    "category": "City",
    "subcategory": "City",
    "featured": false,
    "priority": 50
  },
  {
    "geonameId": 2742504,
    "name": "Baião",
    "latitude": 41.16273,
    "longitude": -8.0347,
    "category": "City",
    "subcategory": "County Seat",
    "featured": false,
    "priority": 50
  },
  {
    "geonameId": 6930127,
    "name": "Bairro Alto",
    "latitude": 38.7119,
    "longitude": -9.14411,
    "category": "City",
    "subcategory": "City",
    "featured": false,
    "priority": 50
  },
  {
    "geonameId": 2742494,
    "name": "Bairro do Loreto",
    "latitude": 40.23333,
    "longitude": -8.45,
    "category": "City",
    "subcategory": "City",
    "featured": false,
    "priority": 50
  },
  {
    "geonameId": 2742493,
    "name": "Bairro Novo",
    "latitude": 41.54317,
    "longitude": -8.40725,
    "category": "City",
    "subcategory": "City",
    "featured": false,
    "priority": 50
  },
  {
    "geonameId": 2742488,
    "name": "Bairro Silva Braga",
    "latitude": 41.17494,
    "longitude": -8.62681,
    "category": "City",
    "subcategory": "City",
    "featured": false,
    "priority": 50
  },
  {
    "geonameId": 11886963,
    "name": "Baixa",
    "latitude": 38.71139,
    "longitude": -9.13722,
    "category": "City",
    "subcategory": "City",
    "featured": false,
    "priority": 50
  },
  {
    "geonameId": 2271140,
    "name": "Barcarena",
    "latitude": 38.73245,
    "longitude": -9.28,
    "category": "City",
    "subcategory": "City",
    "featured": false,
    "priority": 50
  },
  {
    "geonameId": 2742416,
    "name": "Barcelos",
    "latitude": 41.53174,
    "longitude": -8.61843,
    "category": "City",
    "subcategory": "County Seat",
    "featured": false,
    "priority": 50
  },
  {
    "geonameId": 2266858,
    "name": "Barragem de Magos",
    "latitude": 38.99293,
    "longitude": -8.67994,
    "category": "Lake",
    "subcategory": "Lake",
    "featured": false,
    "priority": 50
  },
  {
    "geonameId": 2733380,
    "name": "Barragem de Travassos",
    "latitude": 41.56667,
    "longitude": -8.2,
    "category": "Lake",
    "subcategory": "Reservoir",
    "featured": false,
    "priority": 50
  },
  {
    "geonameId": 2271096,
    "name": "Barrancos",
    "latitude": 38.13446,
    "longitude": -6.97604,
    "category": "City",
    "subcategory": "County Seat",
    "featured": false,
    "priority": 50
  },
  {
    "geonameId": 2271071,
    "name": "Barreiro",
    "latitude": 38.66314,
    "longitude": -9.0724,
    "category": "City",
    "subcategory": "County Seat",
    "featured": false,
    "priority": 50
  },
  {
    "geonameId": 2742354,
    "name": "Barro",
    "latitude": 40.62458,
    "longitude": -8.62284,
    "category": "City",
    "subcategory": "City",
    "featured": false,
    "priority": 50
  },
  {
    "geonameId": 2742348,
    "name": "Barrocal",
    "latitude": 41.38333,
    "longitude": -6.31667,
    "category": "Mountain",
    "subcategory": "Mountain",
    "featured": false,
    "priority": 50
  },
  {
    "geonameId": 2742330,
    "name": "Barrosas",
    "latitude": 41.35534,
    "longitude": -8.29943,
    "category": "City",
    "subcategory": "City",
    "featured": false,
    "priority": 50
  },
  {
    "geonameId": 3373309,
    "name": "Bartholomeu",
    "latitude": 37.78333,
    "longitude": -25.16667,
    "category": "Mountain",
    "subcategory": "Mountain",
    "featured": false,
    "priority": 50
  },
  {
    "geonameId": 2271006,
    "name": "Batalha",
    "latitude": 39.66025,
    "longitude": -8.82475,
    "category": "City",
    "subcategory": "County Seat",
    "featured": false,
    "priority": 50
  },
  {
    "geonameId": 2271001,
    "name": "Beato António",
    "latitude": 38.73327,
    "longitude": -9.10335,
    "category": "City",
    "subcategory": "City",
    "featured": false,
    "priority": 50
  },
  {
    "geonameId": 2742309,
    "name": "Beduido",
    "latitude": 40.76427,
    "longitude": -8.5611,
    "category": "City",
    "subcategory": "City",
    "featured": false,
    "priority": 50
  },
  {
    "geonameId": 2270985,
    "name": "Beja",
    "latitude": 38.01469,
    "longitude": -7.86284,
    "category": "City",
    "subcategory": "Regional Capital",
    "featured": false,
    "priority": 50
  },
  {
    "geonameId": 2742294,
    "name": "Bela Vista",
    "latitude": 41.16045,
    "longitude": -8.58521,
    "category": "City",
    "subcategory": "City",
    "featured": false,
    "priority": 50
  },
  {
    "geonameId": 2270981,
    "name": "Belas",
    "latitude": 38.7767,
    "longitude": -9.26353,
    "category": "City",
    "subcategory": "City",
    "featured": false,
    "priority": 50
  },
  {
    "geonameId": 2270978,
    "name": "Belém",
    "latitude": 38.69875,
    "longitude": -9.19289,
    "category": "City",
    "subcategory": "City",
    "featured": false,
    "priority": 50
  },
  {
    "geonameId": 2742285,
    "name": "Belmonte",
    "latitude": 40.3593,
    "longitude": -7.34869,
    "category": "City",
    "subcategory": "County Seat",
    "featured": false,
    "priority": 50
  },
  {
    "geonameId": 2270940,
    "name": "Benavente",
    "latitude": 38.97919,
    "longitude": -8.80759,
    "category": "City",
    "subcategory": "County Seat",
    "featured": false,
    "priority": 50
  },
  {
    "geonameId": 2270935,
    "name": "Benedita",
    "latitude": 39.4247,
    "longitude": -8.96996,
    "category": "City",
    "subcategory": "City",
    "featured": false,
    "priority": 50
  },
  {
    "geonameId": 2270962,
    "name": "Benfica",
    "latitude": 38.75087,
    "longitude": -9.20282,
    "category": "City",
    "subcategory": "City",
    "featured": false,
    "priority": 50
  },
  {
    "geonameId": 2270813,
    "name": "Bobadela",
    "latitude": 38.80774,
    "longitude": -9.09925,
    "category": "City",
    "subcategory": "City",
    "featured": false,
    "priority": 50
  },
  {
    "geonameId": 2270770,
    "name": "Bombarral",
    "latitude": 39.26723,
    "longitude": -9.15795,
    "category": "City",
    "subcategory": "County Seat",
    "featured": false,
    "priority": 50
  },
  {
    "geonameId": 2742131,
    "name": "Bonjoia",
    "latitude": 41.15,
    "longitude": -8.58333,
    "category": "City",
    "subcategory": "City",
    "featured": false,
    "priority": 50
  },
  {
    "geonameId": 2270755,
    "name": "Borba",
    "latitude": 38.80553,
    "longitude": -7.45465,
    "category": "City",
    "subcategory": "County Seat",
    "featured": false,
    "priority": 50
  },
  {
    "geonameId": 11494590,
    "name": "Bornes",
    "latitude": 41.43415,
    "longitude": -7.00653,
    "category": "Mountain",
    "subcategory": "Mountain",
    "featured": false,
    "priority": 50
  },
  {
    "geonameId": 2742090,
    "name": "Boticas",
    "latitude": 41.68939,
    "longitude": -7.66914,
    "category": "City",
    "subcategory": "County Seat",
    "featured": false,
    "priority": 50
  },
  {
    "geonameId": 2742088,
    "name": "Bouça",
    "latitude": 41.66667,
    "longitude": -8.65,
    "category": "Mountain",
    "subcategory": "Mountain",
    "featured": false,
    "priority": 50
  },
  {
    "geonameId": 2742051,
    "name": "Bougado",
    "latitude": 41.33979,
    "longitude": -8.5518,
    "category": "City",
    "subcategory": "City",
    "featured": false,
    "priority": 50
  },
  {
    "geonameId": 2742032,
    "name": "Braga",
    "latitude": 41.5514,
    "longitude": -8.42311,
    "category": "City",
    "subcategory": "Regional Capital",
    "featured": false,
    "priority": 50
  },
  {
    "geonameId": 2742027,
    "name": "Bragança",
    "latitude": 41.80716,
    "longitude": -6.75898,
    "category": "City",
    "subcategory": "Regional Capital",
    "featured": false,
    "priority": 50
  },
  {
    "geonameId": 2742024,
    "name": "Branca",
    "latitude": 40.76653,
    "longitude": -8.48262,
    "category": "City",
    "subcategory": "City",
    "featured": false,
    "priority": 50
  },
  {
    "geonameId": 2741985,
    "name": "Brito",
    "latitude": 41.45821,
    "longitude": -8.36103,
    "category": "City",
    "subcategory": "City",
    "featured": false,
    "priority": 50
  },
  {
    "geonameId": 2741961,
    "name": "Buarcos",
    "latitude": 40.16604,
    "longitude": -8.8768,
    "category": "City",
    "subcategory": "City",
    "featured": false,
    "priority": 50
  },
  {
    "geonameId": 7535374,
    "name": "Buddha Eden",
    "latitude": 39.28992,
    "longitude": -9.13058,
    "category": "Park",
    "subcategory": "Park",
    "featured": false,
    "priority": 50
  },
  {
    "geonameId": 2270634,
    "name": "Bugio",
    "latitude": 38.66034,
    "longitude": -9.29897,
    "category": "Island",
    "subcategory": "Island",
    "featured": false,
    "priority": 50
  },
  {
    "geonameId": 2270629,
    "name": "Buraca",
    "latitude": 38.73333,
    "longitude": -9.2,
    "category": "City",
    "subcategory": "City",
    "featured": false,
    "priority": 50
  },
  {
    "geonameId": 2741878,
    "name": "Cabeça da Doida",
    "latitude": 40.7,
    "longitude": -8.71667,
    "category": "Island",
    "subcategory": "Island",
    "featured": false,
    "priority": 50
  },
  {
    "geonameId": 2262848,
    "name": "Cabeça do Sol",
    "latitude": 39.6,
    "longitude": -8.76667,
    "category": "Mountain",
    "subcategory": "Mountain",
    "featured": false,
    "priority": 50
  },
  {
    "geonameId": 2741872,
    "name": "Cabeça do Travessadouro",
    "latitude": 40.7,
    "longitude": -8.7,
    "category": "Island",
    "subcategory": "Island",
    "featured": false,
    "priority": 50
  },
  {
    "geonameId": 2739126,
    "name": "Cabeça Galega",
    "latitude": 40.23333,
    "longitude": -7.2,
    "category": "Mountain",
    "subcategory": "Mountain",
    "featured": false,
    "priority": 50
  },
  {
    "geonameId": 2267604,
    "name": "Cabeça Gorda",
    "latitude": 37.35,
    "longitude": -8.45,
    "category": "Mountain",
    "subcategory": "Mountain",
    "featured": false,
    "priority": 50
  },
  {
    "geonameId": 2741865,
    "name": "Cabeceiras de Basto",
    "latitude": 41.51431,
    "longitude": -7.98942,
    "category": "City",
    "subcategory": "County Seat",
    "featured": false,
    "priority": 50
  },
  {
    "geonameId": 2733620,
    "name": "Cabeceiro da Telha",
    "latitude": 40.03333,
    "longitude": -8.26667,
    "category": "Mountain",
    "subcategory": "Mountain",
    "featured": false,
    "priority": 50
  },
  {
    "geonameId": 9781776,
    "name": "Cabeço Agudo Grande",
    "latitude": 38.44542,
    "longitude": -28.2307,
    "category": "Mountain",
    "subcategory": "Mountain",
    "featured": false,
    "priority": 50
  },
  {
    "geonameId": 9781777,
    "name": "Cabeço Agudo Pequeno",
    "latitude": 38.44277,
    "longitude": -28.23156,
    "category": "Mountain",
    "subcategory": "Mountain",
    "featured": false,
    "priority": 50
  },
  {
    "geonameId": 2271068,
    "name": "Cabeço Barreiro",
    "latitude": 39.55029,
    "longitude": -8.61346,
    "category": "Mountain",
    "subcategory": "Mountain",
    "featured": false,
    "priority": 50
  },
  {
    "geonameId": 9781808,
    "name": "Cabeço Brasil",
    "latitude": 38.54441,
    "longitude": -28.48291,
    "category": "Mountain",
    "subcategory": "Mountain",
    "featured": false,
    "priority": 50
  },
  {
    "geonameId": 9781818,
    "name": "Cabeço Bravo",
    "latitude": 38.49028,
    "longitude": -28.49137,
    "category": "Mountain",
    "subcategory": "Mountain",
    "featured": false,
    "priority": 50
  },
  {
    "geonameId": 9781767,
    "name": "Cabeço Canzana",
    "latitude": 38.4228,
    "longitude": -28.17169,
    "category": "Mountain",
    "subcategory": "Mountain",
    "featured": false,
    "priority": 50
  },
  {
    "geonameId": 2742586,
    "name": "Cabeço da Aveleira",
    "latitude": 40.18947,
    "longitude": -8.007,
    "category": "Mountain",
    "subcategory": "Mountain",
    "featured": false,
    "priority": 50
  },
  {
    "geonameId": 9781779,
    "name": "Cabeço da Boia",
    "latitude": 38.45345,
    "longitude": -28.251,
    "category": "Mountain",
    "subcategory": "Mountain",
    "featured": false,
    "priority": 50
  },
  {
    "geonameId": 2742095,
    "name": "Cabeço da Botaca",
    "latitude": 41.31667,
    "longitude": -6.46667,
    "category": "Mountain",
    "subcategory": "Mountain",
    "featured": false,
    "priority": 50
  },
  {
    "geonameId": 9781841,
    "name": "Cabeço da Brindeira",
    "latitude": 38.46851,
    "longitude": -28.34597,
    "category": "Mountain",
    "subcategory": "Mountain",
    "featured": false,
    "priority": 50
  },
  {
    "geonameId": 2741791,
    "name": "Cabeço da Cacheira",
    "latitude": 40.04312,
    "longitude": -6.98664,
    "category": "Mountain",
    "subcategory": "Mountain",
    "featured": false,
    "priority": 50
  },
  {
    "geonameId": 2741247,
    "name": "Cabeço da Casa do Preto",
    "latitude": 40.27264,
    "longitude": -6.96542,
    "category": "Mountain",
    "subcategory": "Mountain",
    "featured": false,
    "priority": 50
  },
  {
    "geonameId": 2740682,
    "name": "Cabeço da Cobada Pequena",
    "latitude": 40.06667,
    "longitude": -8.08333,
    "category": "Mountain",
    "subcategory": "Mountain",
    "featured": false,
    "priority": 50
  },
  {
    "geonameId": 2740443,
    "name": "Cabeço da Costa",
    "latitude": 40.06667,
    "longitude": -7.83333,
    "category": "Mountain",
    "subcategory": "Mountain",
    "featured": false,
    "priority": 50
  },
  {
    "geonameId": 3373157,
    "name": "Cabeço da Cruz",
    "latitude": 38.47651,
    "longitude": -28.30434,
    "category": "Mountain",
    "subcategory": "Mountain",
    "featured": false,
    "priority": 50
  },
  {
    "geonameId": 9781756,
    "name": "Cabeço da Escaleira",
    "latitude": 38.41991,
    "longitude": -28.08444,
    "category": "Mountain",
    "subcategory": "Mountain",
    "featured": false,
    "priority": 50
  },
  {
    "geonameId": 2739895,
    "name": "Cabeço da Espiga",
    "latitude": 41.77155,
    "longitude": -6.84026,
    "category": "Mountain",
    "subcategory": "Mountain",
    "featured": false,
    "priority": 50
  },
  {
    "geonameId": 3373052,
    "name": "Cabeço da Fonte",
    "latitude": 38.59259,
    "longitude": -28.79783,
    "category": "Mountain",
    "subcategory": "Mountain",
    "featured": false,
    "priority": 50
  },
  {
    "geonameId": 2267657,
    "name": "Cabeço da Giesteira",
    "latitude": 39.59172,
    "longitude": -8.69372,
    "category": "Mountain",
    "subcategory": "Mountain",
    "featured": false,
    "priority": 50
  },
  {
    "geonameId": 9781741,
    "name": "Cabeço da Hera",
    "latitude": 38.41863,
    "longitude": -28.05329,
    "category": "Mountain",
    "subcategory": "Mountain",
    "featured": false,
    "priority": 50
  },
  {
    "geonameId": 9781823,
    "name": "Cabeço da Hortelas",
    "latitude": 38.4796,
    "longitude": -28.48171,
    "category": "Mountain",
    "subcategory": "Mountain",
    "featured": false,
    "priority": 50
  },
  {
    "geonameId": 9781742,
    "name": "Cabeço da Junca",
    "latitude": 38.42088,
    "longitude": -28.05599,
    "category": "Mountain",
    "subcategory": "Mountain",
    "featured": false,
    "priority": 50
  },
  {
    "geonameId": 9781763,
    "name": "Cabeço da Lagoinha",
    "latitude": 38.4232,
    "longitude": -28.12324,
    "category": "Mountain",
    "subcategory": "Mountain",
    "featured": false,
    "priority": 50
  },
  {
    "geonameId": 9781757,
    "name": "Cabeço da Lambisca",
    "latitude": 38.42875,
    "longitude": -28.08934,
    "category": "Mountain",
    "subcategory": "Mountain",
    "featured": false,
    "priority": 50
  },
  {
    "geonameId": 9781761,
    "name": "Cabeço da Lança",
    "latitude": 38.42293,
    "longitude": -28.11526,
    "category": "Mountain",
    "subcategory": "Mountain",
    "featured": false,
    "priority": 50
  },
  {
    "geonameId": 9781791,
    "name": "Cabeço da Lavandeira",
    "latitude": 38.47288,
    "longitude": -28.28417,
    "category": "Mountain",
    "subcategory": "Mountain",
    "featured": false,
    "priority": 50
  },
  {
    "geonameId": 2738282,
    "name": "Cabeço da Linteira",
    "latitude": 40.01667,
    "longitude": -7.96667,
    "category": "Mountain",
    "subcategory": "Mountain",
    "featured": false,
    "priority": 50
  },
  {
    "geonameId": 2266956,
    "name": "Cabeço da Lousa",
    "latitude": 39.91667,
    "longitude": -7.7,
    "category": "Mountain",
    "subcategory": "Mountain",
    "featured": false,
    "priority": 50
  },
  {
    "geonameId": 2738075,
    "name": "Cabeço da Maceira",
    "latitude": 41.85,
    "longitude": -6.93333,
    "category": "Mountain",
    "subcategory": "Mountain",
    "featured": false,
    "priority": 50
  },
  {
    "geonameId": 2737985,
    "name": "Cabeço da Malhada Velha",
    "latitude": 40.4,
    "longitude": -7.68333,
    "category": "Mountain",
    "subcategory": "Mountain",
    "featured": false,
    "priority": 50
  },
  {
    "geonameId": 2737850,
    "name": "Cabeço da Mata",
    "latitude": 40.1208,
    "longitude": -8.04542,
    "category": "Mountain",
    "subcategory": "Mountain",
    "featured": false,
    "priority": 50
  },
  {
    "geonameId": 2266365,
    "name": "Cabeço da Mó",
    "latitude": 39.88333,
    "longitude": -7.8,
    "category": "Mountain",
    "subcategory": "Mountain",
    "featured": false,
    "priority": 50
  },
  {
    "geonameId": 2737591,
    "name": "Cabeço da Mogueira",
    "latitude": 40.3,
    "longitude": -8.23333,
    "category": "Mountain",
    "subcategory": "Mountain",
    "featured": false,
    "priority": 50
  },
  {
    "geonameId": 2736525,
    "name": "Cabeço da Pedrosa",
    "latitude": 41.83333,
    "longitude": -6.93333,
    "category": "Mountain",
    "subcategory": "Mountain",
    "featured": false,
    "priority": 50
  },
  {
    "geonameId": 2736482,
    "name": "Cabeço da Pena",
    "latitude": 41.4,
    "longitude": -7.56667,
    "category": "Mountain",
    "subcategory": "Mountain",
    "featured": false,
    "priority": 50
  },
  {
    "geonameId": 2736267,
    "name": "Cabeço da Picota",
    "latitude": 40.2,
    "longitude": -7.91667,
    "category": "Mountain",
    "subcategory": "Mountain",
    "featured": false,
    "priority": 50
  },
  {
    "geonameId": 2736112,
    "name": "Cabeço da Pola",
    "latitude": 41.68333,
    "longitude": -7.31667,
    "category": "Mountain",
    "subcategory": "Mountain",
    "featured": false,
    "priority": 50
  },
  {
    "geonameId": 2264478,
    "name": "Cabeço da Portela",
    "latitude": 39.98213,
    "longitude": -7.851,
    "category": "Mountain",
    "subcategory": "Mountain",
    "featured": false,
    "priority": 50
  },
  {
    "geonameId": 9781830,
    "name": "Cabeço da Prainha",
    "latitude": 38.43184,
    "longitude": -28.43536,
    "category": "Mountain",
    "subcategory": "Mountain",
    "featured": false,
    "priority": 50
  },
  {
    "geonameId": 2735632,
    "name": "Cabeço da Quinta",
    "latitude": 41.26667,
    "longitude": -6.68333,
    "category": "Mountain",
    "subcategory": "Mountain",
    "featured": false,
    "priority": 50
  },
  {
    "geonameId": 2735444,
    "name": "Cabeço da Raposa",
    "latitude": 41.06667,
    "longitude": -6.86667,
    "category": "Mountain",
    "subcategory": "Mountain",
    "featured": false,
    "priority": 50
  },
  {
    "geonameId": 9781759,
    "name": "Cabeço da Ribeira da Laje",
    "latitude": 38.43258,
    "longitude": -28.09912,
    "category": "Mountain",
    "subcategory": "Mountain",
    "featured": false,
    "priority": 50
  },
  {
    "geonameId": 3372685,
    "name": "Cabeço da Rocha",
    "latitude": 38.45557,
    "longitude": -28.26508,
    "category": "Mountain",
    "subcategory": "Mountain",
    "featured": false,
    "priority": 50
  },
  {
    "geonameId": 3372681,
    "name": "Cabeço da Rochinha",
    "latitude": 38.42774,
    "longitude": -28.12406,
    "category": "Mountain",
    "subcategory": "Mountain",
    "featured": false,
    "priority": 50
  },
  {
    "geonameId": 3372555,
    "name": "Cabeço da Serreta",
    "latitude": 38.48699,
    "longitude": -28.28722,
    "category": "Mountain",
    "subcategory": "Mountain",
    "featured": false,
    "priority": 50
  },
  {
    "geonameId": 9781744,
    "name": "Cabeço da Silva",
    "latitude": 38.42613,
    "longitude": -28.06277,
    "category": "Mountain",
    "subcategory": "Mountain",
    "featured": false,
    "priority": 50
  },
  {
    "geonameId": 2733570,
    "name": "Cabeço da Testa",
    "latitude": 41.65,
    "longitude": -6.86667,
    "category": "Mountain",
    "subcategory": "Mountain",
    "featured": false,
    "priority": 50
  },
  {
    "geonameId": 2733548,
    "name": "Cabeço da Toita",
    "latitude": 40.1,
    "longitude": -7.95,
    "category": "Mountain",
    "subcategory": "Mountain",
    "featured": false,
    "priority": 50
  },
  {
    "geonameId": 2732780,
    "name": "Cabeço da Vessada do Monte",
    "latitude": 41.66667,
    "longitude": -8.08333,
    "category": "Mountain",
    "subcategory": "Mountain",
    "featured": false,
    "priority": 50
  },
  {
    "geonameId": 2742961,
    "name": "Cabeço das Amarelas de Santa Eugénia",
    "latitude": 41.35,
    "longitude": -7.4,
    "category": "Mountain",
    "subcategory": "Mountain",
    "featured": false,
    "priority": 50
  },
  {
    "geonameId": 9781762,
    "name": "Cabeço das Cabras",
    "latitude": 38.42982,
    "longitude": -28.12715,
    "category": "Mountain",
    "subcategory": "Mountain",
    "featured": false,
    "priority": 50
  },
  {
    "geonameId": 9781817,
    "name": "Cabeço das Casas",
    "latitude": 38.49397,
    "longitude": -28.52252,
    "category": "Mountain",
    "subcategory": "Mountain",
    "featured": false,
    "priority": 50
  },
  {
    "geonameId": 9781840,
    "name": "Cabeço das Cavacas",
    "latitude": 38.46985,
    "longitude": -28.34597,
    "category": "Mountain",
    "subcategory": "Mountain",
    "featured": false,
    "priority": 50
  },
  {
    "geonameId": 9781758,
    "name": "Cabeço das Coyas",
    "latitude": 38.419,
    "longitude": -28.09007,
    "category": "Mountain",
    "subcategory": "Mountain",
    "featured": false,
    "priority": 50
  },
  {
    "geonameId": 9781743,
    "name": "Cabeço das Cruzes",
    "latitude": 38.41964,
    "longitude": -28.06483,
    "category": "Mountain",
    "subcategory": "Mountain",
    "featured": false,
    "priority": 50
  },
  {
    "geonameId": 2739273,
    "name": "Cabeço das Freiras",
    "latitude": 40.05,
    "longitude": -8.06667,
    "category": "Mountain",
    "subcategory": "Mountain",
    "featured": false,
    "priority": 50
  },
  {
    "geonameId": 2739089,
    "name": "Cabeço das Gândaras",
    "latitude": 41.15,
    "longitude": -7.16667,
    "category": "Mountain",
    "subcategory": "Mountain",
    "featured": false,
    "priority": 50
  },
  {
    "geonameId": 2738473,
    "name": "Cabeço das Lamas",
    "latitude": 40.11667,
    "longitude": -7.85,
    "category": "Mountain",
    "subcategory": "Mountain",
    "featured": false,
    "priority": 50
  },
  {
    "geonameId": 2736499,
    "name": "Cabeço das Peladinhas",
    "latitude": 41.2,
    "longitude": -6.81667,
    "category": "Mountain",
    "subcategory": "Mountain",
    "featured": false,
    "priority": 50
  },
  {
    "geonameId": 2736013,
    "name": "Cabeço das Porqueiras",
    "latitude": 41.41667,
    "longitude": -6.33333,
    "category": "Mountain",
    "subcategory": "Mountain",
    "featured": false,
    "priority": 50
  },
  {
    "geonameId": 2733463,
    "name": "Cabeço das Torvas",
    "latitude": 40.11667,
    "longitude": -7.85,
    "category": "Mountain",
    "subcategory": "Mountain",
    "featured": false,
    "priority": 50
  },
  {
    "geonameId": 2732278,
    "name": "Cabeço das Vinhas",
    "latitude": 41.43333,
    "longitude": -6.4,
    "category": "Mountain",
    "subcategory": "Mountain",
    "featured": false,
    "priority": 50
  },
  {
    "geonameId": 2743267,
    "name": "Cabeço de Aigra",
    "latitude": 40.1,
    "longitude": -8.15,
    "category": "Mountain",
    "subcategory": "Mountain",
    "featured": false,
    "priority": 50
  },
  {
    "geonameId": 9781832,
    "name": "Cabeço de Baixo",
    "latitude": 38.41597,
    "longitude": -28.36623,
    "category": "Mountain",
    "subcategory": "Mountain",
    "featured": false,
    "priority": 50
  },
  {
    "geonameId": 2271155,
    "name": "Cabeço de Bárbara Gomes",
    "latitude": 33.07495,
    "longitude": -16.36613,
    "category": "Mountain",
    "subcategory": "Mountain",
    "featured": false,
    "priority": 50
  },
  {
    "geonameId": 2741955,
    "name": "Cabeço de Bugalheira",
    "latitude": 41.8,
    "longitude": -6.86667,
    "category": "Mountain",
    "subcategory": "Mountain",
    "featured": false,
    "priority": 50
  },
  {
    "geonameId": 2270300,
    "name": "Cabeço de Cancela",
    "latitude": 32.73333,
    "longitude": -16.73333,
    "category": "Mountain",
    "subcategory": "Mountain",
    "featured": false,
    "priority": 50
  },
  {
    "geonameId": 3373183,
    "name": "Cabeço de Cima",
    "latitude": 38.4927,
    "longitude": -28.5169,
    "category": "Mountain",
    "subcategory": "Mountain",
    "featured": false,
    "priority": 50
  },
  {
    "geonameId": 2740648,
    "name": "Cabeço de Coelho",
    "latitude": 40.98333,
    "longitude": -8.05,
    "category": "Mountain",
    "subcategory": "Mountain",
    "featured": false,
    "priority": 50
  },
  {
    "geonameId": 9781782,
    "name": "Cabeço de Evora",
    "latitude": 38.44821,
    "longitude": -28.26945,
    "category": "Mountain",
    "subcategory": "Mountain",
    "featured": false,
    "priority": 50
  },
  {
    "geonameId": 2738472,
    "name": "Cabeço de Lamas",
    "latitude": 41.86667,
    "longitude": -7.78333,
    "category": "Mountain",
    "subcategory": "Mountain",
    "featured": false,
    "priority": 50
  },
  {
    "geonameId": 9781810,
    "name": "Cabeço de Limoeiro",
    "latitude": 38.53541,
    "longitude": -28.48141,
    "category": "Mountain",
    "subcategory": "Mountain",
    "featured": false,
    "priority": 50
  },
  {
    "geonameId": 2737267,
    "name": "Cabeço de Moz Pedroso",
    "latitude": 41.85,
    "longitude": -7.85,
    "category": "Mountain",
    "subcategory": "Mountain",
    "featured": false,
    "priority": 50
  },
  {
    "geonameId": 2736813,
    "name": "Cabeço de Palheiros",
    "latitude": 41.8,
    "longitude": -8.15,
    "category": "Mountain",
    "subcategory": "Mountain",
    "featured": false,
    "priority": 50
  },
  {
    "geonameId": 2734632,
    "name": "Cabeço de Santiago",
    "latitude": 40.66667,
    "longitude": -7.58333,
    "category": "Mountain",
    "subcategory": "Mountain",
    "featured": false,
    "priority": 50
  },
  {
    "geonameId": 2734538,
    "name": "Cabeço de São Cristóvão",
    "latitude": 41.35,
    "longitude": -7.2,
    "category": "Mountain",
    "subcategory": "Mountain",
    "featured": false,
    "priority": 50
  },
  {
    "geonameId": 3372599,
    "name": "Cabeço de São Mateus",
    "latitude": 38.43026,
    "longitude": -28.44197,
    "category": "Mountain",
    "subcategory": "Mountain",
    "featured": false,
    "priority": 50
  },
  {
    "geonameId": 2263090,
    "name": "Cabeço de Seladolinho",
    "latitude": 39.87673,
    "longitude": -7.91554,
    "category": "Mountain",
    "subcategory": "Mountain",
    "featured": false,
    "priority": 50
  },
  {
    "geonameId": 2733672,
    "name": "Cabeço de Targal",
    "latitude": 40.03333,
    "longitude": -8.23333,
    "category": "Mountain",
    "subcategory": "Mountain",
    "featured": false,
    "priority": 50
  },
  {
    "geonameId": 2732783,
    "name": "Cabeço de Vermum",
    "latitude": 40.21667,
    "longitude": -7.85,
    "category": "Mountain",
    "subcategory": "Mountain",
    "featured": false,
    "priority": 50
  },
  {
    "geonameId": 9781813,
    "name": "Cabeço Debaixo da Rocha",
    "latitude": 38.55166,
    "longitude": -28.493,
    "category": "Mountain",
    "subcategory": "Mountain",
    "featured": false,
    "priority": 50
  },
  {
    "geonameId": 2743275,
    "name": "Cabeço do Aguilhão",
    "latitude": 40.06667,
    "longitude": -7.78333,
    "category": "Mountain",
    "subcategory": "Mountain",
    "featured": false,
    "priority": 50
  },
  {
    "geonameId": 2742694,
    "name": "Cabeço do Arraçaio",
    "latitude": 40.26667,
    "longitude": -7.65,
    "category": "Mountain",
    "subcategory": "Mountain",
    "featured": false,
    "priority": 50
  },
  {
    "geonameId": 9781806,
    "name": "Cabeço do Arvore",
    "latitude": 38.52635,
    "longitude": -28.35142,
    "category": "Mountain",
    "subcategory": "Mountain",
    "featured": false,
    "priority": 50
  },
  {
    "geonameId": 2270851,
    "name": "Cabeço do Bispo",
    "latitude": 38.80186,
    "longitude": -9.2206,
    "category": "Mountain",
    "subcategory": "Mountain",
    "featured": false,
    "priority": 50
  },
  {
    "geonameId": 2741950,
    "name": "Cabeço do Bulde",
    "latitude": 40.25,
    "longitude": -7.71667,
    "category": "Mountain",
    "subcategory": "Mountain",
    "featured": false,
    "priority": 50
  },
  {
    "geonameId": 3373244,
    "name": "Cabeço do Caminho Escuro",
    "latitude": 38.42347,
    "longitude": -28.08947,
    "category": "Mountain",
    "subcategory": "Mountain",
    "featured": false,
    "priority": 50
  },
  {
    "geonameId": 2741668,
    "name": "Cabeço do Campanário",
    "latitude": 40.41667,
    "longitude": -7.63333,
    "category": "Mountain",
    "subcategory": "Mountain",
    "featured": false,
    "priority": 50
  },
  {
    "geonameId": 9781466,
    "name": "Cabeço do Canto",
    "latitude": 38.59802,
    "longitude": -28.81113,
    "category": "Mountain",
    "subcategory": "Mountain",
    "featured": false,
    "priority": 50
  },
  {
    "geonameId": 9781754,
    "name": "Cabeço do Carneiro",
    "latitude": 38.42673,
    "longitude": -28.07363,
    "category": "Mountain",
    "subcategory": "Mountain",
    "featured": false,
    "priority": 50
  },
  {
    "geonameId": 2741033,
    "name": "Cabeço do Castanheiro",
    "latitude": 41.38333,
    "longitude": -6.4,
    "category": "Mountain",
    "subcategory": "Mountain",
    "featured": false,
    "priority": 50
  },
  {
    "geonameId": 2740936,
    "name": "Cabeço do Cavalo",
    "latitude": 40.53333,
    "longitude": -6.8,
    "category": "Mountain",
    "subcategory": "Mountain",
    "featured": false,
    "priority": 50
  },
  {
    "geonameId": 9781771,
    "name": "Cabeço do Caveiro",
    "latitude": 38.4352,
    "longitude": -28.1995,
    "category": "Mountain",
    "subcategory": "Mountain",
    "featured": false,
    "priority": 50
  },
  {
    "geonameId": 2740685,
    "name": "Cabeço do Clérigo",
    "latitude": 40.25,
    "longitude": -6.95,
    "category": "Mountain",
    "subcategory": "Mountain",
    "featured": false,
    "priority": 50
  },
  {
    "geonameId": 9781790,
    "name": "Cabeço do Coelho",
    "latitude": 38.46891,
    "longitude": -28.28379,
    "category": "Mountain",
    "subcategory": "Mountain",
    "featured": false,
    "priority": 50
  },
  {
    "geonameId": 9781843,
    "name": "Cabeço do Coiro",
    "latitude": 38.46192,
    "longitude": -28.35623,
    "category": "Mountain",
    "subcategory": "Mountain",
    "featured": false,
    "priority": 50
  },
  {
    "geonameId": 2740192,
    "name": "Cabeço do Curral",
    "latitude": 41.45,
    "longitude": -6.83333,
    "category": "Mountain",
    "subcategory": "Mountain",
    "featured": false,
    "priority": 50
  },
  {
    "geonameId": 3373141,
    "name": "Cabeço do Dório",
    "latitude": 38.46253,
    "longitude": -28.47974,
    "category": "Mountain",
    "subcategory": "Mountain",
    "featured": false,
    "priority": 50
  },
  {
    "geonameId": 3373127,
    "name": "Cabeço do Escalvado",
    "latitude": 38.47718,
    "longitude": -28.36009,
    "category": "Mountain",
    "subcategory": "Mountain",
    "featured": false,
    "priority": 50
  },
  {
    "geonameId": 2739865,
    "name": "Cabeço do Espinho",
    "latitude": 40.23333,
    "longitude": -7.71667,
    "category": "Mountain",
    "subcategory": "Mountain",
    "featured": false,
    "priority": 50
  },
  {
    "geonameId": 2739675,
    "name": "Cabeço do Fernando",
    "latitude": 40.15,
    "longitude": -7.98333,
    "category": "Mountain",
    "subcategory": "Mountain",
    "featured": false,
    "priority": 50
  },
  {
    "geonameId": 9781786,
    "name": "Cabeço do Ferrobo",
    "latitude": 38.44162,
    "longitude": -28.28791,
    "category": "Mountain",
    "subcategory": "Mountain",
    "featured": false,
    "priority": 50
  },
  {
    "geonameId": 2739533,
    "name": "Cabeço do Fojo",
    "latitude": 41.43333,
    "longitude": -6.91667,
    "category": "Mountain",
    "subcategory": "Mountain",
    "featured": false,
    "priority": 50
  },
  {
    "geonameId": 2739058,
    "name": "Cabeço do Gato",
    "latitude": 40.16667,
    "longitude": -8,
    "category": "Mountain",
    "subcategory": "Mountain",
    "featured": false,
    "priority": 50
  },
  {
    "geonameId": 2738611,
    "name": "Cabeço do Labanho",
    "latitude": 41.75,
    "longitude": -6.9,
    "category": "Mountain",
    "subcategory": "Mountain",
    "featured": false,
    "priority": 50
  },
  {
    "geonameId": 2267105,
    "name": "Cabeço do Leão",
    "latitude": 39.36667,
    "longitude": -7.38333,
    "category": "Mountain",
    "subcategory": "Mountain",
    "featured": false,
    "priority": 50
  },
  {
    "geonameId": 9781766,
    "name": "Cabeço do Lertao",
    "latitude": 38.42777,
    "longitude": -28.16311,
    "category": "Mountain",
    "subcategory": "Mountain",
    "featured": false,
    "priority": 50
  },
  {
    "geonameId": 9781760,
    "name": "Cabeço do Lopez",
    "latitude": 38.4272,
    "longitude": -28.11311,
    "category": "Mountain",
    "subcategory": "Mountain",
    "featured": false,
    "priority": 50
  },
  {
    "geonameId": 2737984,
    "name": "Cabeço do Malhado",
    "latitude": 41.43333,
    "longitude": -6.65,
    "category": "Mountain",
    "subcategory": "Mountain",
    "featured": false,
    "priority": 50
  },
  {
    "geonameId": 9781828,
    "name": "Cabeço do Manuel da Costa",
    "latitude": 38.44667,
    "longitude": -28.48176,
    "category": "Mountain",
    "subcategory": "Mountain",
    "featured": false,
    "priority": 50
  },
  {
    "geonameId": 3372888,
    "name": "Cabeço do Manuel João",
    "latitude": 38.48867,
    "longitude": -28.48686,
    "category": "Mountain",
    "subcategory": "Mountain",
    "featured": false,
    "priority": 50
  },
  {
    "geonameId": 9781833,
    "name": "Cabeço do Mariano",
    "latitude": 38.43648,
    "longitude": -28.32331,
    "category": "Mountain",
    "subcategory": "Mountain",
    "featured": false,
    "priority": 50
  },
  {
    "geonameId": 9781787,
    "name": "Cabeço do Meio",
    "latitude": 38.43275,
    "longitude": -28.27675,
    "category": "Mountain",
    "subcategory": "Mountain",
    "featured": false,
    "priority": 50
  },
  {
    "geonameId": 9781783,
    "name": "Cabeço do Misterio",
    "latitude": 38.468,
    "longitude": -28.26915,
    "category": "Mountain",
    "subcategory": "Mountain",
    "featured": false,
    "priority": 50
  },
  {
    "geonameId": 2737612,
    "name": "Cabeço do Moço",
    "latitude": 41.46667,
    "longitude": -8.23333,
    "category": "Mountain",
    "subcategory": "Mountain",
    "featured": false,
    "priority": 50
  },
  {
    "geonameId": 3372868,
    "name": "Cabeço do Moiro",
    "latitude": 38.45392,
    "longitude": -28.33022,
    "category": "Mountain",
    "subcategory": "Mountain",
    "featured": false,
    "priority": 50
  },
  {
    "geonameId": 2737457,
    "name": "Cabeço do Monte de Vento",
    "latitude": 41.41667,
    "longitude": -6.55,
    "category": "Mountain",
    "subcategory": "Mountain",
    "featured": false,
    "priority": 50
  },
  {
    "geonameId": 2737427,
    "name": "Cabeço do Monte Redondo",
    "latitude": 40.2,
    "longitude": -7.96667,
    "category": "Mountain",
    "subcategory": "Mountain",
    "featured": false,
    "priority": 50
  },
  {
    "geonameId": 2265668,
    "name": "Cabeço do Mouro",
    "latitude": 39.31787,
    "longitude": -7.42841,
    "category": "Mountain",
    "subcategory": "Mountain",
    "featured": false,
    "priority": 50
  },
  {
    "geonameId": 3372832,
    "name": "Cabeço do Padre Glória",
    "latitude": 38.43577,
    "longitude": -28.15667,
    "category": "Mountain",
    "subcategory": "Mountain",
    "featured": false,
    "priority": 50
  },
  {
    "geonameId": 3372831,
    "name": "Cabeço do Padre Roque",
    "latitude": 38.43003,
    "longitude": -28.15019,
    "category": "Mountain",
    "subcategory": "Mountain",
    "featured": false,
    "priority": 50
  },
  {
    "geonameId": 9781768,
    "name": "Cabeço do Palinha",
    "latitude": 38.42969,
    "longitude": -28.16517,
    "category": "Mountain",
    "subcategory": "Mountain",
    "featured": false,
    "priority": 50
  },
  {
    "geonameId": 9781839,
    "name": "Cabeço do Passagem",
    "latitude": 38.43013,
    "longitude": -28.34481,
    "category": "Mountain",
    "subcategory": "Mountain",
    "featured": false,
    "priority": 50
  },
  {
    "geonameId": 2736490,
    "name": "Cabeço do Pelorenço",
    "latitude": 40.08333,
    "longitude": -7.95,
    "category": "Mountain",
    "subcategory": "Mountain",
    "featured": false,
    "priority": 50
  },
  {
    "geonameId": 2736296,
    "name": "Cabeço do Pião",
    "latitude": 40.16667,
    "longitude": -8.06667,
    "category": "Mountain",
    "subcategory": "Mountain",
    "featured": false,
    "priority": 50
  },
  {
    "geonameId": 3372794,
    "name": "Cabeço do Piquinho",
    "latitude": 38.49407,
    "longitude": -28.33447,
    "category": "Mountain",
    "subcategory": "Mountain",
    "featured": false,
    "priority": 50
  },
  {
    "geonameId": 2736119,
    "name": "Cabeço do Poio",
    "latitude": 41.36667,
    "longitude": -6.66667,
    "category": "Mountain",
    "subcategory": "Mountain",
    "featured": false,
    "priority": 50
  },
  {
    "geonameId": 2736086,
    "name": "Cabeço do Pombal",
    "latitude": 40.25,
    "longitude": -7.3,
    "category": "Mountain",
    "subcategory": "Mountain",
    "featured": false,
    "priority": 50
  },
  {
    "geonameId": 2264076,
    "name": "Cabeço do Ramalho",
    "latitude": 37.38333,
    "longitude": -8.21667,
    "category": "Mountain",
    "subcategory": "Mountain",
    "featured": false,
    "priority": 50
  },
  {
    "geonameId": 9781789,
    "name": "Cabeço do Redondo",
    "latitude": 38.46891,
    "longitude": -28.29194,
    "category": "Mountain",
    "subcategory": "Mountain",
    "featured": false,
    "priority": 50
  },
  {
    "geonameId": 2735146,
    "name": "Cabeço do Ribeiro do Boi",
    "latitude": 40.35,
    "longitude": -7.46667,
    "category": "Mountain",
    "subcategory": "Mountain",
    "featured": false,
    "priority": 50
  },
  {
    "geonameId": 2734035,
    "name": "Cabeço do Servo",
    "latitude": 41.1,
    "longitude": -7.03333,
    "category": "Mountain",
    "subcategory": "Mountain",
    "featured": false,
    "priority": 50
  },
  {
    "geonameId": 9781788,
    "name": "Cabeço do Silvado",
    "latitude": 38.46199,
    "longitude": -28.28962,
    "category": "Mountain",
    "subcategory": "Mountain",
    "featured": false,
    "priority": 50
  },
  {
    "geonameId": 3372543,
    "name": "Cabeço do Sintrão",
    "latitude": 38.47785,
    "longitude": -28.334,
    "category": "Mountain",
    "subcategory": "Mountain",
    "featured": false,
    "priority": 50
  },
  {
    "geonameId": 2733892,
    "name": "Cabeço do Sobreiro",
    "latitude": 41,
    "longitude": -8.38333,
    "category": "Mountain",
    "subcategory": "Mountain",
    "featured": false,
    "priority": 50
  },
  {
    "geonameId": 2733874,
    "name": "Cabeço do Soito",
    "latitude": 40.08333,
    "longitude": -7.85,
    "category": "Mountain",
    "subcategory": "Mountain",
    "featured": false,
    "priority": 50
  },
  {
    "geonameId": 2733797,
    "name": "Cabeço do Souto",
    "latitude": 41.3,
    "longitude": -6.81667,
    "category": "Mountain",
    "subcategory": "Mountain",
    "featured": false,
    "priority": 50
  },
  {
    "geonameId": 9781819,
    "name": "Cabeço do Tamusgo",
    "latitude": 38.48477,
    "longitude": -28.4739,
    "category": "Mountain",
    "subcategory": "Mountain",
    "featured": false,
    "priority": 50
  },
  {
    "geonameId": 3372532,
    "name": "Cabeço do Teicho",
    "latitude": 38.48944,
    "longitude": -28.34361,
    "category": "Mountain",
    "subcategory": "Mountain",
    "featured": false,
    "priority": 50
  },
  {
    "geonameId": 2262623,
    "name": "Cabeço do Torrasterra",
    "latitude": 39.95,
    "longitude": -7.85,
    "category": "Mountain",
    "subcategory": "Mountain",
    "featured": false,
    "priority": 50
  },
  {
    "geonameId": 2733200,
    "name": "Cabeço do Vale da Amoreira",
    "latitude": 40.26667,
    "longitude": -7.23333,
    "category": "Mountain",
    "subcategory": "Mountain",
    "featured": false,
    "priority": 50
  },
  {
    "geonameId": 2733189,
    "name": "Cabeço do Vale da Piçarra",
    "latitude": 40.1,
    "longitude": -8.03333,
    "category": "Mountain",
    "subcategory": "Mountain",
    "featured": false,
    "priority": 50
  },
  {
    "geonameId": 2733049,
    "name": "Cabeço do Vale do Pereiro",
    "latitude": 40.08333,
    "longitude": -7.75,
    "category": "Mountain",
    "subcategory": "Mountain",
    "featured": false,
    "priority": 50
  },
  {
    "geonameId": 2261735,
    "name": "Cabeço do Vento",
    "latitude": 39.59603,
    "longitude": -8.68196,
    "category": "Mountain",
    "subcategory": "Mountain",
    "featured": false,
    "priority": 50
  },
  {
    "geonameId": 9781845,
    "name": "Cabeço do Vermelho",
    "latitude": 38.46428,
    "longitude": -28.32619,
    "category": "Mountain",
    "subcategory": "Mountain",
    "featured": false,
    "priority": 50
  },
  {
    "geonameId": 2261441,
    "name": "Cabeço do Zimbralinho",
    "latitude": 33.03333,
    "longitude": -16.38333,
    "category": "Mountain",
    "subcategory": "Mountain",
    "featured": false,
    "priority": 50
  },
  {
    "geonameId": 9781847,
    "name": "Cabeço dos Bois",
    "latitude": 38.45661,
    "longitude": -28.31224,
    "category": "Mountain",
    "subcategory": "Mountain",
    "featured": false,
    "priority": 50
  },
  {
    "geonameId": 2736431,
    "name": "Cabeço dos Penedos",
    "latitude": 40.03333,
    "longitude": -8.23333,
    "category": "Mountain",
    "subcategory": "Mountain",
    "featured": false,
    "priority": 50
  },
  {
    "geonameId": 9781764,
    "name": "Cabeço dos Sardos",
    "latitude": 38.42754,
    "longitude": -28.138,
    "category": "Mountain",
    "subcategory": "Mountain",
    "featured": false,
    "priority": 50
  },
  {
    "geonameId": 2733683,
    "name": "Cabeço dos Tamões",
    "latitude": 41.38333,
    "longitude": -7.75,
    "category": "Mountain",
    "subcategory": "Mountain",
    "featured": false,
    "priority": 50
  },
  {
    "geonameId": 2262508,
    "name": "Cabeço dos Três Marcos",
    "latitude": 39.86879,
    "longitude": -7.8505,
    "category": "Mountain",
    "subcategory": "Peak",
    "featured": false,
    "priority": 50
  },
  {
    "geonameId": 3373128,
    "name": "Cabeço Escalvado",
    "latitude": 38.44401,
    "longitude": -28.21963,
    "category": "Mountain",
    "subcategory": "Mountain",
    "featured": false,
    "priority": 50
  },
  {
    "geonameId": 2739563,
    "name": "Cabeço Figueiro",
    "latitude": 41.41667,
    "longitude": -7.13333,
    "category": "Mountain",
    "subcategory": "Mountain",
    "featured": false,
    "priority": 50
  },
  {
    "geonameId": 2267597,
    "name": "Cabeço Gordo",
    "latitude": 39.5,
    "longitude": -8.88333,
    "category": "Mountain",
    "subcategory": "Mountain",
    "featured": false,
    "priority": 50
  },
  {
    "geonameId": 3373004,
    "name": "Cabeço Grande",
    "latitude": 38.52463,
    "longitude": -28.36056,
    "category": "Mountain",
    "subcategory": "Mountain",
    "featured": false,
    "priority": 50
  },
  {
    "geonameId": 9781811,
    "name": "Cabeço Labate",
    "latitude": 38.54269,
    "longitude": -28.47656,
    "category": "Mountain",
    "subcategory": "Mountain",
    "featured": false,
    "priority": 50
  },
  {
    "geonameId": 2737807,
    "name": "Cabeço Meão",
    "latitude": 41.15,
    "longitude": -7.15,
    "category": "Mountain",
    "subcategory": "Mountain",
    "featured": false,
    "priority": 50
  },
  {
    "geonameId": 2737743,
    "name": "Cabeço Melhano",
    "latitude": 40.32153,
    "longitude": -6.90796,
    "category": "Mountain",
    "subcategory": "Mountain",
    "featured": false,
    "priority": 50
  },
  {
    "geonameId": 9781785,
    "name": "Cabeço Negro",
    "latitude": 38.44945,
    "longitude": -28.28074,
    "category": "Mountain",
    "subcategory": "Mountain",
    "featured": false,
    "priority": 50
  },
  {
    "geonameId": 3372810,
    "name": "Cabeço Pequeno",
    "latitude": 38.52037,
    "longitude": -28.49416,
    "category": "Mountain",
    "subcategory": "Mountain",
    "featured": false,
    "priority": 50
  },
  {
    "geonameId": 9781774,
    "name": "Cabeço Raso",
    "latitude": 38.4424,
    "longitude": -28.22362,
    "category": "Mountain",
    "subcategory": "Mountain",
    "featured": false,
    "priority": 50
  },
  {
    "geonameId": 3372546,
    "name": "Cabeço Silvado",
    "latitude": 38.41843,
    "longitude": -28.10238,
    "category": "Mountain",
    "subcategory": "Mountain",
    "featured": false,
    "priority": 50
  },
  {
    "geonameId": 2262856,
    "name": "Cabeço Sobreiro",
    "latitude": 39.56007,
    "longitude": -8.67895,
    "category": "Mountain",
    "subcategory": "Mountain",
    "featured": false,
    "priority": 50
  },
  {
    "geonameId": 9781812,
    "name": "Cabeço Toledo",
    "latitude": 38.54199,
    "longitude": -28.50476,
    "category": "Mountain",
    "subcategory": "Mountain",
    "featured": false,
    "priority": 50
  },
  {
    "geonameId": 2733033,
    "name": "Cabeço Vale Grande",
    "latitude": 40.5,
    "longitude": -8.23333,
    "category": "Mountain",
    "subcategory": "Mountain",
    "featured": false,
    "priority": 50
  },
  {
    "geonameId": 3372482,
    "name": "Cabeço Verde",
    "latitude": 38.58333,
    "longitude": -28.76667,
    "category": "Mountain",
    "subcategory": "Mountain",
    "featured": false,
    "priority": 50
  },
  {
    "geonameId": 2270530,
    "name": "Cabo Ruivo",
    "latitude": 38.75604,
    "longitude": -9.09671,
    "category": "City",
    "subcategory": "City",
    "featured": false,
    "priority": 50
  },
  {
    "geonameId": 2270503,
    "name": "Cacém",
    "latitude": 38.76698,
    "longitude": -9.29793,
    "category": "City",
    "subcategory": "City",
    "featured": false,
    "priority": 50
  },
  {
    "geonameId": 2741789,
    "name": "Cacia",
    "latitude": 40.68435,
    "longitude": -8.59755,
    "category": "City",
    "subcategory": "City",
    "featured": false,
    "priority": 50
  },
  {
    "geonameId": 2270486,
    "name": "Cacilhas",
    "latitude": 38.68638,
    "longitude": -9.14938,
    "category": "City",
    "subcategory": "City",
    "featured": false,
    "priority": 50
  },
  {
    "geonameId": 2270475,
    "name": "Cadaval",
    "latitude": 39.24298,
    "longitude": -9.10327,
    "category": "City",
    "subcategory": "County Seat",
    "featured": false,
    "priority": 50
  },
  {
    "geonameId": 11494853,
    "name": "Caderiao",
    "latitude": 39.69916,
    "longitude": -31.11504,
    "category": "Mountain",
    "subcategory": "Mountain",
    "featured": false,
    "priority": 50
  },
  {
    "geonameId": 2270437,
    "name": "Caldas da Rainha",
    "latitude": 39.40326,
    "longitude": -9.13839,
    "category": "City",
    "subcategory": "County Seat",
    "featured": false,
    "priority": 50
  },
  {
    "geonameId": 2741738,
    "name": "Caldas de Vizela",
    "latitude": 41.38212,
    "longitude": -8.3089,
    "category": "City",
    "subcategory": "City",
    "featured": false,
    "priority": 50
  },
  {
    "geonameId": 3372496,
    "name": "Caldeirão da Vaca Branca",
    "latitude": 37.81667,
    "longitude": -25.73333,
    "category": "Lake",
    "subcategory": "Lake",
    "featured": false,
    "priority": 50
  },
  {
    "geonameId": 9781846,
    "name": "Caldeirinhas",
    "latitude": 38.45517,
    "longitude": -28.32129,
    "category": "Mountain",
    "subcategory": "Mountain",
    "featured": false,
    "priority": 50
  },
  {
    "geonameId": 9781829,
    "name": "Caldeiroes",
    "latitude": 38.44599,
    "longitude": -28.47382,
    "category": "Mountain",
    "subcategory": "Mountain",
    "featured": false,
    "priority": 50
  },
  {
    "geonameId": 2741728,
    "name": "Caldelas",
    "latitude": 41.67101,
    "longitude": -8.38148,
    "category": "City",
    "subcategory": "City",
    "featured": false,
    "priority": 50
  },
  {
    "geonameId": 11494851,
    "name": "Calderia de Santa Bárbara",
    "latitude": 38.72991,
    "longitude": -27.31834,
    "category": "Mountain",
    "subcategory": "Mountain",
    "featured": false,
    "priority": 50
  },
  {
    "geonameId": 2741724,
    "name": "Calendário",
    "latitude": 41.40361,
    "longitude": -8.52967,
    "category": "City",
    "subcategory": "City",
    "featured": false,
    "priority": 50
  },
  {
    "geonameId": 2270385,
    "name": "Camacha",
    "latitude": 33.08665,
    "longitude": -16.34253,
    "category": "City",
    "subcategory": "City",
    "featured": false,
    "priority": 50
  },
  {
    "geonameId": 2270380,
    "name": "Câmara de Lobos",
    "latitude": 32.65043,
    "longitude": -16.97718,
    "category": "City",
    "subcategory": "City",
    "featured": false,
    "priority": 50
  },
  {
    "geonameId": 2270377,
    "name": "Camarate",
    "latitude": 38.80358,
    "longitude": -9.12809,
    "category": "City",
    "subcategory": "City",
    "featured": false,
    "priority": 50
  },
  {
    "geonameId": 2741667,
    "name": "Campanhã",
    "latitude": 41.15706,
    "longitude": -8.57466,
    "category": "City",
    "subcategory": "City",
    "featured": false,
    "priority": 50
  },
  {
    "geonameId": 2741648,
    "name": "Campo",
    "latitude": 41.18516,
    "longitude": -8.46493,
    "category": "City",
    "subcategory": "City",
    "featured": false,
    "priority": 50
  },
  {
    "geonameId": 2270339,
    "name": "Campo Grande",
    "latitude": 38.75471,
    "longitude": -9.16651,
    "category": "City",
    "subcategory": "City",
    "featured": false,
    "priority": 50
  },
  {
    "geonameId": 2270336,
    "name": "Campo Maior",
    "latitude": 39.01774,
    "longitude": -7.06497,
    "category": "City",
    "subcategory": "County Seat",
    "featured": false,
    "priority": 50
  },
  {
    "geonameId": 6620263,
    "name": "Campo Pequeno",
    "latitude": 38.74299,
    "longitude": -9.14421,
    "category": "City",
    "subcategory": "City",
    "featured": false,
    "priority": 50
  },
  {
    "geonameId": 2270338,
    "name": "Campolide",
    "latitude": 38.72946,
    "longitude": -9.16486,
    "category": "City",
    "subcategory": "City",
    "featured": false,
    "priority": 50
  },
  {
    "geonameId": 2270290,
    "name": "Caneças",
    "latitude": 38.81321,
    "longitude": -9.22679,
    "category": "City",
    "subcategory": "City",
    "featured": false,
    "priority": 50
  },
  {
    "geonameId": 2741566,
    "name": "Canelas",
    "latitude": 41.08333,
    "longitude": -8.6,
    "category": "City",
    "subcategory": "City",
    "featured": false,
    "priority": 50
  },
  {
    "geonameId": 2270258,
    "name": "Caniço",
    "latitude": 32.65078,
    "longitude": -16.83749,
    "category": "City",
    "subcategory": "District Seat",
    "featured": false,
    "priority": 50
  },
  {
    "geonameId": 2741551,
    "name": "Canidelo",
    "latitude": 41.12314,
    "longitude": -8.64654,
    "category": "City",
    "subcategory": "City",
    "featured": false,
    "priority": 50
  },
  {
    "geonameId": 2741547,
    "name": "Cantanhede",
    "latitude": 40.34671,
    "longitude": -8.59419,
    "category": "City",
    "subcategory": "County Seat",
    "featured": false,
    "priority": 50
  },
  {
    "geonameId": 2270229,
    "name": "Caparica",
    "latitude": 38.66179,
    "longitude": -9.20032,
    "category": "City",
    "subcategory": "City",
    "featured": false,
    "priority": 50
  },
  {
    "geonameId": 12189184,
    "name": "Caramulinho (Serra Caramulo)",
    "latitude": 40.54727,
    "longitude": -8.20206,
    "category": "Mountain",
    "subcategory": "Mountain",
    "featured": false,
    "priority": 50
  },
  {
    "geonameId": 2270212,
    "name": "Caramulo",
    "latitude": 39.65,
    "longitude": -8.75,
    "category": "Mountain",
    "subcategory": "Mountain",
    "featured": false,
    "priority": 50
  },
  {
    "geonameId": 2270211,
    "name": "Caranguejeira",
    "latitude": 39.74619,
    "longitude": -8.7074,
    "category": "City",
    "subcategory": "City",
    "featured": false,
    "priority": 50
  },
  {
    "geonameId": 2741504,
    "name": "Carapito",
    "latitude": 40.98333,
    "longitude": -7.46667,
    "category": "Mountain",
    "subcategory": "Mountain",
    "featured": false,
    "priority": 50
  },
  {
    "geonameId": 2270184,
    "name": "Carcavelos",
    "latitude": 38.69105,
    "longitude": -9.32215,
    "category": "City",
    "subcategory": "City",
    "featured": false,
    "priority": 50
  },
  {
    "geonameId": 2270157,
    "name": "Carnaxide",
    "latitude": 38.72706,
    "longitude": -9.24671,
    "category": "City",
    "subcategory": "City",
    "featured": false,
    "priority": 50
  },
  {
    "geonameId": 2270148,
    "name": "Carnide",
    "latitude": 38.76667,
    "longitude": -9.18333,
    "category": "City",
    "subcategory": "City",
    "featured": false,
    "priority": 50
  },
  {
    "geonameId": 2741431,
    "name": "Carrazeda de Anciães",
    "latitude": 41.24247,
    "longitude": -7.30721,
    "category": "City",
    "subcategory": "County Seat",
    "featured": false,
    "priority": 50
  },
  {
    "geonameId": 2270084,
    "name": "Carregado",
    "latitude": 39.02362,
    "longitude": -8.97692,
    "category": "City",
    "subcategory": "City",
    "featured": false,
    "priority": 50
  },
  {
    "geonameId": 2741405,
    "name": "Carregal do Sal",
    "latitude": 40.43333,
    "longitude": -8,
    "category": "City",
    "subcategory": "County Seat",
    "featured": false,
    "priority": 50
  },
  {
    "geonameId": 2270023,
    "name": "Cartaxo",
    "latitude": 39.16022,
    "longitude": -8.78741,
    "category": "City",
    "subcategory": "County Seat",
    "featured": false,
    "priority": 50
  },
  {
    "geonameId": 9781835,
    "name": "Carvalhal",
    "latitude": 38.42344,
    "longitude": -28.27001,
    "category": "Mountain",
    "subcategory": "Mountain",
    "featured": false,
    "priority": 50
  },
  {
    "geonameId": 2269946,
    "name": "Carvoeiro",
    "latitude": 37.09736,
    "longitude": -8.46846,
    "category": "City",
    "subcategory": "City",
    "featured": false,
    "priority": 50
  },
  {
    "geonameId": 11886833,
    "name": "Cascade de Garganta Funda",
    "latitude": 32.82013,
    "longitude": -17.25131,
    "category": "Waterfall",
    "subcategory": "Waterfall",
    "featured": false,
    "priority": 50
  },
  {
    "geonameId": 2269594,
    "name": "Cascais",
    "latitude": 38.69681,
    "longitude": -9.42147,
    "category": "City",
    "subcategory": "City",
    "featured": false,
    "priority": 50
  },
  {
    "geonameId": 7287983,
    "name": "Cascata de Castro Laboreiro",
    "latitude": 42.03022,
    "longitude": -8.15581,
    "category": "Waterfall",
    "subcategory": "Waterfall",
    "featured": false,
    "priority": 50
  },
  {
    "geonameId": 11821775,
    "name": "Cascata do Poço do Bacalhau",
    "latitude": 39.45901,
    "longitude": -31.25529,
    "category": "Waterfall",
    "subcategory": "Waterfall",
    "featured": false,
    "priority": 50
  },
  {
    "geonameId": 11810187,
    "name": "Cascata dos Jardins da Quinta Real de Caxias",
    "latitude": 38.70047,
    "longitude": -9.27332,
    "category": "Park",
    "subcategory": "Park",
    "featured": false,
    "priority": 50
  },
  {
    "geonameId": 2269557,
    "name": "Castanheira de Pera",
    "latitude": 40.00717,
    "longitude": -8.21048,
    "category": "City",
    "subcategory": "County Seat",
    "featured": false,
    "priority": 50
  },
  {
    "geonameId": 2269556,
    "name": "Castanheira do Ribatejo",
    "latitude": 38.99298,
    "longitude": -8.97346,
    "category": "City",
    "subcategory": "City",
    "featured": false,
    "priority": 50
  },
  {
    "geonameId": 2269514,
    "name": "Castelo Branco",
    "latitude": 39.82364,
    "longitude": -7.49101,
    "category": "City",
    "subcategory": "Regional Capital",
    "featured": false,
    "priority": 50
  },
  {
    "geonameId": 2741001,
    "name": "Castelo de Paiva",
    "latitude": 41.06301,
    "longitude": -8.2647,
    "category": "City",
    "subcategory": "County Seat",
    "featured": false,
    "priority": 50
  },
  {
    "geonameId": 12188758,
    "name": "Castelo Trevim",
    "latitude": 40.08968,
    "longitude": -8.17917,
    "category": "Mountain",
    "subcategory": "Mountain",
    "featured": false,
    "priority": 50
  },
  {
    "geonameId": 2740984,
    "name": "Castelo Viegas",
    "latitude": 40.16313,
    "longitude": -8.40658,
    "category": "City",
    "subcategory": "City",
    "featured": false,
    "priority": 50
  },
  {
    "geonameId": 2740992,
    "name": "Castelões de Cepeda",
    "latitude": 41.20265,
    "longitude": -8.33516,
    "category": "City",
    "subcategory": "City",
    "featured": false,
    "priority": 50
  },
  {
    "geonameId": 2740974,
    "name": "Castro Daire",
    "latitude": 40.8984,
    "longitude": -7.93381,
    "category": "City",
    "subcategory": "County Seat",
    "featured": false,
    "priority": 50
  },