[
  {
    "geonameId": 3439403,
    "name": "Areguá",
    "latitude": -25.31239,
    "longitude": -57.38495,
    "category": "City",
    "subcategory": "Regional Capital",
    "featured": false,
    "priority": 50
  },
  {
    "geonameId": 3439389,
    "name": "Asunción",
    "latitude": -25.28646,
    "longitude": -57.647,
    "category": "City",
    "subcategory": "Capital",
    "featured": false,
    "priority": 50
  },
  {
    "geonameId": 3439378,
    "name": "Ayolas",
    "latitude": -27.38421,
    "longitude": -56.83953,
    "category": "City",
    "subcategory": "City",
    "featured": false,
    "priority": 50
  },
  {
    "geonameId": 3439353,
    "name": "Bella Vista",
    "latitude": -22.12226,
    "longitude": -56.51523,
    "category": "City",
    "subcategory": "City",
    "featured": false,
    "priority": 50
  },
  {
    "geonameId": 3439348,
    "name": "Benjamín Aceval",
    "latitude": -24.9974,
    "longitude": -57.55239,
    "category": "City",
    "subcategory": "City",
    "featured": false,
    "priority": 50
  },
  {
    "geonameId": 3439320,
    "name": "Caacupé",
    "latitude": -25.38575,
    "longitude": -57.14217,
    "category": "City",
    "subcategory": "Regional Capital",
    "featured": false,
    "priority": 50
  },
  {
    "geonameId": 3439317,
    "name": "Caaguazú",
    "latitude": -25.47104,
    "longitude": -56.01603,
    "category": "City",
    "subcategory": "City",
    "featured": false,
    "priority": 50
  },
  {
    "geonameId": 3439297,
    "name": "Caazapá",
    "latitude": -26.1966,
    "longitude": -56.36786,
    "category": "City",
    "subcategory": "Regional Capital",
    "featured": false,
    "priority": 50
  },
  {
    "geonameId": 9883714,
    "name": "Campamento Jack Norment",
    "latitude": -25.36703,
    "longitude": -57.1281,
    "category": "Park",
    "subcategory": "Park",
    "featured": false,
    "priority": 50
  },
  {
    "geonameId": 3439214,
    "name": "Capiatá",
    "latitude": -25.3552,
    "longitude": -57.44545,
    "category": "City",
    "subcategory": "City",
    "featured": false,
    "priority": 50
  },
  {
    "geonameId": 3439189,
    "name": "Capitán Bado",
    "latitude": -23.26733,
    "longitude": -55.53876,
    "category": "City",
    "subcategory": "City",
    "featured": false,
    "priority": 50
  },
  {
    "geonameId": 3439167,
    "name": "Carapeguá",
    "latitude": -25.76344,
    "longitude": -57.24677,
    "category": "City",
    "subcategory": "City",
    "featured": false,
    "priority": 50
  },
  {
    "geonameId": 3439474,
    "name": "Cerro Achón",
    "latitude": -25.92533,
    "longitude": -56.94007,
    "category": "Mountain",
    "subcategory": "Mountain",
    "featured": false,
    "priority": 50
  },
  {
    "geonameId": 3439415,
    "name": "Cerro Apyraguá",
    "latitude": -25.91726,
    "longitude": -56.89199,
    "category": "Mountain",
    "subcategory": "Mountain",
    "featured": false,
    "priority": 50
  },
  {
    "geonameId": 3439412,
    "name": "Cerro Aquino",
    "latitude": -25.42069,
    "longitude": -57.13143,
    "category": "Mountain",
    "subcategory": "Mountain",
    "featured": false,
    "priority": 50
  },
  {
    "geonameId": 11743570,
    "name": "Cerro Barrero Pytá",
    "latitude": -26.7921,
    "longitude": -55.82717,
    "category": "Mountain",
    "subcategory": "Mountain",
    "featured": false,
    "priority": 50
  },
  {
    "geonameId": 11743569,
    "name": "Cerro Berta",
    "latitude": -26.80395,
    "longitude": -55.85687,
    "category": "Mountain",
    "subcategory": "Mountain",
    "featured": false,
    "priority": 50
  },
  {
    "geonameId": 11721893,
    "name": "Cerro Corá",
    "latitude": -25.69368,
    "longitude": -56.96461,
    "category": "Mountain",
    "subcategory": "Mountain",
    "featured": false,
    "priority": 50
  },
  {
    "geonameId": 11726658,
    "name": "Cerro Dos de Oro",
    "latitude": -24.73205,
    "longitude": -56.00781,
    "category": "Mountain",
    "subcategory": "Mountain",
    "featured": false,
    "priority": 50
  },
  {
    "geonameId": 3437925,
    "name": "Cerro Itapé",
    "latitude": -25.85716,
    "longitude": -56.55599,
    "category": "Mountain",
    "subcategory": "Mountain",
    "featured": false,
    "priority": 50
  },
  {
    "geonameId": 3437931,
    "name": "Cerro Itati",
    "latitude": -25.43982,
    "longitude": -57.16946,
    "category": "Mountain",
    "subcategory": "Mountain",
    "featured": false,
    "priority": 50
  },
  {
    "geonameId": 11719639,
    "name": "Cerro Jhú",
    "latitude": -25.60925,
    "longitude": -57.1278,
    "category": "Mountain",
    "subcategory": "Mountain",
    "featured": false,
    "priority": 50
  },
  {
    "geonameId": 11743572,
    "name": "Cerro Matoví",
    "latitude": -26.75604,
    "longitude": -55.84414,
    "category": "Mountain",
    "subcategory": "Mountain",
    "featured": false,
    "priority": 50
  },
  {
    "geonameId": 11722300,
    "name": "Cerro Mongelos",
    "latitude": -25.9738,
    "longitude": -56.8279,
    "category": "Mountain",
    "subcategory": "Mountain",
    "featured": false,
    "priority": 50
  },
  {
    "geonameId": 3437683,
    "name": "Cerro Naranjo",
    "latitude": -25.50926,
    "longitude": -57.06927,
    "category": "Mountain",
    "subcategory": "Mountain",
    "featured": false,
    "priority": 50
  },
  {
    "geonameId": 3437656,
    "name": "Cerro Ñú Cañy",
    "latitude": -26.284,
    "longitude": -55.53227,
    "category": "Mountain",
    "subcategory": "Mountain",
    "featured": false,
    "priority": 50
  },
  {
    "geonameId": 3437639,
    "name": "Cerro Obi",
    "latitude": -25.92093,
    "longitude": -56.9579,
    "category": "Mountain",
    "subcategory": "Mountain",
    "featured": false,
    "priority": 50
  },
  {
    "geonameId": 11743573,
    "name": "Cerro Palmito",
    "latitude": -26.81732,
    "longitude": -55.82567,
    "category": "Mountain",
    "subcategory": "Mountain",
    "featured": false,
    "priority": 50
  },
  {
    "geonameId": 3437536,
    "name": "Cerro Peró",
    "latitude": -25.89475,
    "longitude": -56.14112,
    "category": "Mountain",
    "subcategory": "Mountain",
    "featured": false,
    "priority": 50
  },
  {
    "geonameId": 3437072,
    "name": "Cerro San José",
    "latitude": -25.97801,
    "longitude": -56.94858,
    "category": "Mountain",
    "subcategory": "Mountain",
    "featured": false,
    "priority": 50
  },
  {
    "geonameId": 3437013,
    "name": "Cerro San Rafael",
    "latitude": -26.75197,
    "longitude": -55.87057,
    "category": "Mountain",
    "subcategory": "Mountain",
    "featured": false,
    "priority": 50
  },
  {
    "geonameId": 3436986,
    "name": "Cerro Santa Elena",
    "latitude": -25.89129,
    "longitude": -56.30746,
    "category": "Mountain",
    "subcategory": "Mountain",
    "featured": false,
    "priority": 50
  },
  {
    "geonameId": 3436933,
    "name": "Cerro Santo Tomás",
    "latitude": -25.60771,
    "longitude": -57.11238,
    "category": "Mountain",
    "subcategory": "Mountain",
    "featured": false,
    "priority": 50
  },
  {
    "geonameId": 3436902,
    "name": "Cerro Tacuapí",
    "latitude": -26.77565,
    "longitude": -55.83267,
    "category": "Mountain",
    "subcategory": "Mountain",
    "featured": false,
    "priority": 50
  },
  {
    "geonameId": 3436855,
    "name": "Cerro Tatuy",
    "latitude": -25.86865,
    "longitude": -56.24567,
    "category": "Mountain",
    "subcategory": "Mountain",
    "featured": false,
    "priority": 50
  },
  {
    "geonameId": 11739537,
    "name": "Cerro Tyky",
    "latitude": -24.83118,
    "longitude": -55.95199,
    "category": "Mountain",
    "subcategory": "Mountain",
    "featured": false,
    "priority": 50
  },
  {
    "geonameId": 3436742,
    "name": "Cerro Verá",
    "latitude": -25.39933,
    "longitude": -57.08138,
    "category": "Mountain",
    "subcategory": "Mountain",
    "featured": false,
    "priority": 50
  },
  {
    "geonameId": 11721892,
    "name": "Cerro Verde",
    "latitude": -25.70365,
    "longitude": -56.96142,
    "category": "Mountain",
    "subcategory": "Mountain",
    "featured": false,
    "priority": 50
  },
  {
    "geonameId": 11743571,
    "name": "Cerro Violeta",
    "latitude": -26.76579,
    "longitude": -55.82698,
    "category": "Mountain",
    "subcategory": "Mountain",
    "featured": false,
    "priority": 50
  },
  {
    "geonameId": 11720196,
    "name": "Cerro Yabuaru",
    "latitude": -25.72462,
    "longitude": -56.88171,
    "category": "Mountain",
    "subcategory": "Mountain",
    "featured": false,
    "priority": 50
  },
  {
    "geonameId": 9257703,
    "name": "Charles Lopez Park",
    "latitude": -25.28587,
    "longitude": -57.6523,
    "category": "Park",
    "subcategory": "Park",
    "featured": false,
    "priority": 50
  },
  {
    "geonameId": 3439108,
    "name": "Chore",
    "latitude": -24.18606,
    "longitude": -56.58251,
    "category": "City",
    "subcategory": "County Seat",
    "featured": false,
    "priority": 50
  },
  {
    "geonameId": 3439101,
    "name": "Ciudad del Este",
    "latitude": -25.5036,
    "longitude": -54.65067,
    "category": "City",
    "subcategory": "Regional Capital",
    "featured": false,
    "priority": 50
  },
  {
    "geonameId": 3438981,
    "name": "Colonia Menno",
    "latitude": -22.36667,
    "longitude": -59.81667,
    "category": "City",
    "subcategory": "City",
    "featured": false,
    "priority": 50
  },
  {
    "geonameId": 3437653,
    "name": "Colonia Nueva Germania",
    "latitude": -23.91137,
    "longitude": -56.70091,
    "category": "City",
    "subcategory": "County Seat",
    "featured": false,
    "priority": 50
  },
  {
    "geonameId": 3438834,
    "name": "Concepción",
    "latitude": -23.39985,
    "longitude": -57.43236,
    "category": "City",
    "subcategory": "Regional Capital",
    "featured": false,
    "priority": 50
  },
  {
    "geonameId": 3438819,
    "name": "Coronel Oviedo",
    "latitude": -25.44613,
    "longitude": -56.43928,
    "category": "City",
    "subcategory": "Regional Capital",
    "featured": false,
    "priority": 50
  },
  {
    "geonameId": 3438754,
    "name": "Doctor Juan León Mallorquín",
    "latitude": -25.43053,
    "longitude": -55.25412,
    "category": "City",
    "subcategory": "City",
    "featured": false,
    "priority": 50
  },
  {
    "geonameId": 3438738,
    "name": "Emboscada",
    "latitude": -25.12413,
    "longitude": -57.34807,
    "category": "City",
    "subcategory": "City",
    "featured": false,
    "priority": 50
  },
  {
    "geonameId": 3438735,
    "name": "Encarnación",
    "latitude": -27.33176,
    "longitude": -55.86662,
    "category": "City",
    "subcategory": "Regional Capital",
    "featured": false,
    "priority": 50
  },
  {
    "geonameId": 3438123,
    "name": "Eusebio Ayala",
    "latitude": -25.38276,
    "longitude": -56.96088,
    "category": "City",
    "subcategory": "City",
    "featured": false,
    "priority": 50
  },
  {
    "geonameId": 3438115,
    "name": "Fernando de la Mora",
    "latitude": -25.3386,
    "longitude": -57.52167,
    "category": "City",
    "subcategory": "City",
    "featured": false,
    "priority": 50
  },
  {
    "geonameId": 3867291,
    "name": "Filadelfia",
    "latitude": -22.33936,
    "longitude": -60.03157,
    "category": "City",
    "subcategory": "Regional Capital",
    "featured": false,
    "priority": 50
  },
  {
    "geonameId": 3438102,
    "name": "Fuerte Olimpo",
    "latitude": -21.04153,
    "longitude": -57.87377,
    "category": "City",
    "subcategory": "Regional Capital",
    "featured": false,
    "priority": 50
  },
  {
    "geonameId": 3867281,
    "name": "Gran Laguna Loa",
    "latitude": -21.83333,
    "longitude": -61.93333,
    "category": "Lake",
    "subcategory": "Lake",
    "featured": false,
    "priority": 50
  },
  {
    "geonameId": 3438043,
    "name": "Guarambaré",
    "latitude": -25.49096,
    "longitude": -57.45567,
    "category": "City",
    "subcategory": "City",
    "featured": false,
    "priority": 50
  },
  {
    "geonameId": 3437997,
    "name": "Hohenau",
    "latitude": -27.07315,
    "longitude": -55.64247,
    "category": "City",
    "subcategory": "County Seat",
    "featured": false,
    "priority": 50
  },
  {
    "geonameId": 3480780,
    "name": "Horqueta",
    "latitude": -23.34323,
    "longitude": -57.05212,
    "category": "City",
    "subcategory": "City",
    "featured": false,
    "priority": 50
  },
  {
    "geonameId": 11713905,
    "name": "Isla Alisal",
    "latitude": -26.92912,
    "longitude": -58.49339,
    "category": "Island",
    "subcategory": "Island",
    "featured": false,
    "priority": 50
  },
  {
    "geonameId": 13072364,
    "name": "Isla Aquino",
    "latitude": -26.39823,
    "longitude": -58.21252,
    "category": "Island",
    "subcategory": "Island",
    "featured": false,
    "priority": 50
  },
  {
    "geonameId": 11715264,
    "name": "Isla Banco Carrizal",
    "latitude": -26.61984,
    "longitude": -58.19741,
    "category": "Island",
    "subcategory": "Island",
    "featured": false,
    "priority": 50
  },
  {
    "geonameId": 11731136,
    "name": "Isla Banco Montaner",
    "latitude": -25.31193,
    "longitude": -57.68245,
    "category": "Island",
    "subcategory": "Island",
    "featured": false,
    "priority": 50
  },
  {
    "geonameId": 3439373,
    "name": "Isla Banco Morales",
    "latitude": -25.35266,
    "longitude": -57.65369,
    "category": "Island",
    "subcategory": "Island",
    "featured": false,
    "priority": 50
  },
  {
    "geonameId": 3439374,
    "name": "Isla Banco Polvorín",
    "latitude": -25.28551,
    "longitude": -57.67928,
    "category": "Island",
    "subcategory": "Island",
    "featured": false,
    "priority": 50
  },
  {
    "geonameId": 11713932,
    "name": "Isla Banco Yuquerí",
    "latitude": -26.81879,
    "longitude": -58.34314,
    "category": "Island",
    "subcategory": "Island",
    "featured": false,
    "priority": 50
  },
  {
    "geonameId": 11744602,
    "name": "Isla Bandera",
    "latitude": -24.12643,
    "longitude": -56.33246,
    "category": "Island",
    "subcategory": "Island",
    "featured": false,
    "priority": 50
  },
  {
    "geonameId": 11762924,
    "name": "Isla Barero-Cue",
    "latitude": -24.58814,
    "longitude": -56.84498,
    "category": "Island",
    "subcategory": "Island",
    "featured": false,
    "priority": 50
  },
  {
    "geonameId": 3439341,
    "name": "Isla Bobi-Ñú",
    "latitude": -27.26083,
    "longitude": -58.39378,
    "category": "Island",
    "subcategory": "Island",
    "featured": false,
    "priority": 50
  },
  {
    "geonameId": 11764902,
    "name": "Isla Bonete",
    "latitude": -24.45734,
    "longitude": -57.05194,
    "category": "Island",
    "subcategory": "Island",
    "featured": false,
    "priority": 50
  },
  {
    "geonameId": 11733718,
    "name": "Isla Botica",
    "latitude": -24.95538,
    "longitude": -56.55073,
    "category": "Island",
    "subcategory": "Island",
    "featured": false,
    "priority": 50
  },
  {
    "geonameId": 11713205,
    "name": "Isla Caá-Tay",
    "latitude": -27.35243,
    "longitude": -57.6178,
    "category": "Island",
    "subcategory": "Island",
    "featured": false,
    "priority": 50
  },
  {
    "geonameId": 11713202,
    "name": "Isla Caballo",
    "latitude": -27.36734,
    "longitude": -57.56926,
    "category": "Island",
    "subcategory": "Island",
    "featured": false,
    "priority": 50
  },
  {
    "geonameId": 11712955,
    "name": "Isla Cabureí",
    "latitude": -27.45557,
    "longitude": -57.20945,
    "category": "Island",
    "subcategory": "Island",
    "featured": false,
    "priority": 50
  },
  {
    "geonameId": 11713277,
    "name": "Isla Cadena",
    "latitude": -27.26696,
    "longitude": -57.92627,
    "category": "Island",
    "subcategory": "Island",
    "featured": false,
    "priority": 50
  },
  {
    "geonameId": 11713286,
    "name": "Isla Cambá-acá",
    "latitude": -27.27301,
    "longitude": -58.45839,
    "category": "Island",
    "subcategory": "Island",
    "featured": false,
    "priority": 50
  },
  {
    "geonameId": 11764900,
    "name": "Isla Capá",
    "latitude": -24.47274,
    "longitude": -57.07854,
    "category": "Island",
    "subcategory": "Island",
    "featured": false,
    "priority": 50
  },
  {
    "geonameId": 11713290,
    "name": "Isla Caracha",
    "latitude": -27.28419,
    "longitude": -58.54231,
    "category": "Island",
    "subcategory": "Island",
    "featured": false,
    "priority": 50
  },
  {
    "geonameId": 11713203,
    "name": "Isla Carachay",
    "latitude": -27.35197,
    "longitude": -57.64088,
    "category": "Island",
    "subcategory": "Island",
    "featured": false,
    "priority": 50
  },
  {
    "geonameId": 11713282,
    "name": "Isla Carancho",
    "latitude": -27.27118,
    "longitude": -58.19126,
    "category": "Island",
    "subcategory": "Island",
    "featured": false,
    "priority": 50
  },
  {
    "geonameId": 11713272,
    "name": "Isla Carayá",
    "latitude": -27.31164,
    "longitude": -57.77731,
    "category": "Island",
    "subcategory": "Island",
    "featured": false,
    "priority": 50
  },
  {
    "geonameId": 11764730,
    "name": "Isla Centenario",
    "latitude": -24.31903,
    "longitude": -57.18278,
    "category": "Island",
    "subcategory": "Island",
    "featured": false,
    "priority": 50
  },
  {
    "geonameId": 11744732,
    "name": "Isla Cerrito",
    "latitude": -24.00558,
    "longitude": -56.86959,
    "category": "Island",
    "subcategory": "Island",
    "featured": false,
    "priority": 50
  },
  {
    "geonameId": 11712951,
    "name": "Isla Cerrito Arazá",
    "latitude": -27.46895,
    "longitude": -57.10393,
    "category": "Island",
    "subcategory": "Island",
    "featured": false,
    "priority": 50
  },
  {
    "geonameId": 11713125,
    "name": "Isla Chichón",
    "latitude": -27.40374,
    "longitude": -57.32688,
    "category": "Island",
    "subcategory": "Island",
    "featured": false,
    "priority": 50
  },
  {
    "geonameId": 3439100,
    "name": "Isla Clavel",
    "latitude": -27.38614,
    "longitude": -56.59843,
    "category": "Island",
    "subcategory": "Island",
    "featured": false,
    "priority": 50
  },
  {
    "geonameId": 13072376,
    "name": "Isla Costa Larga",
    "latitude": -27.3097,
    "longitude": -57.78644,
    "category": "Island",
    "subcategory": "Island",
    "featured": false,
    "priority": 50
  },
  {
    "geonameId": 11713271,
    "name": "Isla Costa-pucú",
    "latitude": -27.28409,
    "longitude": -57.83251,
    "category": "Island",
    "subcategory": "Island",
    "featured": false,
    "priority": 50
  },
  {
    "geonameId": 11744798,
    "name": "Isla Cuña",
    "latitude": -24.0788,
    "longitude": -56.9458,
    "category": "Island",
    "subcategory": "Island",
    "featured": false,
    "priority": 50
  },
  {
    "geonameId": 11712953,
    "name": "Isla Curé Guazú",
    "latitude": -27.45253,
    "longitude": -57.01799,
    "category": "Island",
    "subcategory": "Island",
    "featured": false,
    "priority": 50
  },
  {
    "geonameId": 11712429,
    "name": "Isla Cure-í",
    "latitude": -27.43506,
    "longitude": -56.98803,
    "category": "Island",
    "subcategory": "Island",
    "featured": false,
    "priority": 50
  },
  {
    "geonameId": 3438767,
    "name": "Isla Cururú",
    "latitude": -27.37448,
    "longitude": -56.53099,
    "category": "Island",
    "subcategory": "Island",
    "featured": false,
    "priority": 50
  },
  {
    "geonameId": 11713214,
    "name": "Isla del Gato",
    "latitude": -27.39364,
    "longitude": -57.49107,
    "category": "Island",
    "subcategory": "Island",
    "featured": false,
    "priority": 50
  },
  {
    "geonameId": 13072348,
    "name": "Isla del Limosn",
    "latitude": -27.25073,
    "longitude": -58.12081,
    "category": "Island",
    "subcategory": "Island",
    "featured": false,
    "priority": 50
  },
  {
    "geonameId": 11713201,
    "name": "Isla Dolores",
    "latitude": -27.37307,
    "longitude": -57.59827,
    "category": "Island",
    "subcategory": "Island",
    "featured": false,
    "priority": 50
  },
  {
    "geonameId": 11743185,
    "name": "Isla el Toro",
    "latitude": -27.31781,
    "longitude": -55.59223,
    "category": "Island",
    "subcategory": "Island",
    "featured": false,
    "priority": 50
  },
  {
    "geonameId": 11764871,
    "name": "Isla Esperanza",
    "latitude": -24.48734,
    "longitude": -57.1675,
    "category": "Island",
    "subcategory": "Island",
    "featured": false,
    "priority": 50
  },
  {
    "geonameId": 11713724,
    "name": "Isla Fundidero",
    "latitude": -27.24271,
    "longitude": -58.21722,
    "category": "Island",
    "subcategory": "Island",
    "featured": false,
    "priority": 50
  },
  {
    "geonameId": 11713204,
    "name": "Isla Gramillar",
    "latitude": -27.35687,
    "longitude": -57.62944,
    "category": "Island",
    "subcategory": "Island",
    "featured": false,
    "priority": 50
  },
  {
    "geonameId": 11713289,
    "name": "Isla Guazú",
    "latitude": -27.25991,
    "longitude": -58.49931,
    "category": "Island",
    "subcategory": "Island",
    "featured": false,
    "priority": 50
  },
  {
    "geonameId": 3438004,
    "name": "Isla Hermosa",
    "latitude": -25.9091,
    "longitude": -57.82969,
    "category": "Island",
    "subcategory": "Island",
    "featured": false,
    "priority": 50
  },
  {
    "geonameId": 11762756,
    "name": "Isla Isleria",
    "latitude": -24.57141,
    "longitude": -56.89648,
    "category": "Island",
    "subcategory": "Island",
    "featured": false,
    "priority": 50
  },
  {
    "geonameId": 11712405,
    "name": "Isla Itá Meza",
    "latitude": -27.41141,
    "longitude": -56.94827,
    "category": "Island",
    "subcategory": "Island",
    "featured": false,
    "priority": 50
  },
  {
    "geonameId": 11713206,
    "name": "Isla Jhový",
    "latitude": -27.31632,
    "longitude": -57.71853,
    "category": "Island",
    "subcategory": "Island",
    "featured": false,
    "priority": 50
  },
  {
    "geonameId": 11715296,
    "name": "Isla Las Hermanas",
    "latitude": -26.74362,
    "longitude": -58.24015,
    "category": "Island",
    "subcategory": "Island",
    "featured": false,
    "priority": 50
  },
  {
    "geonameId": 11764870,
    "name": "Isla Las Mercedes",
    "latitude": -24.49178,
    "longitude": -57.18184,
    "category": "Island",
    "subcategory": "Island",
    "featured": false,
    "priority": 50
  },
  {
    "geonameId": 11713278,
    "name": "Isla Lengua",
    "latitude": -27.24388,
    "longitude": -58.0913,
    "category": "Island",
    "subcategory": "Island",
    "featured": false,
    "priority": 50
  },
  {
    "geonameId": 13072410,
    "name": "Isla Lobato",
    "latitude": -25.76853,
    "longitude": -57.81637,
    "category": "Island",
    "subcategory": "Island",
    "featured": false,
    "priority": 50
  },
  {
    "geonameId": 11744806,
    "name": "Isla Margarita",
    "latitude": -24.15098,
    "longitude": -56.89311,
    "category": "Island",
    "subcategory": "Island",
    "featured": false,
    "priority": 50
  },
  {
    "geonameId": 11765957,
    "name": "Isla Marina",
    "latitude": -24.84558,
    "longitude": -57.26551,
    "category": "Island",
    "subcategory": "Island",
    "featured": false,
    "priority": 50
  },
  {
    "geonameId": 11744932,
    "name": "Isla Mbaracayá",
    "latitude": -24.46583,
    "longitude": -56.75576,
    "category": "Island",
    "subcategory": "Island",
    "featured": false,
    "priority": 50
  },
  {
    "geonameId": 3437754,
    "name": "Isla Mborevi",
    "latitude": -27.42065,
    "longitude": -56.84184,
    "category": "Island",
    "subcategory": "Island",
    "featured": false,
    "priority": 50
  },
  {
    "geonameId": 3437721,
    "name": "Isla Modesto",
    "latitude": -27.3597,
    "longitude": -56.46172,
    "category": "Island",
    "subcategory": "Island",
    "featured": false,
    "priority": 50
  },
  {
    "geonameId": 13072372,
    "name": "Isla Monterita",
    "latitude": -26.87187,
    "longitude": -58.36646,
    "category": "Island",
    "subcategory": "Island",
    "featured": false,
    "priority": 50
  },
  {
    "geonameId": 11744734,
    "name": "Isla Ña Ramona Cué",
    "latitude": -24.0137,
    "longitude": -56.79012,
    "category": "Island",
    "subcategory": "Island",
    "featured": false,
    "priority": 50
  },
  {
    "geonameId": 11713279,
    "name": "Isla Ñandú",
    "latitude": -27.26317,
    "longitude": -58.0916,
    "category": "Island",
    "subcategory": "Island",
    "featured": false,
    "priority": 50
  },
  {
    "geonameId": 13072332,
    "name": "Isla Naranjito",
    "latitude": -27.28254,
    "longitude": -57.82882,
    "category": "Island",
    "subcategory": "Island",
    "featured": false,
    "priority": 50
  },
  {
    "geonameId": 11712949,
    "name": "Isla Negra",
    "latitude": -27.46395,
    "longitude": -57.14638,
    "category": "Island",
    "subcategory": "Island",
    "featured": false,
    "priority": 50
  },
  {
    "geonameId": 11712950,
    "name": "Isla Neutral",
    "latitude": -27.47945,
    "longitude": -57.11611,
    "category": "Island",
    "subcategory": "Island",
    "featured": false,
    "priority": 50
  },
  {
    "geonameId": 11762754,
    "name": "Isla Ñuati",
    "latitude": -24.54623,
    "longitude": -56.94981,
    "category": "Island",
    "subcategory": "Island",
    "featured": false,
    "priority": 50
  },
  {
    "geonameId": 3437634,
    "name": "Isla Oculto",
    "latitude": -27.53333,
    "longitude": -56.48333,
    "category": "Island",
    "subcategory": "Island",
    "featured": false,
    "priority": 50
  },
  {
    "geonameId": 13072303,
    "name": "Isla Pacurí",
    "latitude": -27.26883,
    "longitude": -58.30211,
    "category": "Island",
    "subcategory": "Island",
    "featured": false,
    "priority": 50
  },
  {
    "geonameId": 11744728,
    "name": "Isla Pailo Cué",
    "latitude": -24.02973,
    "longitude": -56.84621,
    "category": "Island",
    "subcategory": "Island",
    "featured": false,
    "priority": 50
  },
  {
    "geonameId": 3437608,
    "name": "Isla Palo Seco",
    "latitude": -27.4558,
    "longitude": -56.39022,
    "category": "Island",
    "subcategory": "Island",
    "featured": false,
    "priority": 50
  },
  {
    "geonameId": 3437611,
    "name": "Isla Paloma",
    "latitude": -27.34731,
    "longitude": -56.42595,
    "category": "Island",
    "subcategory": "Island",
    "featured": false,
    "priority": 50
  },
  {
    "geonameId": 3437603,
    "name": "Isla Pantita-Cué",
    "latitude": -27.41746,
    "longitude": -56.85532,
    "category": "Island",
    "subcategory": "Island",
    "featured": false,
    "priority": 50
  },
  {
    "geonameId": 11767504,
    "name": "Isla Paranambú",
    "latitude": -25.98088,
    "longitude": -54.62111,
    "category": "Island",
    "subcategory": "Island",
    "featured": false,
    "priority": 50
  },
  {
    "geonameId": 3437589,
    "name": "Isla Paray",
    "latitude": -25.83037,
    "longitude": -57.79245,
    "category": "Island",
    "subcategory": "Island",
    "featured": false,
    "priority": 50
  },
  {
    "geonameId": 11769458,
    "name": "Isla Pareja",
    "latitude": -26.30053,
    "longitude": -54.65063,
    "category": "Island",
    "subcategory": "Island",
    "featured": false,
    "priority": 50
  },
  {
    "geonameId": 11764159,
    "name": "Isla Paso Itá",
    "latitude": -23.9632,
    "longitude": -56.51469,
    "category": "Island",
    "subcategory": "Island",
    "featured": false,
    "priority": 50
  },
  {
    "geonameId": 11713380,
    "name": "Isla Paso Vaca",
    "latitude": -27.24875,
    "longitude": -58.2856,
    "category": "Island",
    "subcategory": "Island",
    "featured": false,
    "priority": 50
  },
  {
    "geonameId": 11744966,
    "name": "Isla Pirú",
    "latitude": -24.44427,
    "longitude": -56.92224,
    "category": "Island",
    "subcategory": "Island",
    "featured": false,
    "priority": 50
  },
  {
    "geonameId": 11762748,
    "name": "Isla Potrerito",
    "latitude": -24.53329,
    "longitude": -56.96305,
    "category": "Island",
    "subcategory": "Island",
    "featured": false,
    "priority": 50
  },
  {
    "geonameId": 3437434,
    "name": "Isla Pucú",
    "latitude": -27.40501,
    "longitude": -56.82796,
    "category": "Island",
    "subcategory": "Island",
    "featured": false,
    "priority": 50
  },
  {
    "geonameId": 11715223,
    "name": "Isla Remanso",
    "latitude": -26.55905,
    "longitude": -57.76506,
    "category": "Island",
    "subcategory": "Island",
    "featured": false,
    "priority": 50
  },
  {
    "geonameId": 13072291,
    "name": "Isla Rodriguez",
    "latitude": -27.27301,
    "longitude": -58.35291,
    "category": "Island",
    "subcategory": "Island",
    "featured": false,
    "priority": 50
  },
  {
    "geonameId": 11714867,
    "name": "Isla Rosado-Cué",
    "latitude": -26.87783,
    "longitude": -57.61187,
    "category": "Island",
    "subcategory": "Island",
    "featured": false,
    "priority": 50
  },
  {
    "geonameId": 3437135,
    "name": "Isla San Alberto",
    "latitude": -21.88333,
    "longitude": -57.98333,
    "category": "Island",
    "subcategory": "Island",
    "featured": false,
    "priority": 50
  },
  {
    "geonameId": 3437096,
    "name": "Isla San Francisco",
    "latitude": -25.17406,
    "longitude": -57.53213,
    "category": "Island",
    "subcategory": "Island",
    "featured": false,
    "priority": 50
  },
  {
    "geonameId": 3437033,
    "name": "Isla San Pablo",
    "latitude": -27.38333,
    "longitude": -56.38333,
    "category": "Island",
    "subcategory": "Island",
    "featured": false,
    "priority": 50
  },
  {
    "geonameId": 11686318,
    "name": "Isla San Rafael",
    "latitude": -27.39324,
    "longitude": -56.6501,
    "category": "Island",
    "subcategory": "Island",
    "featured": false,
    "priority": 50
  },
  {
    "geonameId": 3436985,
    "name": "Isla Santa Elena",
    "latitude": -20.83333,
    "longitude": -57.98333,
    "category": "Island",
    "subcategory": "Island",
    "featured": false,
    "priority": 50
  },
  {
    "geonameId": 3434138,
    "name": "Isla Santa Isabel",
    "latitude": -27.42043,
    "longitude": -57.49094,
    "category": "Island",
    "subcategory": "Island",
    "featured": false,
    "priority": 50
  },
  {
    "geonameId": 13072266,
    "name": "Isla Santa Rosa",
    "latitude": -25.65268,
    "longitude": -57.72708,
    "category": "Island",
    "subcategory": "Island",
    "featured": false,
    "priority": 50
  },
  {
    "geonameId": 11762753,
    "name": "Isla Siraty",
    "latitude": -24.53185,
    "longitude": -56.92275,
    "category": "Island",
    "subcategory": "Island",
    "featured": false,
    "priority": 50
  },
  {
    "geonameId": 3436870,
    "name": "Isla Talavera",
    "latitude": -27.49889,
    "longitude": -56.38024,
    "category": "Island",
    "subcategory": "Island",
    "featured": false,
    "priority": 50
  },
  {
    "geonameId": 11744796,
    "name": "Isla Taninbú",
    "latitude": -24.07853,
    "longitude": -56.96776,
    "category": "Island",
    "subcategory": "Island",
    "featured": false,
    "priority": 50
  },
  {
    "geonameId": 11713283,
    "name": "Isla Tatú",
    "latitude": -27.2726,
    "longitude": -58.16695,
    "category": "Island",
    "subcategory": "Island",
    "featured": false,
    "priority": 50
  },
  {
    "geonameId": 13072375,
    "name": "Isla Tororó",
    "latitude": -25.46006,
    "longitude": -57.55386,
    "category": "Island",
    "subcategory": "Island",
    "featured": false,
    "priority": 50
  },
  {
    "geonameId": 11713285,
    "name": "Isla Tres Hermanas",
    "latitude": -27.26578,
    "longitude": -58.32137,
    "category": "Island",
    "subcategory": "Island",
    "featured": false,
    "priority": 50
  },
  {
    "geonameId": 11744805,
    "name": "Isla Typychá",
    "latitude": -24.14546,
    "longitude": -56.908,
    "category": "Island",
    "subcategory": "Island",
    "featured": false,
    "priority": 50
  },
  {
    "geonameId": 11713216,
    "name": "Isla Vaca Banco",
    "latitude": -27.29674,
    "longitude": -57.74283,
    "category": "Island",
    "subcategory": "Island",
    "featured": false,
    "priority": 50
  },
  {
    "geonameId": 11713280,
    "name": "Isla Verde",
    "latitude": -27.25609,
    "longitude": -58.00766,
    "category": "Island",
    "subcategory": "Island",
    "featured": false,
    "priority": 50
  },
  {
    "geonameId": 3436680,
    "name": "Isla Yacy Retá",
    "latitude": -27.43356,
    "longitude": -56.76789,
    "category": "Island",
    "subcategory": "Island",
    "featured": false,
    "priority": 50
  },
  {
    "geonameId": 11712952,
    "name": "Isla Yaqué",
    "latitude": -27.46881,
    "longitude": -57.04918,
    "category": "Island",
    "subcategory": "Island",
    "featured": false,
    "priority": 50
  },
  {
    "geonameId": 11744735,
    "name": "Isla Yataybá",
    "latitude": -24.07302,
    "longitude": -56.92746,
    "category": "Island",
    "subcategory": "Island",
    "featured": false,
    "priority": 50
  },
  {
    "geonameId": 11686317,
    "name": "Isla Yatebú",
    "latitude": -27.37166,
    "longitude": -56.62746,
    "category": "Island",
    "subcategory": "Island",
    "featured": false,
    "priority": 50
  },
  {
    "geonameId": 3436639,
    "name": "Isla Ybycuí",
    "latitude": -27.28651,
    "longitude": -56.13414,
    "category": "Island",
    "subcategory": "Island",
    "featured": false,
    "priority": 50
  },
  {
    "geonameId": 3436579,
    "name": "Isla Ypecuá",
    "latitude": -25.0123,
    "longitude": -57.32571,
    "category": "Island",
    "subcategory": "Island",
    "featured": false,
    "priority": 50
  },
  {
    "geonameId": 11713147,
    "name": "Isla Zapallo",
    "latitude": -27.4352,
    "longitude": -57.45831,
    "category": "Island",
    "subcategory": "Island",
    "featured": false,
    "priority": 50
  },
  {
    "geonameId": 11713127,
    "name": "Isla Zauzal",
    "latitude": -27.41171,
    "longitude": -57.30744,
    "category": "Island",
    "subcategory": "Island",
    "featured": false,
    "priority": 50
  },
  {
    "geonameId": 13072416,
    "name": "Islas Caá Verá",
    "latitude": -27.26232,
    "longitude": -58.32908,
    "category": "Island",
    "subcategory": "Island Group",
    "featured": false,
    "priority": 50
  },
  {
    "geonameId": 3437843,
    "name": "Islas del Limosna",
    "latitude": -27.26667,
    "longitude": -58.11667,
    "category": "Island",
    "subcategory": "Island Group",
    "featured": false,
    "priority": 50
  },
  {
    "geonameId": 13072385,
    "name": "Islas Dos Hermanas",
    "latitude": -27.42483,
    "longitude": -57.54568,
    "category": "Island",
    "subcategory": "Island Group",
    "featured": false,
    "priority": 50
  },
  {
    "geonameId": 3437954,
    "name": "Itá",
    "latitude": -25.50054,
    "longitude": -57.36717,
    "category": "City",
    "subcategory": "City",
    "featured": false,
    "priority": 50
  },
  {
    "geonameId": 3437918,
    "name": "Itauguá",
    "latitude": -25.39258,
    "longitude": -57.35421,
    "category": "City",
    "subcategory": "City",
    "featured": false,
    "priority": 50
  },
  {
    "geonameId": 11675441,
    "name": "Lago Acaray",
    "latitude": -25.45994,
    "longitude": -54.63443,
    "category": "Lake",
    "subcategory": "Reservoir",
    "featured": false,
    "priority": 50
  },
  {
    "geonameId": 3439420,
    "name": "Lago Apereá",
    "latitude": -27.44336,
    "longitude": -56.70985,
    "category": "Lake",
    "subcategory": "Lake",
    "featured": false,
    "priority": 50
  },
  {
    "geonameId": 11675276,
    "name": "Lago de la República",
    "latitude": -25.51564,
    "longitude": -54.62049,
    "category": "Lake",
    "subcategory": "Lake",
    "featured": false,
    "priority": 50
  },
  {
    "geonameId": 3437174,
    "name": "Lago del Río Yguazú",
    "latitude": -25.25483,
    "longitude": -55.23248,
    "category": "Lake",
    "subcategory": "Reservoir",
    "featured": false,
    "priority": 50
  },
  {
    "geonameId": 11675449,
    "name": "Lago Represado",
    "latitude": -25.47698,
    "longitude": -54.66064,
    "category": "Lake",
    "subcategory": "Reservoir",
    "featured": false,
    "priority": 50
  },
  {
    "geonameId": 3436584,
    "name": "Lago Ypacarai",
    "latitude": -25.3078,
    "longitude": -57.33706,
    "category": "Lake",
    "subcategory": "Lake",
    "featured": false,
    "priority": 50
  },
  {
    "geonameId": 3436570,
    "name": "Lago Ypoa",
    "latitude": -25.90617,
    "longitude": -57.42485,
    "category": "Lake",
    "subcategory": "Lake",
    "featured": false,
    "priority": 50
  },
  {
    "geonameId": 3439345,
    "name": "Laguna Blanca",
    "latitude": -23.80951,
    "longitude": -56.2841,
    "category": "Lake",
    "subcategory": "Lake",
    "featured": false,
    "priority": 50
  },
  {
    "geonameId": 3439323,
    "name": "Laguna Buey",
    "latitude": -22.55,
    "longitude": -59.01667,
    "category": "Lake",
    "subcategory": "Lake",
    "featured": false,
    "priority": 50
  },
  {
    "geonameId": 3439276,
    "name": "Laguna Cabral",
    "latitude": -25.9749,
    "longitude": -57.51859,
    "category": "Lake",
    "subcategory": "Lake",
    "featured": false,
    "priority": 50
  },
  {
    "geonameId": 3867437,
    "name": "Laguna Campos",
    "latitude": -20.83333,
    "longitude": -61.51667,
    "category": "Lake",
    "subcategory": "Lake",
    "featured": false,
    "priority": 50
  },
  {
    "geonameId": 3439191,
    "name": "Laguna Capitán",
    "latitude": -22.55,
    "longitude": -59.7,
    "category": "Lake",
    "subcategory": "Lake",
    "featured": false,
    "priority": 50
  },
  {
    "geonameId": 11769678,
    "name": "Laguna Chata-Cué",
    "latitude": -25.41304,
    "longitude": -54.84543,
    "category": "Lake",
    "subcategory": "Lake",
    "featured": false,
    "priority": 50
  },
  {
    "geonameId": 3867421,
    "name": "Laguna Chica",
    "latitude": -22.31667,
    "longitude": -60.43333,
    "category": "Lake",
    "subcategory": "Lake",
    "featured": false,
    "priority": 50
  },
  {
    "geonameId": 3439104,
    "name": "Laguna Ciervo",
    "latitude": -23.03333,
    "longitude": -58.56667,
    "category": "Lake",
    "subcategory": "Lake",
    "featured": false,
    "priority": 50
  },
  {
    "geonameId": 3439095,
    "name": "Laguna Colón",
    "latitude": -22.55,
    "longitude": -58.96667,
    "category": "Lake",
    "subcategory": "Lake",
    "featured": false,
    "priority": 50
  },
  {
    "geonameId": 3438731,
    "name": "Laguna Ermelinda",
    "latitude": -23,
    "longitude": -59.53333,
    "category": "Lake",
    "subcategory": "Lake",
    "featured": false,
    "priority": 50
  },
  {
    "geonameId": 3438104,
    "name": "Laguna Frente Dos",
    "latitude": -21.25,
    "longitude": -59.6,
    "category": "Lake",
    "subcategory": "Lake",
    "featured": false,
    "priority": 50
  },
  {
    "geonameId": 3438092,
    "name": "Laguna Ganso",
    "latitude": -22.53333,
    "longitude": -59.61667,
    "category": "Lake",
    "subcategory": "Lake",
    "featured": false,
    "priority": 50
  },
  {
    "geonameId": 3438086,
    "name": "Laguna Garza",
    "latitude": -22.58333,
    "longitude": -59.35,
    "category": "Lake",
    "subcategory": "Lake",
    "featured": false,
    "priority": 50
  },
  {
    "geonameId": 3438072,
    "name": "Laguna General Díaz",
    "latitude": -22.3,
    "longitude": -59.01667,
    "category": "Lake",
    "subcategory": "Lake",
    "featured": false,
    "priority": 50
  },
  {
    "geonameId": 3867282,
    "name": "Laguna González",
    "latitude": -22.55,
    "longitude": -61.93333,
    "category": "Lake",
    "subcategory": "Lake",
    "featured": false,
    "priority": 50
  },
  {
    "geonameId": 3438022,
    "name": "Laguna Guazú",
    "latitude": -27.28333,
    "longitude": -56.95,
    "category": "Lake",
    "subcategory": "Lake",
    "featured": false,
    "priority": 50
  },
  {
    "geonameId": 3438003,
    "name": "Laguna Hermosa",
    "latitude": -22.58333,
    "longitude": -59.1,
    "category": "Lake",
    "subcategory": "Lake",
    "featured": false,
    "priority": 50
  },
  {
    "geonameId": 3437981,
    "name": "Laguna India",
    "latitude": -21.53333,
    "longitude": -59.83333,
    "category": "Lake",
    "subcategory": "Lake",
    "featured": false,
    "priority": 50
  },
  {
    "geonameId": 3437975,
    "name": "Laguna Inmakata",
    "latitude": -21.11667,
    "longitude": -58.91667,
    "category": "Lake",
    "subcategory": "Lake",
    "featured": false,
    "priority": 50
  },
  {
    "geonameId": 3437911,
    "name": "Laguna Iteleu",
    "latitude": -22.3,
    "longitude": -59.31667,
    "category": "Lake",
    "subcategory": "Lake",
    "featured": false,
    "priority": 50
  },
  {
    "geonameId": 3437878,
    "name": "Laguna Juanita",
    "latitude": -23.08333,
    "longitude": -59.68333,
    "category": "Lake",
    "subcategory": "Lake",
    "featured": false,
    "priority": 50
  },
  {
    "geonameId": 3867266,
    "name": "Laguna La Bella",
    "latitude": -24,
    "longitude": -60.08333,
    "category": "Lake",
    "subcategory": "Lake",
    "featured": false,
    "priority": 50
  },
  {
    "geonameId": 3437852,
    "name": "Laguna Lata",
    "latitude": -22.73333,
    "longitude": -58.78333,
    "category": "Lake",
    "subcategory": "Lake",
    "featured": false,
    "priority": 50
  },
  {
    "geonameId": 3437840,
    "name": "Laguna Loba",
    "latitude": -22.43333,
    "longitude": -58.98333,
    "category": "Lake",
    "subcategory": "Lake",
    "featured": false,
    "priority": 50
  },
  {
    "geonameId": 3437838,
    "name": "Laguna Lobo",
    "latitude": -23.16667,
    "longitude": -58.61667,
    "category": "Lake",
    "subcategory": "Lake",
    "featured": false,
    "priority": 50
  },
  {
    "geonameId": 3437819,
    "name": "Laguna López",
    "latitude": -22.56667,
    "longitude": -59.68333,
    "category": "Lake",
    "subcategory": "Lake",
    "featured": false,
    "priority": 50
  },
  {
    "geonameId": 11681431,
    "name": "Laguna Mbaracá",
    "latitude": -24.13359,
    "longitude": -55.4259,
    "category": "Lake",
    "subcategory": "Lake",
    "featured": false,
    "priority": 50
  },
  {
    "geonameId": 3437708,
    "name": "Laguna Morocha",
    "latitude": -21.16667,
    "longitude": -58.91667,
    "category": "Lake",
    "subcategory": "Lake",
    "featured": false,
    "priority": 50
  },
  {
    "geonameId": 3437631,
    "name": "Laguna Oieta",
    "latitude": -21.13333,
    "longitude": -58.7,
    "category": "Lake",
    "subcategory": "Lake",
    "featured": false,
    "priority": 50
  },
  {
    "geonameId": 11718380,
    "name": "Laguna Paraná-Mí",
    "latitude": -26.03791,
    "longitude": -57.49307,
    "category": "Lake",
    "subcategory": "Lake",
    "featured": false,
    "priority": 50
  },
  {
    "geonameId": 3437556,
    "name": "Laguna Pato",
    "latitude": -23.18333,
    "longitude": -58.66667,
    "category": "Lake",
    "subcategory": "Lake",
    "featured": false,
    "priority": 50
  },
  {
    "geonameId": 3437550,
    "name": "Laguna Pe",
    "latitude": -23.03333,
    "longitude": -58.5,
    "category": "Lake",
    "subcategory": "Lake",
    "featured": false,
    "priority": 50
  },
  {
    "geonameId": 3437549,
    "name": "Laguna Pé",
    "latitude": -25.92793,
    "longitude": -57.80668,
    "category": "Lake",
    "subcategory": "Lake",
    "featured": false,
    "priority": 50
  },
  {
    "geonameId": 3867199,
    "name": "Laguna Pelicano",
    "latitude": -21.71667,
    "longitude": -61.23333,
    "category": "Lake",
    "subcategory": "Lake",
    "featured": false,
    "priority": 50
  },
  {
    "geonameId": 3437484,
    "name": "Laguna Placenta",
    "latitude": -21.13333,
    "longitude": -59.4,
    "category": "Lake",
    "subcategory": "Lake",
    "featured": false,
    "priority": 50
  },
  {
    "geonameId": 3437476,
    "name": "Laguna Porá",
    "latitude": -22.93333,
    "longitude": -58.46667,
    "category": "Lake",
    "subcategory": "Lake",
    "featured": false,
    "priority": 50
  },
  {
    "geonameId": 3437456,
    "name": "Laguna Pozo",
    "latitude": -23.05,
    "longitude": -58.65,
    "category": "Lake",
    "subcategory": "Lake",
    "featured": false,
    "priority": 50
  },
  {
    "geonameId": 3437453,
    "name": "Laguna Pozo Azul",
    "latitude": -22.28333,
    "longitude": -59.41667,
    "category": "Lake",
    "subcategory": "Lake",
    "featured": false,
    "priority": 50
  },
  {
    "geonameId": 11725738,
    "name": "Laguna Pyta",
    "latitude": -24.53447,
    "longitude": -55.72651,
    "category": "Lake",
    "subcategory": "Lake",
    "featured": false,
    "priority": 50
  },
  {
    "geonameId": 11673375,
    "name": "Laguna Pytá",
    "latitude": -25.26428,
    "longitude": -57.60232,
    "category": "Lake",
    "subcategory": "Lake",
    "featured": false,
    "priority": 50
  },
  {
    "geonameId": 3437184,
    "name": "Laguna Rey",
    "latitude": -22.78333,
    "longitude": -58.78333,
    "category": "Lake",
    "subcategory": "Lake",
    "featured": false,
    "priority": 50
  },
  {
    "geonameId": 3437182,
    "name": "Laguna Riari",
    "latitude": -21.1,
    "longitude": -58.78333,
    "category": "Lake",
    "subcategory": "Lake",
    "featured": false,
    "priority": 50
  },
  {
    "geonameId": 3437152,
    "name": "Laguna Salada",
    "latitude": -22.55,
    "longitude": -59.28333,
    "category": "Lake",
    "subcategory": "Lake",
    "featured": false,
    "priority": 50
  },
  {
    "geonameId": 11812607,
    "name": "Laguna San Antonio",
    "latitude": -24.17153,
    "longitude": -55.16539,
    "category": "Lake",
    "subcategory": "Lake",
    "featured": false,
    "priority": 50
  },
  {
    "geonameId": 11763183,
    "name": "Laguna San José",
    "latitude": -23.58471,
    "longitude": -56.2824,
    "category": "Lake",
    "subcategory": "Lake",
    "featured": false,
    "priority": 50
  },
  {
    "geonameId": 3436816,
    "name": "Laguna Tiempo",
    "latitude": -23.05,
    "longitude": -59.31667,
    "category": "Lake",
    "subcategory": "Lake",
    "featured": false,
    "priority": 50
  },
  {
    "geonameId": 3436814,
    "name": "Laguna Tigre",
    "latitude": -23,
    "longitude": -58.46667,
    "category": "Lake",
    "subcategory": "Lake",
    "featured": false,
    "priority": 50
  },
  {
    "geonameId": 3867062,
    "name": "Laguna Trinidad",
    "latitude": -20.35,
    "longitude": -61.58333,
    "category": "Lake",
    "subcategory": "Lake",
    "featured": false,
    "priority": 50
  },
  {
    "geonameId": 3436775,
    "name": "Laguna Tropezón",
    "latitude": -22.95,
    "longitude": -59.2,
    "category": "Lake",
    "subcategory": "Lake",
    "featured": false,
    "priority": 50
  },
  {
    "geonameId": 3436740,
    "name": "Laguna Verá",
    "latitude": -26.14434,
    "longitude": -57.46811,
    "category": "Lake",
    "subcategory": "Lake",
    "featured": false,
    "priority": 50
  },
  {
    "geonameId": 3969272,
    "name": "Laguna Verde",
    "latitude": -21.65806,
    "longitude": -61.29556,
    "category": "Lake",
    "subcategory": "Lake",
    "featured": false,
    "priority": 50
  },
  {
    "geonameId": 3436730,
    "name": "Laguna Vetima",
    "latitude": -21.08333,
    "longitude": -59.06667,
    "category": "Lake",
    "subcategory": "Lake",
    "featured": false,
    "priority": 50
  },
  {
    "geonameId": 3436698,
    "name": "Laguna Yacaré",
    "latitude": -24.1,
    "longitude": -59.75,
    "category": "Lake",
    "subcategory": "Lake",
    "featured": false,
    "priority": 50
  },
  {
    "geonameId": 3436693,
    "name": "Laguna Yacaré-mí",
    "latitude": -22.76667,
    "longitude": -58.63333,
    "category": "Lake",
    "subcategory": "Lake",
    "featured": false,
    "priority": 50
  },
  {
    "geonameId": 11764960,
    "name": "Laguna Yankee",
    "latitude": -24.05718,
    "longitude": -57.27033,
    "category": "Lake",
    "subcategory": "Lake",
    "featured": false,
    "priority": 50
  },
  {
    "geonameId": 3436647,
    "name": "Laguna Yberá",
    "latitude": -27.24604,
    "longitude": -56.98055,
    "category": "Lake",
    "subcategory": "Lake",
    "featured": false,
    "priority": 50
  },
  {
    "geonameId": 11734185,
    "name": "Laguna Yovai",
    "latitude": -24.89279,
    "longitude": -55.48228,
    "category": "Lake",
    "subcategory": "Lake",
    "featured": false,
    "priority": 50
  },
  {
    "geonameId": 3437863,
    "name": "Lambaré",
    "latitude": -25.34682,
    "longitude": -57.60647,
    "category": "City",
    "subcategory": "City",
    "featured": false,
    "priority": 50
  },
  {
    "geonameId": 3437846,
    "name": "Lima",
    "latitude": -23.88496,
    "longitude": -56.47891,
    "category": "City",
    "subcategory": "City",
    "featured": false,
    "priority": 50
  },
  {
    "geonameId": 3437842,
    "name": "Limpio",
    "latitude": -25.16611,
    "longitude": -57.48562,
    "category": "City",
    "subcategory": "City",
    "featured": false,
    "priority": 50
  },
  {
    "geonameId": 3437824,
    "name": "Loma Plata",
    "latitude": -22.3829,
    "longitude": -59.83549,
    "category": "City",
    "subcategory": "City",
    "featured": false,
    "priority": 50
  },
  {
    "geonameId": 3438995,
    "name": "Mariano Roque Alonso",
    "latitude": -25.20791,
    "longitude": -57.53202,
    "category": "City",
    "subcategory": "City",
    "featured": false,
    "priority": 50
  },
  {
    "geonameId": 11719051,
    "name": "Monte Aracanguy",
    "latitude": -24.72342,
    "longitude": -55.75988,
    "category": "Mountain",
    "subcategory": "Mountain",
    "featured": false,
    "priority": 50
  },
  {
    "geonameId": 10341405,
    "name": "Municipal Park",
    "latitude": -25.26054,
    "longitude": -57.24199,
    "category": "Park",
    "subcategory": "Park",
    "featured": false,
    "priority": 50
  },
  {
    "geonameId": 6942195,
    "name": "Nacunday National Park",
    "latitude": -26.02,
    "longitude": -54.77,
    "category": "Park",
    "subcategory": "Park",
    "featured": false,
    "priority": 50
  },
  {
    "geonameId": 3437696,
    "name": "Nanawa",
    "latitude": -25.2793,
    "longitude": -57.70307,
    "category": "City",
    "subcategory": "City",
    "featured": false,
    "priority": 50
  },
  {
    "geonameId": 3437665,
    "name": "Nemby",
    "latitude": -25.3949,
    "longitude": -57.53574,
    "category": "City",
    "subcategory": "City",
    "featured": false,
    "priority": 50
  },
  {
    "geonameId": 11205611,
    "name": "Nueva Esperanza",
    "latitude": -24.5076,
    "longitude": -54.8551,
    "category": "City",
    "subcategory": "City",
    "featured": false,
    "priority": 50
  },
  {
    "geonameId": 3437637,
    "name": "Obligado",
    "latitude": -27.0555,
    "longitude": -55.62731,
    "category": "City",
    "subcategory": "City",
    "featured": false,
    "priority": 50
  },
  {
    "geonameId": 3437600,
    "name": "Paraguarí",
    "latitude": -25.62075,
    "longitude": -57.14724,
    "category": "City",
    "subcategory": "Regional Capital",
    "featured": false,
    "priority": 50
  },
  {
    "geonameId": 11675345,
    "name": "Parque Amambay",
    "latitude": -25.53749,
    "longitude": -54.6255,
    "category": "Park",
    "subcategory": "Park",
    "featured": false,
    "priority": 50
  },
  {
    "geonameId": 11731137,
    "name": "Parque Caballero",
    "latitude": -25.28131,
    "longitude": -57.61961,
    "category": "Park",
    "subcategory": "Park",
    "featured": false,
    "priority": 50
  },
  {
    "geonameId": 11675444,
    "name": "Parque de las Américas",
    "latitude": -25.41032,
    "longitude": -54.62587,
    "category": "Park",
    "subcategory": "Park",
    "featured": false,
    "priority": 50
  },
  {
    "geonameId": 11675324,
    "name": "Parque Independencia",
    "latitude": -25.54852,
    "longitude": -54.61536,
    "category": "Park",
    "subcategory": "Park",
    "featured": false,
    "priority": 50
  },
  {
    "geonameId": 11675411,
    "name": "Parque Internacional",
    "latitude": -25.4847,
    "longitude": -54.62902,
    "category": "Park",
    "subcategory": "Park",
    "featured": false,
    "priority": 50
  },
  {
    "geonameId": 11675447,
    "name": "Parque Jardín del Este",
    "latitude": -25.48955,
    "longitude": -54.67565,
    "category": "Park",
    "subcategory": "Park",
    "featured": false,
    "priority": 50
  },
  {
    "geonameId": 11675354,
    "name": "Parque Mbaracayú",
    "latitude": -25.52397,
    "longitude": -54.63672,
    "category": "Park",
    "subcategory": "Park",
    "featured": false,
    "priority": 50
  },
  {
    "geonameId": 11769680,
    "name": "Parque Minga Guazú",
    "latitude": -25.48933,
    "longitude": -54.76408,
    "category": "Park",
    "subcategory": "Park",
    "featured": false,
    "priority": 50
  },
  {
    "geonameId": 3969268,
    "name": "Parque Nacional Teniente Agripino Enciso",
    "latitude": -21.08083,
    "longitude": -61.61556,
    "category": "Park",
    "subcategory": "Park",
    "featured": false,
    "priority": 50
  },
  {
    "geonameId": 11673555,
    "name": "Parque Ñú Guazú",
    "latitude": -25.26208,
    "longitude": -57.53529,
    "category": "Park",
    "subcategory": "Park",
    "featured": false,
    "priority": 50
  },
  {
    "geonameId": 11675325,
    "name": "Parque Quince de Mayo",
    "latitude": -25.55509,
    "longitude": -54.61727,
    "category": "Park",
    "subcategory": "Park",
    "featured": false,
    "priority": 50
  },
  {
    "geonameId": 11681931,
    "name": "Parque Quitería",
    "latitude": -27.30338,
    "longitude": -55.89909,
    "category": "Park",
    "subcategory": "Park",
    "featured": false,
    "priority": 50
  },
  {
    "geonameId": 11673809,
    "name": "Parque Recreativo Capilla del Monte",
    "latitude": -25.36561,
    "longitude": -57.52429,
    "category": "Park",
    "subcategory": "Park",
    "featured": false,
    "priority": 50
  },
  {
    "geonameId": 11675409,
    "name": "Parque Salto del Guairá",
    "latitude": -25.51393,
    "longitude": -54.63275,
    "category": "Park",
    "subcategory": "Park",
    "featured": false,
    "priority": 50
  },
  {
    "geonameId": 11678044,
    "name": "Parque San Lucas",
    "latitude": -25.5206,
    "longitude": -54.64761,
    "category": "Park",
    "subcategory": "Park",
    "featured": false,
    "priority": 50
  },
  {
    "geonameId": 3437948,
    "name": "Paso Itá",
    "latitude": -23.43333,
    "longitude": -55.66667,
    "category": "Mountain",
    "subcategory": "Mountain Pass",
    "featured": false,
    "priority": 50
  },
  {
    "geonameId": 3437547,
    "name": "Pedro Juan Caballero",
    "latitude": -22.54925,
    "longitude": -55.7387,
    "category": "City",
    "subcategory": "Regional Capital",
    "featured": false,
    "priority": 50
  },
  {
    "geonameId": 3437526,
    "name": "Pilar",
    "latitude": -26.85874,
    "longitude": -58.30639,
    "category": "City",
    "subcategory": "Regional Capital",
    "featured": false,
    "priority": 50
  },
  {
    "geonameId": 3437495,
    "name": "Piribebuy",
    "latitude": -25.46498,
    "longitude": -57.04183,
    "category": "City",
    "subcategory": "City",
    "featured": false,
    "priority": 50
  },
  {
    "geonameId": 10342020,
    "name": "Plaza Bernardino Cabalero",
    "latitude": -25.30876,
    "longitude": -57.30062,
    "category": "Park",
    "subcategory": "Park",
    "featured": false,
    "priority": 50
  },
  {
    "geonameId": 3437444,
    "name": "Presidente Franco",
    "latitude": -25.56384,
    "longitude": -54.61097,
    "category": "City",
    "subcategory": "City",
    "featured": false,
    "priority": 50
  },
  {
    "geonameId": 3437342,
    "name": "Puerto Rosario",
    "latitude": -24.44127,
    "longitude": -57.14272,
    "category": "City",
    "subcategory": "City",
    "featured": false,
    "priority": 50
  },
  {
    "geonameId": 11549702,
    "name": "Puerto Vallemí",
    "latitude": -22.15755,
    "longitude": -57.95125,
    "category": "City",
    "subcategory": "City",
    "featured": false,
    "priority": 50
  },
  {
    "geonameId": 3437215,
    "name": "Quiindy",
    "latitude": -25.97606,
    "longitude": -57.23353,
    "category": "City",
    "subcategory": "City",
    "featured": false,
    "priority": 50
  },
  {
    "geonameId": 3437197,
    "name": "Repatriación",
    "latitude": -25.53515,
    "longitude": -55.99242,
    "category": "City",
    "subcategory": "City",
    "featured": false,
    "priority": 50
  },
  {
    "geonameId": 11773086,
    "name": "Salto Cristal",
    "latitude": -25.97764,
    "longitude": -56.73035,
    "category": "Waterfall",
    "subcategory": "Waterfall",
    "featured": false,
    "priority": 50
  },
  {
    "geonameId": 3438048,
    "name": "Salto das Sete Quedas",
    "latitude": -24.03333,
    "longitude": -54.26667,
    "category": "Waterfall",
    "subcategory": "Waterfall",
    "featured": false,
    "priority": 50
  },
  {
    "geonameId": 3437148,
    "name": "Salto del Guairá",
    "latitude": -24.0633,
    "longitude": -54.30763,
    "category": "City",
    "subcategory": "Regional Capital",
    "featured": false,
    "priority": 50
  },
  {
    "geonameId": 11768284,
    "name": "Salto Ñacunday",
    "latitude": -26.04873,
    "longitude": -54.6711,
    "category": "Waterfall",
    "subcategory": "Waterfall",
    "featured": false,
    "priority": 50
  },
  {
    "geonameId": 3437614,
    "name": "Salto Palmar",
    "latitude": -24.35,
    "longitude": -59.46667,
    "category": "Waterfall",
    "subcategory": "Waterfall",
    "featured": false,
    "priority": 50
  },
  {
    "geonameId": 3437136,
    "name": "San Alberto",
    "latitude": -24.96667,
    "longitude": -54.9,
    "category": "City",
    "subcategory": "County Seat",
    "featured": false,
    "priority": 50
  },
  {
    "geonameId": 3437127,
    "name": "San Antonio",
    "latitude": -25.42126,
    "longitude": -57.54725,
    "category": "City",
    "subcategory": "City",
    "featured": false,
    "priority": 50
  },
  {
    "geonameId": 3437088,
    "name": "San Isidro de Curuguaty",
    "latitude": -24.47184,
    "longitude": -55.69227,
    "category": "City",
    "subcategory": "City",
    "featured": false,
    "priority": 50
  },
  {
    "geonameId": 3437086,
    "name": "San Joaquín",
    "latitude": -25.02853,
    "longitude": -56.0428,
    "category": "City",
    "subcategory": "County Seat",
    "featured": false,
    "priority": 50
  },
  {
    "geonameId": 3437074,
    "name": "San José de los Arroyos",
    "latitude": -25.5331,
    "longitude": -56.73233,
    "category": "City",
    "subcategory": "City",
    "featured": false,
    "priority": 50
  },
  {
    "geonameId": 3437063,
    "name": "San Juan Bautista",
    "latitude": -26.67028,
    "longitude": -57.14073,
    "category": "City",
    "subcategory": "Regional Capital",
    "featured": false,
    "priority": 50
  },
  {
    "geonameId": 3437059,
    "name": "San Juan Nepomuceno",
    "latitude": -26.11229,
    "longitude": -55.93861,
    "category": "City",
    "subcategory": "City",
    "featured": false,
    "priority": 50
  },
  {
    "geonameId": 3437056,
    "name": "San Lorenzo",
    "latitude": -25.33968,
    "longitude": -57.50879,
    "category": "City",
    "subcategory": "City",
    "featured": false,
    "priority": 50
  },
  {
    "geonameId": 3437021,
    "name": "San Pedro de Ycuamandyyú",
    "latitude": -24.08534,
    "longitude": -57.08745,
    "category": "City",
    "subcategory": "Regional Capital",
    "featured": false,
    "priority": 50
  },
  {
    "geonameId": 3437022,
    "name": "San Pedro del Paraná",
    "latitude": -26.83387,
    "longitude": -56.20694,
    "category": "City",
    "subcategory": "City",
    "featured": false,
    "priority": 50
  },
  {
    "geonameId": 3436968,
    "name": "Santa Rita",
    "latitude": -25.79632,
    "longitude": -55.08847,
    "category": "City",
    "subcategory": "City",
    "featured": false,
    "priority": 50
  },
  {
    "geonameId": 3436959,
    "name": "Santa Rosa",
    "latitude": -26.8873,
    "longitude": -56.84905,
    "category": "City",
    "subcategory": "City",
    "featured": false,
    "priority": 50
  },
  {
    "geonameId": 3436927,
    "name": "Sapucaí",
    "latitude": -25.66652,
    "longitude": -56.95215,
    "category": "City",
    "subcategory": "County Seat",
    "featured": false,
    "priority": 50
  },
  {
    "geonameId": 3436625,
    "name": "Serranía de Ybytymi",
    "latitude": -25.78156,
    "longitude": -56.85425,
    "category": "Mountain",
    "subcategory": "Mountain",
    "featured": false,
    "priority": 50
  },
  {
    "geonameId": 3436812,
    "name": "Tobatí",
    "latitude": -25.26111,
    "longitude": -57.08329,
    "category": "City",
    "subcategory": "City",
    "featured": false,
    "priority": 50
  },
  {
    "geonameId": 3439402,
    "name": "Tomás Romero Pereira",
    "latitude": -26.53115,
    "longitude": -55.26046,
    "category": "City",
    "subcategory": "City",
    "featured": false,
    "priority": 50
  },
  {
    "geonameId": 13645361,
    "name": "Villa Choferes del Chaco Sub-urbano",
    "latitude": -22.47246,
    "longitude": -60.05325,
    "category": "City",
    "subcategory": "District Seat",
    "featured": false,
    "priority": 50
  },
  {
    "geonameId": 3436728,
    "name": "Villa Elisa",
    "latitude": -25.3676,
    "longitude": -57.59274,
    "category": "City",
    "subcategory": "City",
    "featured": false,
    "priority": 50
  },
  {
    "geonameId": 3436725,
    "name": "Villa Hayes",
    "latitude": -25.093,
    "longitude": -57.52725,
    "category": "City",
    "subcategory": "Regional Capital",
    "featured": false,
    "priority": 50
  },
  {
    "geonameId": 3436714,
    "name": "Villarrica",
    "latitude": -25.74946,
    "longitude": -56.43518,
    "category": "City",
    "subcategory": "Regional Capital",
    "featured": false,
    "priority": 50
  },
  {
    "geonameId": 3436674,
    "name": "Yaguarón",
    "latitude": -25.56219,
    "longitude": -57.28662,
    "category": "City",
    "subcategory": "City",
    "featured": false,
    "priority": 50
  },
  {
    "geonameId": 3436622,
    "name": "Yby Yaú",
    "latitude": -22.96611,
    "longitude": -56.54066,
    "category": "City",
    "subcategory": "City",
    "featured": false,
    "priority": 50
  },
  {
    "geonameId": 3436595,
    "name": "Yhú",
    "latitude": -25.05784,
    "longitude": -55.92267,
    "category": "City",
    "subcategory": "County Seat",
    "featured": false,
    "priority": 50
  },
  {
    "geonameId": 3436585,
    "name": "Ypacarai",
    "latitude": -25.40777,
    "longitude": -57.28889,
    "category": "City",
    "subcategory": "City",
    "featured": false,
    "priority": 50
  }
]