[
  {
    "geonameId": 110209,
    "name": "‘Ā’iqah",
    "latitude": 22.03333,
    "longitude": 38.96667,
    "category": "Island",
    "subcategory": "Island",
    "featured": false,
    "priority": 50
  },
  {
    "geonameId": 110679,
    "name": "‘Ablā",
    "latitude": 17.40456,
    "longitude": 44.17181,
    "category": "Mountain",
    "subcategory": "Mountain",
    "featured": false,
    "priority": 50
  },
  {
    "geonameId": 110260,
    "name": "‘Adira",
    "latitude": 22.76667,
    "longitude": 40.9,
    "category": "Mountain",
    "subcategory": "Mountain",
    "featured": false,
    "priority": 50
  },
  {
    "geonameId": 109969,
    "name": "‘Aqabat al ‘Alb",
    "latitude": 17.55,
    "longitude": 43.45,
    "category": "Mountain",
    "subcategory": "Mountain Pass",
    "featured": false,
    "priority": 50
  },
  {
    "geonameId": 104891,
    "name": "‘Aqabat al Khurayţah",
    "latitude": 27.83712,
    "longitude": 36.0483,
    "category": "Mountain",
    "subcategory": "Mountain Pass",
    "featured": false,
    "priority": 50
  },
  {
    "geonameId": 104094,
    "name": "‘Aqabat al Mishār",
    "latitude": 23.78005,
    "longitude": 45.06856,
    "category": "Mountain",
    "subcategory": "Mountain Pass",
    "featured": false,
    "priority": 50
  },
  {
    "geonameId": 102293,
    "name": "‘Aqabat ash Sha‘ār",
    "latitude": 18.43333,
    "longitude": 42.46667,
    "category": "Mountain",
    "subcategory": "Mountain Pass",
    "featured": false,
    "priority": 50
  },
  {
    "geonameId": 104157,
    "name": "‘Aqabat Miftāḩ al Khashabah",
    "latitude": 17.69758,
    "longitude": 43.42812,
    "category": "Mountain",
    "subcategory": "Mountain Pass",
    "featured": false,
    "priority": 50
  },
  {
    "geonameId": 102160,
    "name": "‘Aqabat Sharāghib",
    "latitude": 17.88073,
    "longitude": 43.30889,
    "category": "Mountain",
    "subcategory": "Mountain Pass",
    "featured": false,
    "priority": 50
  },
  {
    "geonameId": 102115,
    "name": "‘Aqabat Shawḩaţah",
    "latitude": 17.71519,
    "longitude": 43.13808,
    "category": "Mountain",
    "subcategory": "Mountain Pass",
    "featured": false,
    "priority": 50
  },
  {
    "geonameId": 108549,
    "name": "‘Aqm",
    "latitude": 16.80502,
    "longitude": 43.05694,
    "category": "Mountain",
    "subcategory": "Mountain",
    "featured": false,
    "priority": 50
  },
  {
    "geonameId": 108543,
    "name": "‘Aqūb",
    "latitude": 22.75,
    "longitude": 40.8,
    "category": "Mountain",
    "subcategory": "Mountain",
    "featured": false,
    "priority": 50
  },
  {
    "geonameId": 108531,
    "name": "‘Arada",
    "latitude": 20.5,
    "longitude": 41.13333,
    "category": "Mountain",
    "subcategory": "Mountain",
    "featured": false,
    "priority": 50
  },
  {
    "geonameId": 108181,
    "name": "‘Āsim",
    "latitude": 16.82957,
    "longitude": 43.06848,
    "category": "Mountain",
    "subcategory": "Mountain",
    "featured": false,
    "priority": 50
  },
  {
    "geonameId": 107880,
    "name": "‘Awrā’",
    "latitude": 17.98997,
    "longitude": 42.16469,
    "category": "Mountain",
    "subcategory": "Mountain",
    "featured": false,
    "priority": 50
  },
  {
    "geonameId": 107856,
    "name": "‘Aynā’",
    "latitude": 17.83333,
    "longitude": 43.26667,
    "category": "Mountain",
    "subcategory": "Mountain",
    "featured": false,
    "priority": 50
  },
  {
    "geonameId": 108655,
    "name": "‘Inak",
    "latitude": 26.51959,
    "longitude": 50.02715,
    "category": "City",
    "subcategory": "City",
    "featured": false,
    "priority": 50
  },
  {
    "geonameId": 101238,
    "name": "‘Udaima",
    "latitude": 20.61667,
    "longitude": 42.75,
    "category": "Mountain",
    "subcategory": "Mountain",
    "featured": false,
    "priority": 50
  },
  {
    "geonameId": 100769,
    "name": "‘Unayzah",
    "latitude": 22.96667,
    "longitude": 40.86667,
    "category": "Mountain",
    "subcategory": "Mountain",
    "featured": false,
    "priority": 50
  },
  {
    "geonameId": 100732,
    "name": "‘Uqlat aş Şuqūr",
    "latitude": 25.82916,
    "longitude": 42.20119,
    "category": "City",
    "subcategory": "City",
    "featured": false,
    "priority": 50
  },
  {
    "geonameId": 100709,
    "name": "‘Urayyiḑ",
    "latitude": 20.81667,
    "longitude": 42.65,
    "category": "Mountain",
    "subcategory": "Mountain",
    "featured": false,
    "priority": 50
  },
  {
    "geonameId": 108782,
    "name": "‘Uyūn al Jiwā’",
    "latitude": 26.49829,
    "longitude": 43.6312,
    "category": "City",
    "subcategory": "City",
    "featured": false,
    "priority": 50
  },
  {
    "geonameId": 8436703,
    "name": "Aaysem",
    "latitude": 24.41417,
    "longitude": 38.88027,
    "category": "Mountain",
    "subcategory": "Mountain",
    "featured": false,
    "priority": 50
  },
  {
    "geonameId": 110758,
    "name": "Abā al Ḩinshān",
    "latitude": 29.25944,
    "longitude": 35.19083,
    "category": "Mountain",
    "subcategory": "Mountain",
    "featured": false,
    "priority": 50
  },
  {
    "geonameId": 110690,
    "name": "Abha",
    "latitude": 18.21639,
    "longitude": 42.50528,
    "category": "City",
    "subcategory": "Regional Capital",
    "featured": false,
    "priority": 50
  },
  {
    "geonameId": 107312,
    "name": "Abqaiq",
    "latitude": 25.93402,
    "longitude": 49.6688,
    "category": "City",
    "subcategory": "City",
    "featured": false,
    "priority": 50
  },
  {
    "geonameId": 395549,
    "name": "Abraq Abū Rijm",
    "latitude": 27.44454,
    "longitude": 43.01868,
    "category": "Mountain",
    "subcategory": "Peak",
    "featured": false,
    "priority": 50
  },
  {
    "geonameId": 396405,
    "name": "Abraq ar Radīfah",
    "latitude": 27.51784,
    "longitude": 42.85494,
    "category": "Mountain",
    "subcategory": "Peak",
    "featured": false,
    "priority": 50
  },
  {
    "geonameId": 110619,
    "name": "Abū ‘Arīsh",
    "latitude": 16.96887,
    "longitude": 42.83251,
    "category": "City",
    "subcategory": "City",
    "featured": false,
    "priority": 50
  },
  {
    "geonameId": 110634,
    "name": "Abu Ali",
    "latitude": 27.33424,
    "longitude": 49.55766,
    "category": "Island",
    "subcategory": "Island",
    "featured": false,
    "priority": 50
  },
  {
    "geonameId": 110568,
    "name": "Abū Hamdān",
    "latitude": 17.45,
    "longitude": 44.08333,
    "category": "Mountain",
    "subcategory": "Mountain",
    "featured": false,
    "priority": 50
  },
  {
    "geonameId": 110523,
    "name": "Abū Latt",
    "latitude": 19.96667,
    "longitude": 40.13333,
    "category": "Island",
    "subcategory": "Island",
    "featured": false,
    "priority": 50
  },
  {
    "geonameId": 407553,
    "name": "Abū Libdah",
    "latitude": 26.38361,
    "longitude": 36.25194,
    "category": "Island",
    "subcategory": "Island",
    "featured": false,
    "priority": 50
  },
  {
    "geonameId": 110506,
    "name": "Abū Matārī",
    "latitude": 24.72708,
    "longitude": 37.15033,
    "category": "Island",
    "subcategory": "Island",
    "featured": false,
    "priority": 50
  },
  {
    "geonameId": 110489,
    "name": "Abū Na‘mi",
    "latitude": 19.86667,
    "longitude": 43.5,
    "category": "Mountain",
    "subcategory": "Mountain",
    "featured": false,
    "priority": 50
  },
  {
    "geonameId": 110430,
    "name": "Abū Shawk",
    "latitude": 17.01043,
    "longitude": 41.77667,
    "category": "Island",
    "subcategory": "Island Group",
    "featured": false,
    "priority": 50
  },
  {
    "geonameId": 110426,
    "name": "Abū Shawr",
    "latitude": 16.98333,
    "longitude": 41.75,
    "category": "Island",
    "subcategory": "Island",
    "featured": false,
    "priority": 50
  },
  {
    "geonameId": 110416,
    "name": "Abū Shukar",
    "latitude": 16.92481,
    "longitude": 42.28937,
    "category": "Island",
    "subcategory": "Island",
    "featured": false,
    "priority": 50
  },
  {
    "geonameId": 110434,
    "name": "Abū Shurāya",
    "latitude": 16.71937,
    "longitude": 42.26176,
    "category": "Island",
    "subcategory": "Island Group",
    "featured": false,
    "priority": 50
  },
  {
    "geonameId": 110380,
    "name": "Abū Zahrah",
    "latitude": 18.58577,
    "longitude": 40.80577,
    "category": "Island",
    "subcategory": "Island",
    "featured": false,
    "priority": 50
  },
  {
    "geonameId": 11784302,
    "name": "Ad Dahnā’",
    "latitude": 28.85899,
    "longitude": 43.05743,
    "category": "Desert",
    "subcategory": "Desert",
    "featured": false,
    "priority": 50
  },
  {
    "geonameId": 110328,
    "name": "Ad Darb",
    "latitude": 17.72285,
    "longitude": 42.25261,
    "category": "City",
    "subcategory": "City",
    "featured": false,
    "priority": 50
  },
  {
    "geonameId": 110325,
    "name": "Ad Dawādimī",
    "latitude": 24.50772,
    "longitude": 44.39237,
    "category": "City",
    "subcategory": "City",
    "featured": false,
    "priority": 50
  },
  {
    "geonameId": 110314,
    "name": "Ad Dilam",
    "latitude": 23.99104,
    "longitude": 47.16181,
    "category": "City",
    "subcategory": "City",
    "featured": false,
    "priority": 50
  },
  {
    "geonameId": 110312,
    "name": "Ad Dir‘īyah",
    "latitude": 24.75187,
    "longitude": 46.53874,
    "category": "City",
    "subcategory": "City",
    "featured": false,
    "priority": 50
  },
  {
    "geonameId": 110310,
    "name": "Ad Dissān",
    "latitude": 16.92667,
    "longitude": 41.68583,
    "category": "Island",
    "subcategory": "Island",
    "featured": false,
    "priority": 50
  },
  {
    "geonameId": 110275,
    "name": "Adh Dhibiyah",
    "latitude": 26.027,
    "longitude": 43.157,
    "category": "City",
    "subcategory": "City",
    "featured": false,
    "priority": 50
  },
  {
    "geonameId": 110250,
    "name": "Afif",
    "latitude": 23.9065,
    "longitude": 42.91724,
    "category": "City",
    "subcategory": "City",
    "featured": false,
    "priority": 50
  },
  {
    "geonameId": 110229,
    "name": "Ahdan",
    "latitude": 22.83333,
    "longitude": 40.95,
    "category": "Mountain",
    "subcategory": "Mountain",
    "featured": false,
    "priority": 50
  },
  {
    "geonameId": 110176,
    "name": "Akamin",
    "latitude": 22.56667,
    "longitude": 41.95,
    "category": "Mountain",
    "subcategory": "Mountain",
    "featured": false,
    "priority": 50
  },
  {
    "geonameId": 110170,
    "name": "Akbar ‘Uqaylī",
    "latitude": 16.62611,
    "longitude": 41.91667,
    "category": "Island",
    "subcategory": "Island",
    "featured": false,
    "priority": 50
  },
  {
    "geonameId": 110169,
    "name": "Akbayn",
    "latitude": 17.00843,
    "longitude": 41.79339,
    "category": "Island",
    "subcategory": "Island",
    "featured": false,
    "priority": 50
  },
  {
    "geonameId": 110113,
    "name": "Al ‘Āh",
    "latitude": 27.3,
    "longitude": 40.01667,
    "category": "Mountain",
    "subcategory": "Mountain Pass",
    "featured": false,
    "priority": 50
  },
  {
    "geonameId": 110059,
    "name": "Al ‘Aqīq",
    "latitude": 20.65,
    "longitude": 41.41667,
    "category": "City",
    "subcategory": "City",
    "featured": false,
    "priority": 50
  },
  {
    "geonameId": 109991,
    "name": "Al ‘Awjā’",
    "latitude": 27.78333,
    "longitude": 36.15,
    "category": "Mountain",
    "subcategory": "Mountain Pass",
    "featured": false,
    "priority": 50
  },
  {
    "geonameId": 109998,
    "name": "Al ‘Awwāmīyah",
    "latitude": 26.59144,
    "longitude": 49.97951,
    "category": "City",
    "subcategory": "City",
    "featured": false,
    "priority": 50
  },
  {
    "geonameId": 108851,
    "name": "Al ‘Udaynīyāt",
    "latitude": 25.43333,
    "longitude": 45.88333,
    "category": "Mountain",
    "subcategory": "Mountain Pass",
    "featured": false,
    "priority": 50
  },
  {
    "geonameId": 108792,
    "name": "Al ‘Uwaynidhīyah",
    "latitude": 26.6318,
    "longitude": 36.08202,
    "category": "Island",
    "subcategory": "Island",
    "featured": false,
    "priority": 50
  },
  {
    "geonameId": 108787,
    "name": "Al ‘Uyaynah",
    "latitude": 24.9074,
    "longitude": 46.3846,
    "category": "City",
    "subcategory": "City",
    "featured": false,
    "priority": 50
  },
  {
    "geonameId": 8715841,
    "name": "Al Amwāj Muntazah wa Maţā‘im wa Al‘āb",
    "latitude": 21.58436,
    "longitude": 39.11017,
    "category": "Park",
    "subcategory": "Park",
    "featured": false,
    "priority": 50
  },
  {
    "geonameId": 110031,
    "name": "Al Arţāwīyah",
    "latitude": 26.50387,
    "longitude": 45.34813,
    "category": "City",
    "subcategory": "City",
    "featured": false,
    "priority": 50
  },
  {
    "geonameId": 110107,
    "name": "Al Awjām",
    "latitude": 26.56324,
    "longitude": 49.94331,
    "category": "City",
    "subcategory": "City",
    "featured": false,
    "priority": 50
  },
  {
    "geonameId": 397833,
    "name": "Al Badā’i‘ al Wusţá",
    "latitude": 25.98546,
    "longitude": 43.73659,
    "category": "City",
    "subcategory": "City",
    "featured": false,
    "priority": 50
  },
  {
    "geonameId": 109953,
    "name": "Al Bahah",
    "latitude": 20.01288,
    "longitude": 41.46767,
    "category": "City",
    "subcategory": "Regional Capital",
    "featured": false,
    "priority": 50
  },
  {
    "geonameId": 107510,
    "name": "Al Bāţinah",
    "latitude": 27.23791,
    "longitude": 49.50486,
    "category": "Island",
    "subcategory": "Island",
    "featured": false,
    "priority": 50
  },
  {
    "geonameId": 109915,
    "name": "Al Baţţālīyah",
    "latitude": 25.43333,
    "longitude": 49.63333,
    "category": "City",
    "subcategory": "City",
    "featured": false,
    "priority": 50
  },
  {
    "geonameId": 389575,
    "name": "Al Bāzūm",
    "latitude": 24.79783,
    "longitude": 50.65796,
    "category": "Mountain",
    "subcategory": "Mountain Pass",
    "featured": false,
    "priority": 50
  },
  {
    "geonameId": 109883,
    "name": "Al Bughayth",
    "latitude": 26.71667,
    "longitude": 40.4,
    "category": "Mountain",
    "subcategory": "Mountain",
    "featured": false,
    "priority": 50
  },
  {
    "geonameId": 109878,
    "name": "Al Bukayrīyah",
    "latitude": 26.13915,
    "longitude": 43.65782,
    "category": "City",
    "subcategory": "City",
    "featured": false,
    "priority": 50
  },
  {
    "geonameId": 109859,
    "name": "Al Buwaybīyah",
    "latitude": 25.24333,
    "longitude": 46.91611,
    "category": "Mountain",
    "subcategory": "Mountain Pass",
    "featured": false,
    "priority": 50
  },
  {
    "geonameId": 397513,
    "name": "Al Fuwayliq",
    "latitude": 26.4436,
    "longitude": 43.25164,
    "category": "City",
    "subcategory": "City",
    "featured": false,
    "priority": 50
  },
  {
    "geonameId": 410084,
    "name": "Al Hadā",
    "latitude": 21.35903,
    "longitude": 40.2803,
    "category": "City",
    "subcategory": "City",
    "featured": false,
    "priority": 50
  },
  {
    "geonameId": 12452036,
    "name": "Al Ḩadīqah al Mā’īyah",
    "latitude": 21.59314,
    "longitude": 39.1435,
    "category": "Park",
    "subcategory": "Park",
    "featured": false,
    "priority": 50
  },
  {
    "geonameId": 8715846,
    "name": "Al Ḩadīqah aş Şakhrīyah al Baghdādīyah",
    "latitude": 21.49945,
    "longitude": 39.18548,
    "category": "Park",
    "subcategory": "Park",
    "featured": false,
    "priority": 50
  },
  {
    "geonameId": 8724802,
    "name": "Al Ḩakīr Fun Tāwn",
    "latitude": 21.4162,
    "longitude": 39.78045,
    "category": "Park",
    "subcategory": "Park",
    "featured": false,
    "priority": 50
  },
  {
    "geonameId": 109684,
    "name": "Al Ḩammah",
    "latitude": 18.23572,
    "longitude": 44.45243,
    "category": "Mountain",
    "subcategory": "Mountain",
    "featured": false,
    "priority": 50
  },
  {
    "geonameId": 109674,
    "name": "Al Ḩanādir",
    "latitude": 26.46667,
    "longitude": 43.45,
    "category": "Mountain",
    "subcategory": "Mountain",
    "featured": false,
    "priority": 50
  },
  {
    "geonameId": 109642,
    "name": "Al Ḩasānī",
    "latitude": 24.97778,
    "longitude": 37.08361,
    "category": "Island",
    "subcategory": "Island",
    "featured": false,
    "priority": 50
  },
  {
    "geonameId": 109622,
    "name": "Al Ḩawmah",
    "latitude": 28.33166,
    "longitude": 42.27681,
    "category": "Desert",
    "subcategory": "Desert",
    "featured": false,
    "priority": 50
  },
  {
    "geonameId": 109615,
    "name": "Al Hayāthim",
    "latitude": 24.16555,
    "longitude": 47.23764,
    "category": "City",
    "subcategory": "City",
    "featured": false,
    "priority": 50
  },
  {
    "geonameId": 109706,
    "name": "Al Ḩillah",
    "latitude": 18.21796,
    "longitude": 40.72396,
    "category": "Island",
    "subcategory": "Island",
    "featured": false,
    "priority": 50
  },
  {
    "geonameId": 109571,
    "name": "Al Hufūf",
    "latitude": 25.36467,
    "longitude": 49.58764,
    "category": "City",
    "subcategory": "City",
    "featured": false,
    "priority": 50
  },
  {
    "geonameId": 109538,
    "name": "Al Ḩuwaymiḑah",
    "latitude": 23.3,
    "longitude": 40.33333,
    "category": "Mountain",
    "subcategory": "Mountain",
    "featured": false,
    "priority": 50
  },
  {
    "geonameId": 109508,
    "name": "Al Jadīr",
    "latitude": 19.81667,
    "longitude": 39.96667,
    "category": "Island",
    "subcategory": "Island",
    "featured": false,
    "priority": 50
  },
  {
    "geonameId": 109502,
    "name": "Al Jafr",
    "latitude": 25.37736,
    "longitude": 49.72154,
    "category": "City",
    "subcategory": "City",
    "featured": false,
    "priority": 50
  },
  {
    "geonameId": 109500,
    "name": "Al Jāfūrah",
    "latitude": 24.71016,
    "longitude": 49.98305,
    "category": "Desert",
    "subcategory": "Desert",
    "featured": false,
    "priority": 50
  },
  {
    "geonameId": 109481,
    "name": "Al Jarādīyah",
    "latitude": 16.57946,
    "longitude": 42.9124,
    "category": "City",
    "subcategory": "City",
    "featured": false,
    "priority": 50
  },
  {
    "geonameId": 110049,
    "name": "Al Jazīrat al ‘Arabiyah",
    "latitude": 27.77857,
    "longitude": 50.17622,
    "category": "Island",
    "subcategory": "Island",
    "featured": false,
    "priority": 50
  },
  {
    "geonameId": 109435,
    "name": "Al Jubayl",
    "latitude": 27.0174,
    "longitude": 49.62251,
    "category": "City",
    "subcategory": "City",
    "featured": false,
    "priority": 50
  },
  {
    "geonameId": 109432,
    "name": "Al Jubaylah",
    "latitude": 24.91116,
    "longitude": 46.4465,
    "category": "City",
    "subcategory": "City",
    "featured": false,
    "priority": 50
  },
  {
    "geonameId": 109417,
    "name": "Al Jumūm",
    "latitude": 21.61951,
    "longitude": 39.69659,
    "category": "City",
    "subcategory": "City",
    "featured": false,
    "priority": 50
  },
  {
    "geonameId": 109391,
    "name": "Al Khabrā’",
    "latitude": 26.07179,
    "longitude": 43.62497,
    "category": "City",
    "subcategory": "City",
    "featured": false,
    "priority": 50
  },
  {
    "geonameId": 109380,
    "name": "Al Khafjī",
    "latitude": 28.43905,
    "longitude": 48.49132,
    "category": "City",
    "subcategory": "City",
    "featured": false,
    "priority": 50
  },
  {
    "geonameId": 109353,
    "name": "Al Kharj",
    "latitude": 24.15541,
    "longitude": 47.33457,
    "category": "City",
    "subcategory": "City",
    "featured": false,
    "priority": 50
  },
  {
    "geonameId": 109306,
    "name": "Al Khurmah",
    "latitude": 21.91149,
    "longitude": 42.03092,
    "category": "City",
    "subcategory": "City",
    "featured": false,
    "priority": 50
  },
  {
    "geonameId": 109253,
    "name": "Al Līth",
    "latitude": 20.14804,
    "longitude": 40.27224,
    "category": "City",
    "subcategory": "City",
    "featured": false,
    "priority": 50
  },
  {
    "geonameId": 399518,
    "name": "Al Majāridah",
    "latitude": 19.132,
    "longitude": 41.924,
    "category": "City",
    "subcategory": "City",
    "featured": false,
    "priority": 50
  },
  {
    "geonameId": 109194,
    "name": "Al Majma‘ah",
    "latitude": 25.91097,
    "longitude": 45.35665,
    "category": "City",
    "subcategory": "County Seat",
    "featured": false,
    "priority": 50
  },
  {
    "geonameId": 109192,
    "name": "Al Makhdar",
    "latitude": 20.58333,
    "longitude": 42.33333,
    "category": "Mountain",
    "subcategory": "Mountain Pass",
    "featured": false,
    "priority": 50
  },
  {
    "geonameId": 109170,
    "name": "Al Marāshidīyah",
    "latitude": 29.81954,
    "longitude": 37.38133,
    "category": "Mountain",
    "subcategory": "Mountain",
    "featured": false,
    "priority": 50
  },
  {
    "geonameId": 109165,
    "name": "Al Markaz",
    "latitude": 25.4,
    "longitude": 49.73333,
    "category": "City",
    "subcategory": "City",
    "featured": false,
    "priority": 50
  },
  {
    "geonameId": 109163,
    "name": "Al Marmá",
    "latitude": 27.18333,
    "longitude": 41.2,
    "category": "Mountain",
    "subcategory": "Mountain Pass",
    "featured": false,
    "priority": 50
  },
  {
    "geonameId": 12513572,
    "name": "Al Mash‘ilīyah",
    "latitude": 17.75558,
    "longitude": 44.468,
    "category": "City",
    "subcategory": "City",
    "featured": false,
    "priority": 50
  },
  {
    "geonameId": 109120,
    "name": "Al Minbar",
    "latitude": 28.7266,
    "longitude": 36.59239,
    "category": "Mountain",
    "subcategory": "Peak",
    "featured": false,
    "priority": 50
  },
  {
    "geonameId": 109118,
    "name": "Al Mindak",
    "latitude": 20.1588,
    "longitude": 41.28337,
    "category": "City",
    "subcategory": "City",
    "featured": false,
    "priority": 50
  },
  {
    "geonameId": 109131,
    "name": "Al Mithnab",
    "latitude": 25.86012,
    "longitude": 44.22228,
    "category": "City",
    "subcategory": "City",
    "featured": false,
    "priority": 50
  },
  {
    "geonameId": 109101,
    "name": "Al Mubarraz",
    "latitude": 25.40768,
    "longitude": 49.59028,
    "category": "City",
    "subcategory": "City",
    "featured": false,
    "priority": 50
  },
  {
    "geonameId": 11829674,
    "name": "Al Mulaydā’",
    "latitude": 26.31781,
    "longitude": 43.78527,
    "category": "City",
    "subcategory": "City",
    "featured": false,
    "priority": 50
  },
  {
    "geonameId": 109059,
    "name": "Al Munayzilah",
    "latitude": 25.38333,
    "longitude": 49.66667,
    "category": "City",
    "subcategory": "City",
    "featured": false,
    "priority": 50
  },
  {
    "geonameId": 109055,
    "name": "Al Mundafan",
    "latitude": 18.52434,
    "longitude": 45.42139,
    "category": "Mountain",
    "subcategory": "Mountain Pass",
    "featured": false,
    "priority": 50
  },
  {
    "geonameId": 109008,
    "name": "Al Muţayrifī",
    "latitude": 25.47878,
    "longitude": 49.55824,
    "category": "City",
    "subcategory": "City",
    "featured": false,
    "priority": 50
  },
  {
    "geonameId": 409993,
    "name": "Al Muwayh",
    "latitude": 22.43333,
    "longitude": 41.75829,
    "category": "City",
    "subcategory": "City",
    "featured": false,
    "priority": 50
  },
  {
    "geonameId": 409684,
    "name": "Al Qaham",
    "latitude": 22.47009,
    "longitude": 39.67029,
    "category": "Mountain",
    "subcategory": "Mountain",
    "featured": false,
    "priority": 50
  },
  {
    "geonameId": 108957,
    "name": "Al Qārah",
    "latitude": 25.41667,
    "longitude": 49.66667,
    "category": "City",
    "subcategory": "City",
    "featured": false,
    "priority": 50
  },
  {
    "geonameId": 108950,
    "name": "Al Qarfah",
    "latitude": 27.26667,
    "longitude": 41.25,
    "category": "Mountain",
    "subcategory": "Mountain",
    "featured": false,
    "priority": 50
  },
  {
    "geonameId": 108927,
    "name": "Al Qaţīf",
    "latitude": 26.56542,
    "longitude": 50.0089,
    "category": "City",
    "subcategory": "City",
    "featured": false,
    "priority": 50
  },
  {
    "geonameId": 108923,
    "name": "Al Qaţţār",
    "latitude": 24.7,
    "longitude": 42.8,
    "category": "Mountain",
    "subcategory": "Mountain",
    "featured": false,
    "priority": 50
  },
  {
    "geonameId": 108912,
    "name": "Al Qu‘aymah",
    "latitude": 18.73284,
    "longitude": 45.86402,
    "category": "Mountain",
    "subcategory": "Mountain",
    "featured": false,
    "priority": 50
  },
  {
    "geonameId": 108890,
    "name": "Al Qurayn",
    "latitude": 25.48333,
    "longitude": 49.6,
    "category": "City",
    "subcategory": "City",
    "featured": false,
    "priority": 50
  },
  {
    "geonameId": 108835,
    "name": "Al Umm",
    "latitude": 18.27458,
    "longitude": 40.73347,
    "category": "Island",
    "subcategory": "Island",
    "featured": false,
    "priority": 50
  },
  {
    "geonameId": 108753,
    "name": "Al Wadī‘ah",
    "latitude": 17.05838,
    "longitude": 47.08902,
    "category": "City",
    "subcategory": "City",
    "featured": false,
    "priority": 50
  },
  {
    "geonameId": 108775,
    "name": "Al Wahbah",
    "latitude": 22.90149,
    "longitude": 41.13981,
    "category": "Mountain",
    "subcategory": "Mountain",
    "featured": false,
    "priority": 50
  },
  {
    "geonameId": 108773,
    "name": "Al Wajh",
    "latitude": 26.23094,
    "longitude": 36.46492,
    "category": "City",
    "subcategory": "County Seat",
    "featured": false,
    "priority": 50
  },
  {
    "geonameId": 108841,
    "name": "Al-`Ula",
    "latitude": 26.60853,
    "longitude": 37.92316,
    "category": "City",
    "subcategory": "City",
    "featured": false,
    "priority": 50
  },
  {
    "geonameId": 8436679,
    "name": "Alasytrayn الأصيفرين",
    "latitude": 24.46408,
    "longitude": 39.59273,
    "category": "Mountain",
    "subcategory": "Mountain",
    "featured": false,
    "priority": 50
  },
  {
    "geonameId": 8436692,
    "name": "Alhdpah الهضبه",
    "latitude": 24.44053,
    "longitude": 38.88102,
    "category": "Mountain",
    "subcategory": "Mountain",
    "featured": false,
    "priority": 50
  },
  {
    "geonameId": 108646,
    "name": "An Nabqīyah",
    "latitude": 26.73977,
    "longitude": 36.03853,
    "category": "Island",
    "subcategory": "Island",
    "featured": false,
    "priority": 50
  },
  {
    "geonameId": 108625,
    "name": "An Nāşif",
    "latitude": 20.25,
    "longitude": 44.23333,
    "category": "Mountain",
    "subcategory": "Mountain Pass",
    "featured": false,
    "priority": 50
  },
  {
    "geonameId": 108617,
    "name": "An Nimas",
    "latitude": 19.14547,
    "longitude": 42.12009,
    "category": "City",
    "subcategory": "City",
    "featured": false,
    "priority": 50
  },
  {
    "geonameId": 108641,
    "name": "An Nufūd",
    "latitude": 28.5,
    "longitude": 41,
    "category": "Desert",
    "subcategory": "Desert",
    "featured": false,
    "priority": 50
  },
  {
    "geonameId": 108435,
    "name": "Ar Rass",
    "latitude": 25.86944,
    "longitude": 43.4973,
    "category": "City",
    "subcategory": "City",
    "featured": false,
    "priority": 50
  },
  {
    "geonameId": 108401,
    "name": "Ar Rujm",
    "latitude": 27.56667,
    "longitude": 36.96667,
    "category": "Mountain",
    "subcategory": "Mountain",
    "featured": false,
    "priority": 50
  },
  {
    "geonameId": 108517,
    "name": "Aran",
    "latitude": 21.3,
    "longitude": 41.41667,
    "category": "Mountain",
    "subcategory": "Mountain",
    "featured": false,
    "priority": 50
  },
  {
    "geonameId": 108512,
    "name": "Arar",
    "latitude": 30.97531,
    "longitude": 41.03808,
    "category": "City",
    "subcategory": "Regional Capital",
    "featured": false,
    "priority": 50
  },
  {
    "geonameId": 108142,
    "name": "As Saffānīyah",
    "latitude": 27.97083,
    "longitude": 48.73,
    "category": "City",
    "subcategory": "City",
    "featured": false,
    "priority": 50
  },
  {
    "geonameId": 108099,
    "name": "As Sarrah",
    "latitude": 25.58333,
    "longitude": 49.63333,
    "category": "Lake",
    "subcategory": "Reservoir",
    "featured": false,
    "priority": 50
  },
  {
    "geonameId": 108074,
    "name": "As Silf",
    "latitude": 27.45073,
    "longitude": 41.48893,
    "category": "Mountain",
    "subcategory": "Mountain Pass",
    "featured": false,
    "priority": 50
  },
  {
    "geonameId": 108048,
    "name": "As Sulayyil",
    "latitude": 20.46067,
    "longitude": 45.57792,
    "category": "City",
    "subcategory": "City",
    "featured": false,
    "priority": 50
  },
  {
    "geonameId": 108343,
    "name": "Aşābi‘ ad Durūb",
    "latitude": 25.68333,
    "longitude": 45.21667,
    "category": "Mountain",
    "subcategory": "Mountain Pass",
    "featured": false,
    "priority": 50
  },
  {
    "geonameId": 410096,
    "name": "Ash Shafā",
    "latitude": 21.07268,
    "longitude": 40.31842,
    "category": "City",
    "subcategory": "City",
    "featured": false,
    "priority": 50
  },
  {
    "geonameId": 108228,
    "name": "Ash Shaykh Mirbāţ",
    "latitude": 25.83333,
    "longitude": 36.58333,
    "category": "Island",
    "subcategory": "Island",
    "featured": false,
    "priority": 50
  },
  {
    "geonameId": 101973,
    "name": "Ash Shuqayrī",
    "latitude": 17.13109,
    "longitude": 42.82674,
    "category": "City",
    "subcategory": "City",
    "featured": false,
    "priority": 50
  },
  {
    "geonameId": 107959,
    "name": "Aţ Ţaraf",
    "latitude": 25.36232,
    "longitude": 49.72757,
    "category": "City",
    "subcategory": "City",
    "featured": false,
    "priority": 50
  },
  {
    "geonameId": 101344,
    "name": "At Tūbī",
    "latitude": 26.55778,
    "longitude": 49.99167,
    "category": "City",
    "subcategory": "City",
    "featured": false,
    "priority": 50
  },
  {
    "geonameId": 107920,
    "name": "At Tuwaymah",
    "latitude": 27.81667,
    "longitude": 36.3,
    "category": "Mountain",
    "subcategory": "Mountain",
    "featured": false,
    "priority": 50
  },
  {
    "geonameId": 107840,
    "name": "Ayn Ibn Fuhayd",
    "latitude": 26.77157,
    "longitude": 44.2071,
    "category": "City",
    "subcategory": "City",
    "featured": false,
    "priority": 50
  },
  {
    "geonameId": 8715752,
    "name": "Ays Lānd",
    "latitude": 21.59901,
    "longitude": 39.14501,
    "category": "Park",
    "subcategory": "Park",
    "featured": false,
    "priority": 50
  },
  {
    "geonameId": 100399,
    "name": "Az̧ Z̧abyah",
    "latitude": 17.11788,
    "longitude": 42.66694,
    "category": "City",
    "subcategory": "City",
    "featured": false,
    "priority": 50
  },
  {
    "geonameId": 107781,
    "name": "Az Zulfī",
    "latitude": 26.29945,
    "longitude": 44.81542,
    "category": "City",
    "subcategory": "City",
    "featured": false,
    "priority": 50
  },
  {
    "geonameId": 107744,
    "name": "Badr Ḩunayn",
    "latitude": 23.78292,
    "longitude": 38.79047,
    "category": "City",
    "subcategory": "City",
    "featured": false,
    "priority": 50
  },
  {
    "geonameId": 107727,
    "name": "Baḩr aş Şāfī",
    "latitude": 18,
    "longitude": 48,
    "category": "Desert",
    "subcategory": "Desert",
    "featured": false,
    "priority": 50
  },
  {
    "geonameId": 107724,
    "name": "Baḩrīyah",
    "latitude": 17.86667,
    "longitude": 42.16667,
    "category": "Mountain",
    "subcategory": "Mountain",
    "featured": false,
    "priority": 50
  },
  {
    "geonameId": 107716,
    "name": "Baka",
    "latitude": 17.76792,
    "longitude": 43.12563,
    "category": "Mountain",
    "subcategory": "Mountain",
    "featured": false,
    "priority": 50
  },
  {
    "geonameId": 107692,
    "name": "Baljurashi",
    "latitude": 19.85944,
    "longitude": 41.55722,
    "category": "City",
    "subcategory": "City",
    "featured": false,
    "priority": 50
  },
  {
    "geonameId": 107688,
    "name": "Bamadh",
    "latitude": 18.66667,
    "longitude": 43.26667,
    "category": "Mountain",
    "subcategory": "Mountain",
    "featured": false,
    "priority": 50
  },
  {
    "geonameId": 107648,
    "name": "Banī Kabīr",
    "latitude": 26.25525,
    "longitude": 50.31811,
    "category": "Island",
    "subcategory": "Island",
    "featured": false,
    "priority": 50
  },
  {
    "geonameId": 107588,
    "name": "Baq‘ā’",
    "latitude": 27.90647,
    "longitude": 42.38898,
    "category": "City",
    "subcategory": "City",
    "featured": false,
    "priority": 50
  },
  {
    "geonameId": 107568,
    "name": "Baram",
    "latitude": 17.45,
    "longitude": 42.78333,
    "category": "Mountain",
    "subcategory": "Peak",
    "featured": false,
    "priority": 50
  },
  {
    "geonameId": 12495725,
    "name": "Bariq",
    "latitude": 18.92966,
    "longitude": 41.92953,
    "category": "City",
    "subcategory": "City",
    "featured": false,
    "priority": 50
  },
  {
    "geonameId": 107413,
    "name": "Biram",
    "latitude": 23.98333,
    "longitude": 39.6,
    "category": "Mountain",
    "subcategory": "Mountain",
    "featured": false,
    "priority": 50
  },
  {
    "geonameId": 107374,
    "name": "Boduffer Islands",
    "latitude": 16.43333,
    "longitude": 42.4,
    "category": "Island",
    "subcategory": "Island Group",
    "featured": false,
    "priority": 50
  },
  {
    "geonameId": 107349,
    "name": "Bughāth",
    "latitude": 19.31667,
    "longitude": 42.7,
    "category": "Mountain",
    "subcategory": "Mountain",
    "featured": false,
    "priority": 50
  },
  {
    "geonameId": 107345,
    "name": "Buhatzar Island",
    "latitude": 17.01667,
    "longitude": 41.71667,
    "category": "Island",
    "subcategory": "Island",
    "featured": false,
    "priority": 50
  },
  {
    "geonameId": 107304,
    "name": "Buraydah",
    "latitude": 26.32599,
    "longitude": 43.97497,
    "category": "City",
    "subcategory": "Regional Capital",
    "featured": false,
    "priority": 50
  },
  {
    "geonameId": 107283,
    "name": "Burqat al Buraythīyah",
    "latitude": 28.21667,
    "longitude": 38.21667,
    "category": "Mountain",
    "subcategory": "Mountain",
    "featured": false,
    "priority": 50
  },
  {
    "geonameId": 106470,
    "name": "Buwayb al Ghazwān",
    "latitude": 30.03333,
    "longitude": 39.81667,
    "category": "Mountain",
    "subcategory": "Mountain Pass",
    "featured": false,
    "priority": 50
  },
  {
    "geonameId": 107237,
    "name": "Castle Hill",
    "latitude": 18.2,
    "longitude": 44.36667,
    "category": "Mountain",
    "subcategory": "Mountain",
    "featured": false,
    "priority": 50
  },
  {
    "geonameId": 107236,
    "name": "Cats Ears",
    "latitude": 22.88333,
    "longitude": 39.75,
    "category": "Mountain",
    "subcategory": "Mountain",
    "featured": false,
    "priority": 50
  },
  {
    "geonameId": 107232,
    "name": "Coyte Island",
    "latitude": 16.43333,
    "longitude": 41.85,
    "category": "Island",
    "subcategory": "Island",
    "featured": false,
    "priority": 50
  },
  {
    "geonameId": 107231,
    "name": "Customs Island",
    "latitude": 21.46667,
    "longitude": 39.16667,
    "category": "Island",
    "subcategory": "Island",
    "featured": false,
    "priority": 50
  },
  {
    "geonameId": 107117,
    "name": "Ḑamad",
    "latitude": 17.10426,
    "longitude": 42.78155,
    "category": "City",
    "subcategory": "City",
    "featured": false,
    "priority": 50
  },
  {
    "geonameId": 110336,
    "name": "Dammam",
    "latitude": 26.43442,
    "longitude": 50.10326,
    "category": "City",
    "subcategory": "Regional Capital",
    "featured": false,
    "priority": 50
  },
  {
    "geonameId": 107095,
    "name": "Danak",
    "latitude": 19.51667,
    "longitude": 40.03333,
    "category": "Island",
    "subcategory": "Island",
    "featured": false,
    "priority": 50
  },
  {
    "geonameId": 107041,
    "name": "Dawr al Ḩarā’iq",
    "latitude": 16.98333,
    "longitude": 43.13333,
    "category": "Mountain",
    "subcategory": "Mountain",
    "featured": false,
    "priority": 50
  },
  {
    "geonameId": 13645279,
    "name": "Dhahabān",
    "latitude": 18.09976,
    "longitude": 41.61605,
    "category": "City",
    "subcategory": "City",
    "featured": false,
    "priority": 50
  },
  {
    "geonameId": 107012,
    "name": "Dhāhik",
    "latitude": 16.91534,
    "longitude": 42.10471,
    "category": "Island",
    "subcategory": "Island",
    "featured": false,
    "priority": 50
  },
  {
    "geonameId": 107797,
    "name": "Dhahran",
    "latitude": 26.28864,
    "longitude": 50.11396,
    "category": "City",
    "subcategory": "City",
    "featured": false,
    "priority": 50
  },
  {
    "geonameId": 107007,
    "name": "Dhakhr",
    "latitude": 22.93333,
    "longitude": 40.7,
    "category": "Mountain",
    "subcategory": "Mountain",
    "featured": false,
    "priority": 50
  },
  {
    "geonameId": 106996,
    "name": "Dhara‘ah",
    "latitude": 22.76667,
    "longitude": 40.81667,
    "category": "Mountain",
    "subcategory": "Mountain",
    "featured": false,
    "priority": 50
  },
  {
    "geonameId": 106988,
    "name": "Dhāt‘atf",
    "latitude": 17.38333,
    "longitude": 43.83333,
    "category": "Mountain",
    "subcategory": "Mountain",
    "featured": false,
    "priority": 50
  },
  {
    "geonameId": 106978,
    "name": "Dhī Ḑaḩāyā",
    "latitude": 16.8896,
    "longitude": 41.46386,
    "category": "Island",
    "subcategory": "Island",
    "featured": false,
    "priority": 50
  },
  {
    "geonameId": 106965,
    "name": "Dhū Dafr",
    "latitude": 16.4188,
    "longitude": 42.39872,
    "category": "Island",
    "subcategory": "Island",
    "featured": false,
    "priority": 50
  },
  {
    "geonameId": 106945,
    "name": "Di‘āmah",
    "latitude": 20.16667,
    "longitude": 40.2,
    "category": "Island",
    "subcategory": "Island",
    "featured": false,
    "priority": 50
  },
  {
    "geonameId": 106913,
    "name": "Dohra",
    "latitude": 19.83333,
    "longitude": 39.9,
    "category": "Island",
    "subcategory": "Island",
    "featured": false,
    "priority": 50
  },
  {
    "geonameId": 106911,
    "name": "Dorīsh",
    "latitude": 18.515,
    "longitude": 40.66583,
    "category": "Island",
    "subcategory": "Island",
    "featured": false,
    "priority": 50
  },
  {
    "geonameId": 106909,
    "name": "Duba",
    "latitude": 27.35134,
    "longitude": 35.69014,
    "category": "City",
    "subcategory": "City",
    "featured": false,
    "priority": 50
  },
  {
    "geonameId": 106906,
    "name": "Dubārah",
    "latitude": 18.74639,
    "longitude": 40.97972,
    "category": "Island",
    "subcategory": "Island",
    "featured": false,
    "priority": 50
  },
  {
    "geonameId": 106898,
    "name": "Duff Island",
    "latitude": 16.84228,
    "longitude": 41.98996,
    "category": "Island",
    "subcategory": "Island",
    "featured": false,
    "priority": 50
  },
  {
    "geonameId": 106872,
    "name": "Dukhnah",
    "latitude": 25.35621,
    "longitude": 43.62268,
    "category": "City",
    "subcategory": "City",
    "featured": false,
    "priority": 50
  },
  {
    "geonameId": 102970,
    "name": "Ḑulay‘at Rajājīl",
    "latitude": 22.08333,
    "longitude": 41.35,
    "category": "Mountain",
    "subcategory": "Mountain",
    "featured": false,
    "priority": 50
  },
  {
    "geonameId": 106845,
    "name": "Durākah",
    "latitude": 16.85322,
    "longitude": 42.30068,
    "category": "Island",
    "subcategory": "Island",
    "featured": false,
    "priority": 50
  },
  {
    "geonameId": 106836,
    "name": "Dushuk",
    "latitude": 16.65278,
    "longitude": 41.86528,
    "category": "Island",
    "subcategory": "Island",
    "featured": false,
    "priority": 50
  },
  {
    "geonameId": 106835,
    "name": "Duthūr as Salām",
    "latitude": 19.17549,
    "longitude": 43.20174,
    "category": "Mountain",
    "subcategory": "Mountain",
    "featured": false,
    "priority": 50
  },
  {
    "geonameId": 106782,
    "name": "Fajj ar Ramīdī",
    "latitude": 21.63333,
    "longitude": 39.63333,
    "category": "Mountain",
    "subcategory": "Mountain Pass",
    "featured": false,
    "priority": 50
  },
  {
    "geonameId": 106744,
    "name": "Farasān",
    "latitude": 16.70222,
    "longitude": 42.11833,
    "category": "City",
    "subcategory": "City",
    "featured": false,
    "priority": 50
  },
  {
    "geonameId": 106738,
    "name": "Farasān al Kabīr",
    "latitude": 16.72833,
    "longitude": 41.91083,
    "category": "Island",
    "subcategory": "Island",
    "featured": false,
    "priority": 50
  },
  {
    "geonameId": 106722,
    "name": "Fardat al Fāw",
    "latitude": 19.82502,
    "longitude": 45.19175,
    "category": "Mountain",
    "subcategory": "Mountain",
    "featured": false,
    "priority": 50
  },
  {
    "geonameId": 107324,
    "name": "Farīdat Bul‘ūm",
    "latitude": 23.69693,
    "longitude": 46.18443,
    "category": "Mountain",
    "subcategory": "Mountain",
    "featured": false,
    "priority": 50
  },
  {
    "geonameId": 106667,
    "name": "Fayfā’",
    "latitude": 17.2806,
    "longitude": 43.13735,
    "category": "City",
    "subcategory": "City",
    "featured": false,
    "priority": 50
  },
  {
    "geonameId": 391364,
    "name": "Fazir ‘Urayq ad Duḩūl",
    "latitude": 27.05003,
    "longitude": 45.74229,
    "category": "Mountain",
    "subcategory": "Mountain Pass",
    "featured": false,
    "priority": 50
  },
  {
    "geonameId": 396920,
    "name": "Fazr ‘Imir",
    "latitude": 25.6035,
    "longitude": 47.53254,
    "category": "Mountain",
    "subcategory": "Mountain Pass",
    "featured": false,
    "priority": 50
  },
  {
    "geonameId": 396933,
    "name": "Fazr Dughayyimah",
    "latitude": 25.85222,
    "longitude": 47.08056,
    "category": "Mountain",
    "subcategory": "Mountain Pass",
    "featured": false,
    "priority": 50
  },
  {
    "geonameId": 100883,
    "name": "Fazr Umm Raqabah",
    "latitude": 29.88333,
    "longitude": 37.56667,
    "category": "Mountain",
    "subcategory": "Mountain Pass",
    "featured": false,
    "priority": 50
  },
  {
    "geonameId": 106652,
    "name": "Fiḑḑah",
    "latitude": 17.1,
    "longitude": 43.2,
    "category": "Mountain",
    "subcategory": "Mountain",
    "featured": false,
    "priority": 50
  },
  {
    "geonameId": 106635,
    "name": "Flop Island",
    "latitude": 16.87417,
    "longitude": 42.30521,
    "category": "Island",
    "subcategory": "Island",
    "featured": false,
    "priority": 50
  },
  {
    "geonameId": 8715751,
    "name": "Fun Tāyim",
    "latitude": 21.59303,
    "longitude": 39.1072,
    "category": "Park",
    "subcategory": "Park",
    "featured": false,
    "priority": 50
  },
  {
    "geonameId": 106614,
    "name": "Fura‘",
    "latitude": 23.08333,
    "longitude": 45.1,
    "category": "Mountain",
    "subcategory": "Mountain",
    "featured": false,
    "priority": 50
  },
  {
    "geonameId": 409466,
    "name": "Ghār al Ḩādhdhah",
    "latitude": 23.83667,
    "longitude": 51.34167,
    "category": "Mountain",
    "subcategory": "Canyon",
    "featured": false,
    "priority": 50
  },
  {
    "geonameId": 12200422,
    "name": "Ghazali Park",
    "latitude": 31.33595,
    "longitude": 37.32856,
    "category": "Park",
    "subcategory": "Park",
    "featured": false,
    "priority": 50
  },
  {
    "geonameId": 103515,
    "name": "Ghurāb",
    "latitude": 17.1076,
    "longitude": 42.06656,
    "category": "Island",
    "subcategory": "Island",
    "featured": false,
    "priority": 50
  },
  {
    "geonameId": 106391,
    "name": "Ghuzeh",
    "latitude": 16.58022,
    "longitude": 42.35688,
    "category": "Island",
    "subcategory": "Island",
    "featured": false,
    "priority": 50
  },
  {
    "geonameId": 106281,
    "name": "Ha'il",
    "latitude": 27.52188,
    "longitude": 41.69073,
    "category": "City",
    "subcategory": "Regional Capital",
    "featured": false,
    "priority": 50
  },
  {
    "geonameId": 12513575,
    "name": "Ḩabūnā",
    "latitude": 17.84722,
    "longitude": 44.02081,
    "category": "City",
    "subcategory": "City",
    "featured": false,
    "priority": 50
  },
  {
    "geonameId": 12456119,
    "name": "Ḩadā’iq ar Rawḑah",
    "latitude": 24.73176,
    "longitude": 46.77565,
    "category": "Park",
    "subcategory": "Park",
    "featured": false,
    "priority": 50
  },
  {
    "geonameId": 12456150,
    "name": "Ḩadā’iq as Sulţān",
    "latitude": 24.80221,
    "longitude": 46.71652,
    "category": "Park",
    "subcategory": "Park",
    "featured": false,
    "priority": 50
  },
  {
    "geonameId": 107087,
    "name": "Haḑbat Dar‘ā’",
    "latitude": 19.7,
    "longitude": 42.78333,
    "category": "Mountain",
    "subcategory": "Mountain",
    "featured": false,
    "priority": 50
  },
  {
    "geonameId": 106332,
    "name": "Ḩādh",
    "latitude": 17.55,
    "longitude": 43.86667,
    "category": "Mountain",
    "subcategory": "Mountain",
    "featured": false,
    "priority": 50
  },
  {
    "geonameId": 12453365,
    "name": "Ḩadīqah Ithnān",
    "latitude": 21.35977,
    "longitude": 39.79204,
    "category": "Park",
    "subcategory": "Park",
    "featured": false,
    "priority": 50
  },
  {
    "geonameId": 12453368,
    "name": "Ḩadīqah Thalāthah bi Jawār Masjid at Tawqurī",
    "latitude": 21.37139,
    "longitude": 39.79481,
    "category": "Park",
    "subcategory": "Park",
    "featured": false,
    "priority": 50
  },
  {
    "geonameId": 12452022,
    "name": "Ḩadīqat ad Da‘wah",
    "latitude": 21.64538,
    "longitude": 39.1408,
    "category": "Park",
    "subcategory": "Park",
    "featured": false,
    "priority": 50
  },
  {
    "geonameId": 12453338,
    "name": "Ḩadīqat al ‘Adl",
    "latitude": 21.43743,
    "longitude": 39.85439,
    "category": "Park",
    "subcategory": "Park",
    "featured": false,
    "priority": 50
  },
  {
    "geonameId": 12545737,
    "name": "Ḩadīqat al ‘Andalus",
    "latitude": 19.53128,
    "longitude": 43.52424,
    "category": "Park",
    "subcategory": "Park",
    "featured": false,
    "priority": 50
  },
  {
    "geonameId": 12453392,
    "name": "Ḩadīqat al ‘Azīzīyah",
    "latitude": 21.39709,
    "longitude": 39.88548,
    "category": "Park",
    "subcategory": "Park",
    "featured": false,
    "priority": 50
  },
  {
    "geonameId": 8715842,
    "name": "Ḩadīqat al Amwāj at Tarfīhīyah",
    "latitude": 21.52441,
    "longitude": 39.19925,
    "category": "Park",
    "subcategory": "Park",
    "featured": false,
    "priority": 50
  },
  {
    "geonameId": 8715844,
    "name": "Ḩadīqat al Baladīyah",
    "latitude": 21.55182,
    "longitude": 39.21005,
    "category": "Park",
    "subcategory": "Park",
    "featured": false,
    "priority": 50
  },
  {
    "geonameId": 12452030,
    "name": "Ḩadīqat al Basātīn",
    "latitude": 21.68553,
    "longitude": 39.11395,
    "category": "Park",
    "subcategory": "Park",
    "featured": false,
    "priority": 50
  },
  {
    "geonameId": 12452028,
    "name": "Ḩadīqat al Fārābī",
    "latitude": 21.6828,
    "longitude": 39.12244,
    "category": "Park",
    "subcategory": "Park",
    "featured": false,
    "priority": 50
  },
  {
    "geonameId": 12452102,
    "name": "Ḩadīqat al Fārūq",
    "latitude": 21.58482,
    "longitude": 39.23044,
    "category": "Park",
    "subcategory": "Park",
    "featured": false,
    "priority": 50
  },
  {
    "geonameId": 12453385,
    "name": "Ḩadīqat al Hussaynīyah",
    "latitude": 21.3835,
    "longitude": 39.87637,
    "category": "Park",
    "subcategory": "Park",
    "featured": false,
    "priority": 50
  },
  {
    "geonameId": 8724247,
    "name": "Ḩadīqat al Iḩsān",
    "latitude": 21.41992,
    "longitude": 39.85557,
    "category": "Park",
    "subcategory": "Park",
    "featured": false,
    "priority": 50
  },
  {
    "geonameId": 12545850,
    "name": "Ḩadīqat al Khāldīyah",
    "latitude": 19.53283,
    "longitude": 43.52458,
    "category": "Park",
    "subcategory": "Park",
    "featured": false,
    "priority": 50
  },
  {
    "geonameId": 12545829,
    "name": "Ḩadīqat al Khazzān",
    "latitude": 19.5472,
    "longitude": 43.52039,
    "category": "Park",
    "subcategory": "Park",
    "featured": false,
    "priority": 50
  },
  {
    "geonameId": 12545849,
    "name": "Ḩadīqat al Malik Abd Allāh lil ‘Ā’ilāt",
    "latitude": 19.52908,
    "longitude": 43.52653,
    "category": "Park",
    "subcategory": "Park",
    "featured": false,
    "priority": 50
  },
  {
    "geonameId": 12452026,
    "name": "Ḩadīqat al Mawaddah",
    "latitude": 21.67442,
    "longitude": 39.12246,
    "category": "Park",
    "subcategory": "Park",
    "featured": false,
    "priority": 50
  },
  {
    "geonameId": 12452021,
    "name": "Ḩadīqat al Muḩammadīyah",
    "latitude": 21.64149,
    "longitude": 39.13887,
    "category": "Park",
    "subcategory": "Park",
    "featured": false,
    "priority": 50
  },
  {
    "geonameId": 12452023,
    "name": "Ḩadīqat al Muhandisīn",
    "latitude": 21.65063,
    "longitude": 39.13786,
    "category": "Park",
    "subcategory": "Park",
    "featured": false,
    "priority": 50
  },
  {
    "geonameId": 12456012,
    "name": "Ḩadīqat al Quds",
    "latitude": 24.74827,
    "longitude": 46.75024,
    "category": "Park",
    "subcategory": "Park",
    "featured": false,
    "priority": 50
  },
  {
    "geonameId": 9866104,
    "name": "Ḩadīqat al Ukhdūd",
    "latitude": 17.52446,
    "longitude": 44.19158,
    "category": "Park",
    "subcategory": "Park",
    "featured": false,
    "priority": 50
  },
  {
    "geonameId": 8724248,
    "name": "Ḩadīqat al Wardah",
    "latitude": 21.43551,
    "longitude": 39.79253,
    "category": "Park",
    "subcategory": "Park",
    "featured": false,
    "priority": 50
  },
  {
    "geonameId": 9113203,
    "name": "Ḩadīqat al Waţan",
    "latitude": 24.62121,
    "longitude": 46.70844,
    "category": "Park",
    "subcategory": "Park",
    "featured": false,
    "priority": 50
  },
  {
    "geonameId": 12452001,
    "name": "Ḩadīqat an Na‘īm",
    "latitude": 21.62574,
    "longitude": 39.15041,
    "category": "Park",
    "subcategory": "Park",
    "featured": false,
    "priority": 50
  },
  {
    "geonameId": 8724341,
    "name": "Ḩadīqat an Nadā’ al Khālid",
    "latitude": 21.39265,
    "longitude": 39.78948,
    "category": "Park",
    "subcategory": "Park",
    "featured": false,
    "priority": 50
  },
  {
    "geonameId": 8724213,
    "name": "Ḩadīqat an Najāḩ",
    "latitude": 21.41262,
    "longitude": 39.86037,
    "category": "Park",
    "subcategory": "Park",
    "featured": false,
    "priority": 50
  },
  {
    "geonameId": 12456721,
    "name": "Ḩadīqat an Nakhīl",
    "latitude": 24.74917,
    "longitude": 46.6428,
    "category": "Park",
    "subcategory": "Park",
    "featured": false,
    "priority": 50
  },
  {
    "geonameId": 12455925,
    "name": "Ḩadīqat an Nasīm ash Sharqī",
    "latitude": 24.73406,
    "longitude": 46.83851,
    "category": "Park",
    "subcategory": "Park",
    "featured": false,
    "priority": 50
  },
  {
    "geonameId": 12452004,
    "name": "Ḩadīqat aş Şābirīn",
    "latitude": 21.62159,
    "longitude": 39.14818,
    "category": "Park",
    "subcategory": "Park",
    "featured": false,
    "priority": 50
  },
  {
    "geonameId": 12452141,
    "name": "Ḩadīqat as Sāmir",
    "latitude": 21.58199,
    "longitude": 39.23499,
    "category": "Park",
    "subcategory": "Park",
    "featured": false,
    "priority": 50
  },
  {
    "geonameId": 12452013,
    "name": "Ḩadīqat ash Shāţi’",
    "latitude": 21.61373,
    "longitude": 39.11356,
    "category": "Park",
    "subcategory": "Park",
    "featured": false,
    "priority": 50
  },
  {
    "geonameId": 8724252,
    "name": "Ḩadīqat aţ Ţā’if",
    "latitude": 21.41808,
    "longitude": 39.85479,
    "category": "Park",
    "subcategory": "Park",
    "featured": false,
    "priority": 50
  },
  {
    "geonameId": 12471715,
    "name": "Ḩadīqat at Tanz̧īm",
    "latitude": 24.81067,
    "longitude": 46.87954,
    "category": "Park",
    "subcategory": "Park",
    "featured": false,
    "priority": 50
  },
  {
    "geonameId": 8724243,
    "name": "Ḩadīqat aţ Ţifl al Khayrīyah",
    "latitude": 21.41397,
    "longitude": 39.85797,
    "category": "Park",
    "subcategory": "Park",
    "featured": false,
    "priority": 50
  },
  {
    "geonameId": 12452039,
    "name": "Ḩadīqat az Zahrā’",
    "latitude": 21.58982,
    "longitude": 39.13499,
    "category": "Park",
    "subcategory": "Park",
    "featured": false,
    "priority": 50
  },
  {
    "geonameId": 12457691,
    "name": "Ḩadīqat Dawwār al Kuwayt",
    "latitude": 24.66621,
    "longitude": 46.72823,
    "category": "Park",
    "subcategory": "Park",
    "featured": false,
    "priority": 50
  },
  {
    "geonameId": 12453345,
    "name": "Ḩadīqat Ḩarā’",
    "latitude": 21.44812,
    "longitude": 39.86472,
    "category": "Park",
    "subcategory": "Park",
    "featured": false,
    "priority": 50
  },
  {
    "geonameId": 12452027,
    "name": "Ḩadīqat Ibtihāl",
    "latitude": 21.67884,
    "longitude": 39.1208,
    "category": "Park",
    "subcategory": "Park",
    "featured": false,
    "priority": 50
  },
  {
    "geonameId": 8724256,
    "name": "Ḩadīqat Jarīn Lānd",
    "latitude": 21.40846,
    "longitude": 39.82005,
    "category": "Park",
    "subcategory": "Park",
    "featured": false,
    "priority": 50
  },
  {
    "geonameId": 12453405,
    "name": "Ḩadīqat Mal‘ab al Bank",
    "latitude": 21.38758,
    "longitude": 39.87781,
    "category": "Park",
    "subcategory": "Park",
    "featured": false,
    "priority": 50
  },
  {
    "geonameId": 12452008,
    "name": "Ḩadīqat Masjid ‘Abd Allāh Bin al ‘Abbās",
    "latitude": 21.61748,
    "longitude": 39.14549,
    "category": "Park",
    "subcategory": "Park",
    "featured": false,
    "priority": 50
  },
  {
    "geonameId": 12452025,
    "name": "Ḩadīqat Masjid Muḩammad Abū Bakr aş Şiddīq",
    "latitude": 21.67063,
    "longitude": 39.12313,
    "category": "Park",
    "subcategory": "Park",
    "featured": false,
    "priority": 50
  },
  {
    "geonameId": 12452032,
    "name": "Ḩadīqat Mīrāl",
    "latitude": 21.68976,
    "longitude": 39.11604,
    "category": "Park",
    "subcategory": "Park",
    "featured": false,
    "priority": 50
  },
  {
    "geonameId": 12453388,
    "name": "Ḩadīqat Sitr al Ḩayyānī",
    "latitude": 21.38432,
    "longitude": 39.87136,
    "category": "Park",
    "subcategory": "Park",
    "featured": false,
    "priority": 50
  },
  {
    "geonameId": 12453363,
    "name": "Ḩadīqat Tis‘at ‘Ashar",
    "latitude": 21.35589,
    "longitude": 39.77749,
    "category": "Park",
    "subcategory": "Park",
    "featured": false,
    "priority": 50
  },
  {
    "geonameId": 106347,
    "name": "Ḩadrah",
    "latitude": 18.42278,
    "longitude": 41.22583,
    "category": "Island",
    "subcategory": "Island",
    "featured": false,
    "priority": 50
  },
  {
    "geonameId": 106297,
    "name": "Hafar Al-Batin",
    "latitude": 28.43279,
    "longitude": 45.97077,
    "category": "City",
    "subcategory": "City",
    "featured": false,
    "priority": 50
  },
  {
    "geonameId": 106285,
    "name": "Ḩafr",
    "latitude": 16.68458,
    "longitude": 42.22018,
    "category": "Island",
    "subcategory": "Island",
    "featured": false,
    "priority": 50
  },
  {
    "geonameId": 106266,
    "name": "Hajida",
    "latitude": 17.46519,
    "longitude": 43.11719,
    "category": "Mountain",
    "subcategory": "Mountain",
    "featured": false,
    "priority": 50
  },
  {
    "geonameId": 410198,
    "name": "Ḩalāt Nabţā’",
    "latitude": 23.77135,
    "longitude": 39.96442,
    "category": "Mountain",
    "subcategory": "Mountain",
    "featured": false,
    "priority": 50
  },
  {
    "geonameId": 106220,
    "name": "Halima",
    "latitude": 22.35306,
    "longitude": 41.25333,
    "category": "Mountain",
    "subcategory": "Mountain",
    "featured": false,
    "priority": 50
  },
  {
    "geonameId": 12200421,
    "name": "Hamidiya Park",
    "latitude": 31.32241,
    "longitude": 37.34576,
    "category": "Park",
    "subcategory": "Park",
    "featured": false,
    "priority": 50
  },
  {
    "geonameId": 106114,
    "name": "Ḩanīsh",
    "latitude": 16.88171,
    "longitude": 41.47799,
    "category": "Island",
    "subcategory": "Island",
    "featured": false,
    "priority": 50
  },
  {
    "geonameId": 106102,
    "name": "Ḩaql",
    "latitude": 29.28627,
    "longitude": 34.94687,
    "category": "City",
    "subcategory": "City",
    "featured": false,
    "priority": 50
  },
  {
    "geonameId": 106079,
    "name": "Harāmil",
    "latitude": 22.26667,
    "longitude": 38.96667,
    "category": "Island",
    "subcategory": "Island",
    "featured": false,
    "priority": 50
  },
  {
    "geonameId": 106068,
    "name": "Harimah",
    "latitude": 17.98333,
    "longitude": 43.5,
    "category": "Mountain",
    "subcategory": "Mountain",
    "featured": false,
    "priority": 50
  },
  {
    "geonameId": 106006,
    "name": "Ḩasīb",
    "latitude": 17,
    "longitude": 41.71667,
    "category": "Island",
    "subcategory": "Island",
    "featured": false,
    "priority": 50
  },
  {
    "geonameId": 106000,
    "name": "Ḩasr",
    "latitude": 18.1475,
    "longitude": 41.53889,
    "category": "Island",
    "subcategory": "Island",
    "featured": false,
    "priority": 50
  },
  {
    "geonameId": 105963,
    "name": "Hawar Island",
    "latitude": 25.81667,
    "longitude": 36.51667,
    "category": "Island",
    "subcategory": "Island",
    "featured": false,
    "priority": 50
  },
  {
    "geonameId": 13631408,
    "name": "Ḥawṭah Banī Tamīm",
    "latitude": 23.49598,
    "longitude": 46.87801,
    "category": "City",
    "subcategory": "City",
    "featured": false,
    "priority": 50
  },
  {
    "geonameId": 104991,
    "name": "Ḩayd Khawlān",
    "latitude": 17.42885,
    "longitude": 44.04613,
    "category": "Mountain",
    "subcategory": "Mountain",
    "featured": false,
    "priority": 50
  },
  {
    "geonameId": 105917,
    "name": "Ḩayrān",
    "latitude": 17.15718,
    "longitude": 43.16637,
    "category": "Mountain",
    "subcategory": "Mountain",
    "featured": false,
    "priority": 50
  },
  {
    "geonameId": 105911,
    "name": "Ḩaysīyah",
    "latitude": 24.86667,
    "longitude": 46.11667,
    "category": "Mountain",
    "subcategory": "Mountain Pass",
    "featured": false,
    "priority": 50
  },
  {
    "geonameId": 408105,
    "name": "Ḩazm Ḩisān",
    "latitude": 31.49222,
    "longitude": 40.44917,
    "category": "Mountain",
    "subcategory": "Mountain",
    "featured": false,
    "priority": 50
  },
  {
    "geonameId": 105893,
    "name": "Hazmah",
    "latitude": 27.45,
    "longitude": 37.15,
    "category": "Mountain",
    "subcategory": "Mountain",
    "featured": false,
    "priority": 50
  },
  {
    "geonameId": 105886,
    "name": "Hibaja",
    "latitude": 20.95906,
    "longitude": 41.67324,
    "category": "Mountain",
    "subcategory": "Mountain",
    "featured": false,
    "priority": 50
  },
  {
    "geonameId": 105845,
    "name": "Hindīyah",
    "latitude": 16.57991,
    "longitude": 42.23678,
    "category": "Island",
    "subcategory": "Island",
    "featured": false,
    "priority": 50
  },
  {
    "geonameId": 394900,
    "name": "Ḩişān ‘Irnān",
    "latitude": 27.26787,
    "longitude": 39.72702,
    "category": "Mountain",
    "subcategory": "Mountain",
    "featured": false,
    "priority": 50
  },
  {
    "geonameId": 9864622,
    "name": "Hisn Najran Garden",
    "latitude": 17.6353,
    "longitude": 44.46399,
    "category": "Park",
    "subcategory": "Park",
    "featured": false,
    "priority": 50
  },
  {
    "geonameId": 105802,
    "name": "Ḩuḑaḑ",
    "latitude": 17.93333,
    "longitude": 42.11667,
    "category": "Mountain",
    "subcategory": "Mountain",
    "featured": false,
    "priority": 50
  },
  {
    "geonameId": 105799,
    "name": "Huḑayb",
    "latitude": 20.81606,
    "longitude": 44.16618,
    "category": "Mountain",
    "subcategory": "Mountain",
    "featured": false,
    "priority": 50
  },
  {
    "geonameId": 110757,
    "name": "Ibl Ḩinshān",
    "latitude": 29.18837,
    "longitude": 35.21373,
    "category": "Mountain",
    "subcategory": "Mountain",
    "featured": false,
    "priority": 50
  },
  {
    "geonameId": 105624,
    "name": "Idin",
    "latitude": 17.76446,
    "longitude": 43.26391,
    "category": "Mountain",
    "subcategory": "Mountain",
    "featured": false,
    "priority": 50
  },
  {
    "geonameId": 105499,
    "name": "Ja‘farī",
    "latitude": 16.68553,
    "longitude": 42.5521,
    "category": "Island",
    "subcategory": "Island",
    "featured": false,
    "priority": 50
  },
  {
    "geonameId": 8436674,
    "name": "jabal  al Tur   جبل الطور",
    "latitude": 24.42988,
    "longitude": 38.96173,
    "category": "Mountain",
    "subcategory": "Mountain",
    "featured": false,
    "priority": 50
  },
  {
    "geonameId": 411542,
    "name": "Jabal ‘Ablā’",
    "latitude": 21.08888,
    "longitude": 40.43077,
    "category": "Mountain",
    "subcategory": "Mountain",
    "featured": false,
    "priority": 50
  },
  {
    "geonameId": 409670,
    "name": "Jabal ‘Adāmah",
    "latitude": 21.8923,
    "longitude": 41.35209,
    "category": "Mountain",
    "subcategory": "Mountain",
    "featured": false,
    "priority": 50
  },
  {
    "geonameId": 110255,
    "name": "Jabal ‘Afaf",
    "latitude": 20.23719,
    "longitude": 40.76497,
    "category": "Mountain",
    "subcategory": "Mountain",
    "featured": false,
    "priority": 50
  },
  {
    "geonameId": 414445,
    "name": "Jabal ‘Ajīsā’",
    "latitude": 21.44861,
    "longitude": 39.34694,
    "category": "Mountain",
    "subcategory": "Mountain",
    "featured": false,
    "priority": 50
  },
  {
    "geonameId": 110070,
    "name": "Jabal ‘Alam",
    "latitude": 17.51558,
    "longitude": 44.25138,
    "category": "Mountain",
    "subcategory": "Mountain",
    "featured": false,
    "priority": 50
  },
  {
    "geonameId": 109525,
    "name": "Jabal ‘Ālijah",
    "latitude": 18.01667,
    "longitude": 44.2,
    "category": "Mountain",
    "subcategory": "Mountain",
    "featured": false,
    "priority": 50
  },
  {
    "geonameId": 410107,
    "name": "Jabal ‘Āmir",
    "latitude": 21.20972,
    "longitude": 40.47745,
    "category": "Mountain",
    "subcategory": "Mountain",
    "featured": false,
    "priority": 50
  },
  {
    "geonameId": 395643,
    "name": "Jabal ‘Amūdān",
    "latitude": 25.39562,
    "longitude": 42.90013,
    "category": "Mountain",
    "subcategory": "Mountain",
    "featured": false,
    "priority": 50
  },
  {
    "geonameId": 108587,
    "name": "Jabal ‘Antar",
    "latitude": 17.70694,
    "longitude": 43.91306,
    "category": "Mountain",
    "subcategory": "Mountain",
    "featured": false,
    "priority": 50
  },
  {
    "geonameId": 108527,
    "name": "Jabal ‘Arafāt",
    "latitude": 21.33333,
    "longitude": 40,
    "category": "Mountain",
    "subcategory": "Mountain",
    "featured": false,
    "priority": 50
  },
  {
    "geonameId": 108316,
    "name": "Jabal ‘Ashā‘ir",
    "latitude": 23.71667,
    "longitude": 39.31667,
    "category": "Mountain",
    "subcategory": "Mountain",
    "featured": false,
    "priority": 50
  },
  {
    "geonameId": 108294,
    "name": "Jabal ‘Ashīrah",
    "latitude": 18.05,
    "longitude": 44.3,
    "category": "Mountain",
    "subcategory": "Mountain",
    "featured": false,
    "priority": 50
  },
  {
    "geonameId": 108003,
    "name": "Jabal ‘Athrab",
    "latitude": 19.76083,
    "longitude": 41.7025,
    "category": "Mountain",
    "subcategory": "Mountain",
    "featured": false,
    "priority": 50
  },
  {
    "geonameId": 110247,
    "name": "Jabal ‘Aylūt",
    "latitude": 17.78639,
    "longitude": 43.84972,
    "category": "Mountain",
    "subcategory": "Mountain",
    "featured": false,
    "priority": 50
  },
  {
    "geonameId": 107829,
    "name": "Jabal ‘Ayr",
    "latitude": 24.37363,
    "longitude": 39.58165,
    "category": "Mountain",
    "subcategory": "Mountain",
    "featured": false,
    "priority": 50
  },
  {
    "geonameId": 399696,
    "name": "Jabal ‘Irmiz",
    "latitude": 18.57322,
    "longitude": 42.11627,
    "category": "Mountain",
    "subcategory": "Mountain",
    "featured": false,
    "priority": 50
  },
  {
    "geonameId": 411695,
    "name": "Jabal ‘Ishar",
    "latitude": 21.61944,
    "longitude": 40.28083,
    "category": "Mountain",
    "subcategory": "Mountain",
    "featured": false,
    "priority": 50
  },
  {
    "geonameId": 107906,
    "name": "Jabal ‘Itwad",
    "latitude": 18.11271,
    "longitude": 42.58657,
    "category": "Mountain",
    "subcategory": "Mountain",
    "featured": false,
    "priority": 50
  },
  {
    "geonameId": 101263,
    "name": "Jabal ‘Ubayd",
    "latitude": 19.92022,
    "longitude": 45.19368,
    "category": "Mountain",
    "subcategory": "Mountain",
    "featured": false,
    "priority": 50
  },
  {
    "geonameId": 101197,
    "name": "Jabal ‘Umar",
    "latitude": 20.36667,
    "longitude": 40.73333,
    "category": "Mountain",
    "subcategory": "Mountain",
    "featured": false,
    "priority": 50
  },
  {
    "geonameId": 411547,
    "name": "Jabal ‘Umayd",
    "latitude": 21.30028,
    "longitude": 40.30028,
    "category": "Mountain",
    "subcategory": "Mountain",
    "featured": false,
    "priority": 50
  },
  {
    "geonameId": 101188,
    "name": "Jabal ‘Umayyid",
    "latitude": 28.71782,
    "longitude": 35.3886,
    "category": "Mountain",
    "subcategory": "Mountain",
    "featured": false,
    "priority": 50
  },
  {
    "geonameId": 100760,
    "name": "Jabal ‘Unşar",
    "latitude": 20.63333,
    "longitude": 40.9,
    "category": "Mountain",
    "subcategory": "Mountain",
    "featured": false,
    "priority": 50
  },
  {
    "geonameId": 409654,
    "name": "Jabal ‘Ushayrah",
    "latitude": 21.27444,
    "longitude": 41.42806,
    "category": "Mountain",
    "subcategory": "Mountain",
    "featured": false,
    "priority": 50
  },
  {
    "geonameId": 108536,
    "name": "Jabal A‘rab",
    "latitude": 17.59674,
    "longitude": 43.48393,
    "category": "Mountain",
    "subcategory": "Mountain",
    "featured": false,
    "priority": 50
  },
  {
    "geonameId": 390212,
    "name": "Jabal Abū ‘Alābī",
    "latitude": 27.07639,
    "longitude": 48.31349,
    "category": "Mountain",
    "subcategory": "Mountain",
    "featured": false,
    "priority": 50
  },
  {
    "geonameId": 400148,
    "name": "Jabal Abū an Na‘am",
    "latitude": 25.19667,
    "longitude": 38.86194,
    "category": "Mountain",
    "subcategory": "Mountain",
    "featured": false,
    "priority": 50
  },
  {
    "geonameId": 110607,
    "name": "Jabal Abū Baqar",
    "latitude": 21.5025,
    "longitude": 39.50639,
    "category": "Mountain",
    "subcategory": "Mountain",
    "featured": false,
    "priority": 50
  },
  {
    "geonameId": 410119,
    "name": "Jabal Abū Ḩadīd",
    "latitude": 21.8169,
    "longitude": 40.23456,
    "category": "Mountain",
    "subcategory": "Mountain",
    "featured": false,
    "priority": 50
  },
  {
    "geonameId": 414411,
    "name": "Jabal Abū Ḩamāţah",
    "latitude": 21.70278,
    "longitude": 39.26528,
    "category": "Mountain",
    "subcategory": "Mountain",
    "featured": false,
    "priority": 50
  },
  {
    "geonameId": 110562,
    "name": "Jabal Abū Ḩasan",
    "latitude": 17.70555,
    "longitude": 42.99011,
    "category": "Mountain",
    "subcategory": "Mountain",
    "featured": false,
    "priority": 50
  },
  {
    "geonameId": 409544,
    "name": "Jabal Abū Ḩaţab",
    "latitude": 21.11556,
    "longitude": 40.68278,
    "category": "Mountain",
    "subcategory": "Mountain",
    "featured": false,
    "priority": 50
  },
  {
    "geonameId": 110535,
    "name": "Jabal Abū Khashab",
    "latitude": 21.41926,
    "longitude": 39.57641,
    "category": "Mountain",
    "subcategory": "Mountain",
    "featured": false,
    "priority": 50
  },
  {
    "geonameId": 393144,
    "name": "Jabal Abū Khuwaymah",
    "latitude": 26.07583,
    "longitude": 49.36333,
    "category": "Mountain",
    "subcategory": "Mountain",
    "featured": false,
    "priority": 50
  },
  {
    "geonameId": 414415,
    "name": "Jabal Abū Na‘jah",
    "latitude": 21.54861,
    "longitude": 39.44694,
    "category": "Mountain",
    "subcategory": "Mountain",
    "featured": false,
    "priority": 50
  },
  {
    "geonameId": 414399,
    "name": "Jabal Abū Şafā’",
    "latitude": 21.86206,
    "longitude": 39.33393,
    "category": "Mountain",
    "subcategory": "Mountain",
    "featured": false,
    "priority": 50
  },
  {
    "geonameId": 110452,
    "name": "Jabal Abū Safiya",
    "latitude": 25.90096,
    "longitude": 38.68127,
    "category": "Mountain",
    "subcategory": "Mountain",
    "featured": false,
    "priority": 50
  },
  {
    "geonameId": 414442,
    "name": "Jabal Abū Şuqūr",
    "latitude": 21.30389,
    "longitude": 39.48639,
    "category": "Mountain",
    "subcategory": "Mountain",
    "featured": false,
    "priority": 50
  },
  {
    "geonameId": 110394,
    "name": "Jabal Abū Ţīnah",
    "latitude": 27.28333,
    "longitude": 36.61667,
    "category": "Mountain",
    "subcategory": "Peak",
    "featured": false,
    "priority": 50
  },
  {
    "geonameId": 390130,
    "name": "Jabal Abū Z̧uhayr",
    "latitude": 27,
    "longitude": 48.33333,
    "category": "Mountain",
    "subcategory": "Mountain",
    "featured": false,
    "priority": 50
  },
  {
    "geonameId": 409541,
    "name": "Jabal ad Dār",
    "latitude": 21.07757,
    "longitude": 40.52155,
    "category": "Mountain",
    "subcategory": "Mountain",
    "featured": false,
    "priority": 50
  },
  {
    "geonameId": 107086,
    "name": "Jabal ad Dar‘ā’",
    "latitude": 24.20284,
    "longitude": 39.12809,
    "category": "Mountain",
    "subcategory": "Mountain",
    "featured": false,
    "priority": 50
  },
  {
    "geonameId": 448507,
    "name": "Jabal ad Daraj",
    "latitude": 21.39417,
    "longitude": 39.76694,
    "category": "Mountain",
    "subcategory": "Mountain",
    "featured": false,
    "priority": 50
  },
  {
    "geonameId": 410114,
    "name": "Jabal ad Dawmah al Ḩamrā’",
    "latitude": 21.3752,
    "longitude": 39.73139,
    "category": "Mountain",
    "subcategory": "Mountain",
    "featured": false,
    "priority": 50
  },
  {
    "geonameId": 448622,
    "name": "Jabal aḑ Ḑibā‘",
    "latitude": 21.47361,
    "longitude": 39.86556,
    "category": "Mountain",
    "subcategory": "Mountain",
    "featured": false,
    "priority": 50
  },
  {
    "geonameId": 411526,
    "name": "Jabal ad Dimāghah",
    "latitude": 21.34771,
    "longitude": 40.16035,
    "category": "Mountain",
    "subcategory": "Mountain",
    "featured": false,
    "priority": 50
  },
  {
    "geonameId": 106910,
    "name": "Jabal ad Duam’a",
    "latitude": 25.96438,
    "longitude": 38.9002,
    "category": "Mountain",
    "subcategory": "Mountain",
    "featured": false,
    "priority": 50
  },
  {
    "geonameId": 106952,
    "name": "Jabal adh Dhurayf",
    "latitude": 27.61667,
    "longitude": 41.31667,
    "category": "Mountain",
    "subcategory": "Mountain",
    "featured": false,
    "priority": 50
  },
  {
    "geonameId": 409699,
    "name": "Jabal Af‘ā",
    "latitude": 21.00471,
    "longitude": 40.82055,
    "category": "Mountain",
    "subcategory": "Mountain",
    "featured": false,
    "priority": 50
  },
  {
    "geonameId": 110212,
    "name": "Jabal Ahyām",
    "latitude": 18.96667,
    "longitude": 41.78333,
    "category": "Mountain",
    "subcategory": "Mountain",
    "featured": false,
    "priority": 50
  },
  {
    "geonameId": 110162,
    "name": "Jabal Akhrāz",
    "latitude": 18.91667,
    "longitude": 41.7,
    "category": "Mountain",
    "subcategory": "Mountain",
    "featured": false,
    "priority": 50
  },
  {
    "geonameId": 110157,
    "name": "Jabal Akrāsh",
    "latitude": 23.66207,
    "longitude": 38.84663,
    "category": "Mountain",
    "subcategory": "Mountain",
    "featured": false,
    "priority": 50
  },
  {
    "geonameId": 411552,
    "name": "Jabal Aktān",
    "latitude": 21.43665,
    "longitude": 40.30882,
    "category": "Mountain",
    "subcategory": "Mountain",
    "featured": false,
    "priority": 50
  },
  {
    "geonameId": 108664,
    "name": "Jabal al ‘Anaqayn",
    "latitude": 23.21667,
    "longitude": 39.7,
    "category": "Mountain",
    "subcategory": "Mountain",
    "featured": false,
    "priority": 50
  },
  {
    "geonameId": 108538,
    "name": "Jabal al ‘Ār",
    "latitude": 18.40091,
    "longitude": 43.25326,
    "category": "Mountain",
    "subcategory": "Mountain",
    "featured": false,
    "priority": 50
  },
  {
    "geonameId": 411525,
    "name": "Jabal al ‘Asār",
    "latitude": 21.375,
    "longitude": 40.07653,
    "category": "Mountain",
    "subcategory": "Mountain",
    "featured": false,
    "priority": 50
  },
  {
    "geonameId": 108285,
    "name": "Jabal al ‘Ashsh",
    "latitude": 27.11667,
    "longitude": 36.85,
    "category": "Mountain",
    "subcategory": "Mountain",
    "featured": false,
    "priority": 50
  },
  {
    "geonameId": 107878,
    "name": "Jabal al ‘Awrā’",
    "latitude": 17.80996,
    "longitude": 42.76392,
    "category": "Mountain",
    "subcategory": "Mountain",
    "featured": false,
    "priority": 50
  },
  {
    "geonameId": 411544,
    "name": "Jabal al ‘Irq",
    "latitude": 21.14747,
    "longitude": 40.30686,
    "category": "Mountain",
    "subcategory": "Mountain",
    "featured": false,
    "priority": 50
  },
  {
    "geonameId": 105580,
    "name": "Jabal al ‘Īsá",
    "latitude": 17.94011,
    "longitude": 42.51629,
    "category": "Mountain",
    "subcategory": "Mountain",
    "featured": false,
    "priority": 50
  },
  {
    "geonameId": 448621,
    "name": "Jabal al ‘Umrah",
    "latitude": 21.48222,
    "longitude": 39.81111,
    "category": "Mountain",
    "subcategory": "Mountain",
    "featured": false,
    "priority": 50
  },
  {
    "geonameId": 100761,
    "name": "Jabal al ‘Unq",
    "latitude": 18.71667,
    "longitude": 41.71667,
    "category": "Mountain",
    "subcategory": "Mountain",
    "featured": false,
    "priority": 50
  },
  {
    "geonameId": 100758,
    "name": "Jabal al ‘Uqāb",
    "latitude": 26.90983,
    "longitude": 41.85281,
    "category": "Mountain",
    "subcategory": "Mountain",
    "featured": false,
    "priority": 50
  },
  {
    "geonameId": 411697,
    "name": "Jabal al ‘Ūs",
    "latitude": 21.6598,
    "longitude": 40.16957,
    "category": "Mountain",
    "subcategory": "Mountain",
    "featured": false,
    "priority": 50
  },
  {
    "geonameId": 409591,
    "name": "Jabal al ‘Uş‘uş",
    "latitude": 21.08306,
    "longitude": 41.21222,
    "category": "Mountain",
    "subcategory": "Mountain",
    "featured": false,
    "priority": 50
  },
  {
    "geonameId": 409833,
    "name": "Jabal al Ablah as Sawdā’",
    "latitude": 22.33722,
    "longitude": 40.67611,
    "category": "Mountain",
    "subcategory": "Mountain",
    "featured": false,
    "priority": 50
  },
  {
    "geonameId": 110372,
    "name": "Jabal al Abyaḑ",
    "latitude": 28.14952,
    "longitude": 35.47912,
    "category": "Mountain",
    "subcategory": "Mountain",
    "featured": false,
    "priority": 50
  },
  {
    "geonameId": 11670746,
    "name": "Jabal al Ahāyidah",
    "latitude": 17.45088,
    "longitude": 43.10967,
    "category": "Mountain",
    "subcategory": "Mountain",
    "featured": false,
    "priority": 50
  },
  {
    "geonameId": 110220,
    "name": "Jabal al Aḩmar",
    "latitude": 20.81667,
    "longitude": 40.58333,
    "category": "Mountain",
    "subcategory": "Mountain",
    "featured": false,
    "priority": 50
  },
  {
    "geonameId": 448568,
    "name": "Jabal al Akhshabayn",
    "latitude": 21.38139,
    "longitude": 39.93611,
    "category": "Mountain",
    "subcategory": "Mountain",
    "featured": false,
    "priority": 50
  },
  {
    "geonameId": 108708,
    "name": "Jabal al Amlaḩ",
    "latitude": 18.78333,
    "longitude": 43.71667,
    "category": "Mountain",
    "subcategory": "Mountain",
    "featured": false,
    "priority": 50
  },
  {
    "geonameId": 8436675,
    "name": "jabal Al anagen",
    "latitude": 24.26068,
    "longitude": 38.90437,
    "category": "Mountain",
    "subcategory": "Mountain",
    "featured": false,
    "priority": 50
  },
  {
    "geonameId": 411678,
    "name": "Jabal al Aqra‘",
    "latitude": 21.84889,
    "longitude": 40.47861,
    "category": "Mountain",
    "subcategory": "Mountain",
    "featured": false,
    "priority": 50
  },
  {
    "geonameId": 108320,
    "name": "Jabal al Ash‘ab",
    "latitude": 24.03333,
    "longitude": 39.15,
    "category": "Mountain",
    "subcategory": "Mountain",
    "featured": false,
    "priority": 50
  },
  {
    "geonameId": 411671,
    "name": "Jabal al Ash‘ar",
    "latitude": 21.54397,
    "longitude": 40.10364,
    "category": "Mountain",
    "subcategory": "Mountain",
    "featured": false,
    "priority": 50
  },
  {
    "geonameId": 414412,
    "name": "Jabal al Asmar",
    "latitude": 21.68842,
    "longitude": 39.36608,
    "category": "Mountain",
    "subcategory": "Mountain",
    "featured": false,
    "priority": 50
  },
  {
    "geonameId": 108027,
    "name": "Jabal al Aswadayn",
    "latitude": 20.14233,
    "longitude": 40.83483,
    "category": "Mountain",
    "subcategory": "Mountain",
    "featured": false,
    "priority": 50
  },
  {
    "geonameId": 107574,
    "name": "Jabal al Bār",
    "latitude": 27.39546,
    "longitude": 41.46782,
    "category": "Mountain",
    "subcategory": "Mountain",
    "featured": false,
    "priority": 50
  },
  {
    "geonameId": 414409,
    "name": "Jabal al Barqā’",
    "latitude": 21.83692,
    "longitude": 39.4793,
    "category": "Mountain",
    "subcategory": "Mountain",
    "featured": false,
    "priority": 50
  },
  {
    "geonameId": 107492,
    "name": "Jabal al Bayḑ",
    "latitude": 18.27319,
    "longitude": 44.2732,
    "category": "Mountain",
    "subcategory": "Mountain",
    "featured": false,
    "priority": 50
  },
  {
    "geonameId": 413807,
    "name": "Jabal al Burayqah",
    "latitude": 21.79194,
    "longitude": 39.3525,
    "category": "Mountain",
    "subcategory": "Mountain",
    "featured": false,
    "priority": 50
  },
  {
    "geonameId": 106799,
    "name": "Jabal al Fāḑilī",
    "latitude": 26.96667,
    "longitude": 49.25,
    "category": "Mountain",
    "subcategory": "Mountain",
    "featured": false,
    "priority": 50
  },
  {
    "geonameId": 399910,
    "name": "Jabal al Fara‘",
    "latitude": 25.43739,
    "longitude": 37.73597,
    "category": "Mountain",
    "subcategory": "Mountain",
    "featured": false,
    "priority": 50
  },
  {
    "geonameId": 106705,
    "name": "Jabal al Farrāsh",
    "latitude": 19.67067,
    "longitude": 43.42296,
    "category": "Mountain",
    "subcategory": "Mountain",
    "featured": false,
    "priority": 50
  },
  {
    "geonameId": 411699,
    "name": "Jabal al Fiḑī",
    "latitude": 21.50523,
    "longitude": 40.24321,
    "category": "Mountain",
    "subcategory": "Mountain",
    "featured": false,
    "priority": 50
  },
  {
    "geonameId": 106601,
    "name": "Jabal al Furs",
    "latitude": 26.51229,
    "longitude": 40.79593,
    "category": "Mountain",
    "subcategory": "Mountain",
    "featured": false,
    "priority": 50
  },
  {
    "geonameId": 106574,
    "name": "Jabal al Ghāl",
    "latitude": 27.51667,
    "longitude": 35.96667,
    "category": "Mountain",
    "subcategory": "Mountain",
    "featured": false,
    "priority": 50
  },
  {
    "geonameId": 106571,
    "name": "Jabal al Ghālah",
    "latitude": 20.41667,
    "longitude": 40.15,
    "category": "Mountain",
    "subcategory": "Mountain",
    "featured": false,
    "priority": 50
  },
  {
    "geonameId": 106562,
    "name": "Jabal al Ghamdīyah",
    "latitude": 20.74568,
    "longitude": 39.84531,
    "category": "Mountain",
    "subcategory": "Mountain",
    "featured": false,
    "priority": 50
  },
  {
    "geonameId": 414413,
    "name": "Jabal al Ghaşm",
    "latitude": 21.70045,
    "longitude": 39.39326,
    "category": "Mountain",
    "subcategory": "Mountain",
    "featured": false,
    "priority": 50
  },
  {
    "geonameId": 105608,
    "name": "Jabal al Ghilmān",
    "latitude": 18.83921,
    "longitude": 44.25323,
    "category": "Mountain",
    "subcategory": "Mountain",
    "featured": false,
    "priority": 50
  },
  {
    "geonameId": 448619,
    "name": "Jabal al Ghumayr",
    "latitude": 21.51519,
    "longitude": 39.74563,
    "category": "Mountain",
    "subcategory": "Mountain",
    "featured": false,
    "priority": 50
  },
  {
    "geonameId": 409509,
    "name": "Jabal al Ghurāb",
    "latitude": 21.30611,
    "longitude": 40.88667,
    "category": "Mountain",
    "subcategory": "Mountain",
    "featured": false,
    "priority": 50
  },
  {
    "geonameId": 106377,
    "name": "Jabal al Ḩabashīyah",
    "latitude": 17.9625,
    "longitude": 44.1825,
    "category": "Mountain",
    "subcategory": "Mountain",
    "featured": false,
    "priority": 50
  },
  {
    "geonameId": 106370,
    "name": "Jabal al Ḩabīb",
    "latitude": 18.86667,
    "longitude": 41.98333,
    "category": "Mountain",
    "subcategory": "Mountain",
    "featured": false,
    "priority": 50
  },
  {
    "geonameId": 106369,
    "name": "Jabal al Ḩabīḑ",
    "latitude": 22.85,
    "longitude": 40.68333,
    "category": "Mountain",
    "subcategory": "Mountain",
    "featured": false,
    "priority": 50
  },
  {
    "geonameId": 409679,
    "name": "Jabal al Haḑabah",
    "latitude": 22.62215,
    "longitude": 39.59839,
    "category": "Mountain",
    "subcategory": "Mountain",
    "featured": false,
    "priority": 50
  },
  {
    "geonameId": 410190,
    "name": "Jabal al Halā’",
    "latitude": 23.13389,
    "longitude": 39.99056,
    "category": "Mountain",
    "subcategory": "Mountain",
    "featured": false,
    "priority": 50
  },
  {
    "geonameId": 409520,
    "name": "Jabal al Ḩallah",
    "latitude": 21.37333,
    "longitude": 40.66611,
    "category": "Mountain",
    "subcategory": "Mountain",
    "featured": false,
    "priority": 50
  },
  {
    "geonameId": 411687,
    "name": "Jabal al Ḩammah",
    "latitude": 21.70759,
    "longitude": 40.20739,
    "category": "Mountain",
    "subcategory": "Mountain",
    "featured": false,
    "priority": 50
  },
  {
    "geonameId": 399886,
    "name": "Jabal al Hamra",
    "latitude": 25.03543,
    "longitude": 37.91836,
    "category": "Mountain",
    "subcategory": "Mountain",
    "featured": false,
    "priority": 50
  },
  {
    "geonameId": 106144,
    "name": "Jabal al Ḩamrā’",
    "latitude": 29.64427,
    "longitude": 36.61225,
    "category": "Mountain",
    "subcategory": "Mountain",
    "featured": false,
    "priority": 50
  },
  {
    "geonameId": 106127,
    "name": "Jabal al Ḩanādir",
    "latitude": 27.51667,
    "longitude": 40.06667,
    "category": "Mountain",
    "subcategory": "Mountain",
    "featured": false,
    "priority": 50
  },
  {
    "geonameId": 106123,
    "name": "Jabal al Ḩanak",
    "latitude": 17.93333,
    "longitude": 43.91667,
    "category": "Mountain",
    "subcategory": "Mountain",
    "featured": false,
    "priority": 50
  },
  {
    "geonameId": 414407,
    "name": "Jabal al Ḩarrā’",
    "latitude": 21.88306,
    "longitude": 39.1675,
    "category": "Mountain",
    "subcategory": "Mountain",
    "featured": false,
    "priority": 50
  },
  {
    "geonameId": 106003,
    "name": "Jabal al Ḩāşīr",
    "latitude": 18.95,
    "longitude": 41.73333,
    "category": "Mountain",
    "subcategory": "Mountain",
    "featured": false,
    "priority": 50
  },
  {
    "geonameId": 105972,
    "name": "Jabal al Ḩawā",
    "latitude": 23.37849,
    "longitude": 39.7385,
    "category": "Mountain",
    "subcategory": "Mountain",
    "featured": false,
    "priority": 50
  },
  {
    "geonameId": 105921,
    "name": "Jabal al Haylah",
    "latitude": 18.51734,
    "longitude": 42.04893,
    "category": "Mountain",
    "subcategory": "Mountain",
    "featured": false,
    "priority": 50
  },
  {
    "geonameId": 400048,
    "name": "Jabal al Ḩaylah",
    "latitude": 18.48952,
    "longitude": 41.76728,
    "category": "Mountain",
    "subcategory": "Mountain",
    "featured": false,
    "priority": 50
  },
  {
    "geonameId": 399492,
    "name": "Jabal al Ḩāzim",
    "latitude": 19.22444,
    "longitude": 41.56917,
    "category": "Mountain",
    "subcategory": "Mountain",
    "featured": false,
    "priority": 50
  },
  {
    "geonameId": 106363,
    "name": "Jabal al Hiḑāb",
    "latitude": 18.63278,
    "longitude": 41.96056,
    "category": "Mountain",
    "subcategory": "Mountain",
    "featured": false,
    "priority": 50
  },
  {
    "geonameId": 414408,
    "name": "Jabal al Ḩijr",
    "latitude": 21.90713,
    "longitude": 39.44416,
    "category": "Mountain",
    "subcategory": "Mountain",
    "featured": false,
    "priority": 50
  },
  {
    "geonameId": 413805,
    "name": "Jabal al Ḩirsh",
    "latitude": 21.8645,
    "longitude": 39.29479,
    "category": "Mountain",
    "subcategory": "Mountain",
    "featured": false,
    "priority": 50
  },
  {
    "geonameId": 105806,
    "name": "Jabal al Ḩubaynīyah",
    "latitude": 20.96667,
    "longitude": 40.35,
    "category": "Mountain",
    "subcategory": "Mountain",
    "featured": false,
    "priority": 50
  },
  {
    "geonameId": 105723,
    "name": "Jabal al Ḩumrah",
    "latitude": 19.59083,
    "longitude": 43.47025,
    "category": "Mountain",
    "subcategory": "Mountain",
    "featured": false,
    "priority": 50
  },
  {
    "geonameId": 409577,
    "name": "Jabal al Iḩḩah",
    "latitude": 21.11806,
    "longitude": 40.98083,
    "category": "Mountain",
    "subcategory": "Mountain",
    "featured": false,
    "priority": 50
  },
  {
    "geonameId": 409989,
    "name": "Jabal al Ikmūm",
    "latitude": 22.78515,
    "longitude": 41.94839,
    "category": "Mountain",
    "subcategory": "Mountain",
    "featured": false,
    "priority": 50
  },
  {
    "geonameId": 105529,
    "name": "Jabal al Jabbārah",
    "latitude": 20.33333,
    "longitude": 40.5,
    "category": "Mountain",
    "subcategory": "Mountain",
    "featured": false,
    "priority": 50
  },
  {
    "geonameId": 105366,
    "name": "Jabal al Jayāsir",
    "latitude": 23.95655,
    "longitude": 41.80507,
    "category": "Mountain",
    "subcategory": "Mountain",
    "featured": false,
    "priority": 50
  },
  {
    "geonameId": 414400,
    "name": "Jabal al Judayyib",
    "latitude": 21.81962,
    "longitude": 39.37397,
    "category": "Mountain",
    "subcategory": "Mountain",
    "featured": false,
    "priority": 50
  },
  {
    "geonameId": 409825,
    "name": "Jabal al Kahaf",
    "latitude": 22.26278,
    "longitude": 40.65167,
    "category": "Mountain",
    "subcategory": "Mountain",
    "featured": false,
    "priority": 50
  },
  {
    "geonameId": 105124,
    "name": "Jabal al Khabwah",
    "latitude": 21.46667,
    "longitude": 39.45,
    "category": "Mountain",
    "subcategory": "Mountain",
    "featured": false,
    "priority": 50
  },
  {
    "geonameId": 105123,
    "name": "Jabal al Khaḑ‘ah",
    "latitude": 20.87596,
    "longitude": 42.59698,
    "category": "Mountain",
    "subcategory": "Mountain",
    "featured": false,
    "priority": 50
  },
  {
    "geonameId": 409589,
    "name": "Jabal al Khashab",
    "latitude": 21.13167,
    "longitude": 41.14556,
    "category": "Mountain",
    "subcategory": "Mountain",
    "featured": false,
    "priority": 50
  },
  {
    "geonameId": 104958,
    "name": "Jabal al Khinzīrah",
    "latitude": 26.23333,
    "longitude": 39.25,
    "category": "Mountain",
    "subcategory": "Mountain",
    "featured": false,
    "priority": 50
  },
  {
    "geonameId": 400312,
    "name": "Jabal al Khirsāt",
    "latitude": 25.98218,
    "longitude": 37.77401,
    "category": "Mountain",
    "subcategory": "Mountain",
    "featured": false,
    "priority": 50
  },
  {
    "geonameId": 104843,
    "name": "Jabal al Kibrīt",
    "latitude": 28.25086,
    "longitude": 34.71637,
    "category": "Mountain",
    "subcategory": "Mountain",
    "featured": false,
    "priority": 50
  },
  {
    "geonameId": 104740,
    "name": "Jabal al Laḩiyayn",
    "latitude": 19.91908,
    "longitude": 45.21802,
    "category": "Mountain",
    "subcategory": "Mountain",
    "featured": false,
    "priority": 50
  },
  {
    "geonameId": 104720,
    "name": "Jabal al Lawz",
    "latitude": 28.66683,
    "longitude": 35.34954,
    "category": "Mountain",
    "subcategory": "Mountain",
    "featured": false,
    "priority": 50
  },
  {
    "geonameId": 409624,
    "name": "Jabal al Libidah",
    "latitude": 22.83273,
    "longitude": 40.05939,
    "category": "Mountain",
    "subcategory": "Mountain",
    "featured": false,
    "priority": 50
  },
  {
    "geonameId": 104649,
    "name": "Jabal al Madd",
    "latitude": 18.92227,
    "longitude": 41.63258,
    "category": "Mountain",
    "subcategory": "Mountain",
    "featured": false,
    "priority": 50
  },
  {
    "geonameId": 104572,
    "name": "Jabal al Maḩḩāḩī",
    "latitude": 17.56596,
    "longitude": 43.39832,
    "category": "Mountain",
    "subcategory": "Mountain",
    "featured": false,
    "priority": 50
  },
  {
    "geonameId": 409598,
    "name": "Jabal al Maḩraq",
    "latitude": 21.24224,
    "longitude": 41.49361,
    "category": "Mountain",
    "subcategory": "Mountain",
    "featured": false,
    "priority": 50
  },
  {
    "geonameId": 104532,
    "name": "Jabal al Makhāwī",
    "latitude": 18.51667,
    "longitude": 41.75,
    "category": "Mountain",
    "subcategory": "Mountain",
    "featured": false,
    "priority": 50
  },
  {
    "geonameId": 409550,
    "name": "Jabal al Mal‘ab",
    "latitude": 21.215,
    "longitude": 40.65528,
    "category": "Mountain",
    "subcategory": "Mountain",
    "featured": false,
    "priority": 50
  },
  {
    "geonameId": 414443,
    "name": "Jabal al Malas",
    "latitude": 21.37735,
    "longitude": 39.54333,
    "category": "Mountain",
    "subcategory": "Mountain",
    "featured": false,
    "priority": 50
  },
  {
    "geonameId": 104434,
    "name": "Jabal al Manfaḩ",
    "latitude": 17.64449,
    "longitude": 44.00797,
    "category": "Mountain",
    "subcategory": "Mountain",
    "featured": false,
    "priority": 50
  },
  {
    "geonameId": 410027,
    "name": "Jabal al Manşīr",
    "latitude": 23.72468,
    "longitude": 39.12364,
    "category": "Mountain",
    "subcategory": "Mountain",
    "featured": false,
    "priority": 50
  },
  {
    "geonameId": 104353,
    "name": "Jabal al Māridīyah",
    "latitude": 27.45,
    "longitude": 41.51667,
    "category": "Mountain",
    "subcategory": "Mountain",
    "featured": false,
    "priority": 50
  },
  {
    "geonameId": 104284,
    "name": "Jabal al Mashār",
    "latitude": 27.56667,
    "longitude": 41.63333,
    "category": "Mountain",
    "subcategory": "Mountain",
    "featured": false,
    "priority": 50
  },
  {
    "geonameId": 7370621,
    "name": "Jabal al Mawqa‘ah",
    "latitude": 17.51528,
    "longitude": 42.50956,
    "category": "Mountain",
    "subcategory": "Mountain",
    "featured": false,
    "priority": 50
  },
  {
    "geonameId": 411688,
    "name": "Jabal al Mirqābah",
    "latitude": 21.69634,
    "longitude": 40.28408,
    "category": "Mountain",
    "subcategory": "Mountain",
    "featured": false,
    "priority": 50
  },
  {
    "geonameId": 411702,
    "name": "Jabal al Mūfīyah",
    "latitude": 21.81419,
    "longitude": 40.33842,
    "category": "Mountain",
    "subcategory": "Mountain",
    "featured": false,
    "priority": 50
  },
  {
    "geonameId": 414397,
    "name": "Jabal al Mujmar",
    "latitude": 21.93138,
    "longitude": 39.2909,
    "category": "Mountain",
    "subcategory": "Mountain",
    "featured": false,
    "priority": 50
  },
  {
    "geonameId": 109017,
    "name": "Jabal al Munbaţiḩ al Janūbī",
    "latitude": 17.77263,
    "longitude": 45.81128,
    "category": "Mountain",
    "subcategory": "Mountain",
    "featured": false,
    "priority": 50
  },
  {
    "geonameId": 11704534,
    "name": "Jabal al Munbaţiḩ ash Shamālī",
    "latitude": 17.79342,
    "longitude": 45.59511,
    "category": "Mountain",
    "subcategory": "Mountain",
    "featured": false,
    "priority": 50
  },
  {
    "geonameId": 103899,
    "name": "Jabal al Munīf",
    "latitude": 27.53738,
    "longitude": 41.63529,
    "category": "Mountain",
    "subcategory": "Mountain",
    "featured": false,
    "priority": 50
  },
  {
    "geonameId": 103880,
    "name": "Jabal al Muqayr",
    "latitude": 18.72902,
    "longitude": 41.6747,
    "category": "Mountain",
    "subcategory": "Mountain",
    "featured": false,
    "priority": 50
  },
  {
    "geonameId": 103878,
    "name": "Jabal al Muqayshi‘ah",
    "latitude": 18.65,
    "longitude": 41.73333,
    "category": "Mountain",
    "subcategory": "Mountain",
    "featured": false,
    "priority": 50
  },
  {
    "geonameId": 409597,
    "name": "Jabal al Murayghah",
    "latitude": 21.17333,
    "longitude": 41.40028,
    "category": "Mountain",
    "subcategory": "Mountain",
    "featured": false,
    "priority": 50
  },
  {
    "geonameId": 103842,
    "name": "Jabal al Murayr",
    "latitude": 24.35324,
    "longitude": 40.48,
    "category": "Mountain",
    "subcategory": "Mountain",
    "featured": false,
    "priority": 50
  },
  {
    "geonameId": 411430,
    "name": "Jabal al Musallamīyah",
    "latitude": 21.89502,
    "longitude": 39.57187,
    "category": "Mountain",
    "subcategory": "Mountain",
    "featured": false,
    "priority": 50
  },
  {
    "geonameId": 103783,
    "name": "Jabal al Muşayr",
    "latitude": 28.32333,
    "longitude": 34.82694,
    "category": "Mountain",
    "subcategory": "Mountain",
    "featured": false,
    "priority": 50
  },
  {
    "geonameId": 411441,
    "name": "Jabal al Mushayţāt",
    "latitude": 21.61842,
    "longitude": 39.94245,
    "category": "Mountain",
    "subcategory": "Mountain",
    "featured": false,
    "priority": 50
  },
  {
    "geonameId": 103719,
    "name": "Jabal al Muwayliḩ",
    "latitude": 27.65958,
    "longitude": 35.71363,
    "category": "Mountain",
    "subcategory": "Mountain",
    "featured": false,
    "priority": 50
  },
  {
    "geonameId": 410032,
    "name": "Jabal al Qa‘rah",
    "latitude": 21.76086,
    "longitude": 39.31774,
    "category": "Mountain",
    "subcategory": "Mountain",
    "featured": false,
    "priority": 50
  },
  {
    "geonameId": 103392,
    "name": "Jabal al Qahr",
    "latitude": 17.65484,
    "longitude": 42.88717,
    "category": "Mountain",
    "subcategory": "Mountain",
    "featured": false,
    "priority": 50
  },
  {
    "geonameId": 411538,
    "name": "Jabal al Qarā",
    "latitude": 21.08452,
    "longitude": 40.08873,
    "category": "Mountain",
    "subcategory": "Mountain",
    "featured": false,
    "priority": 50
  },
  {
    "geonameId": 409935,
    "name": "Jabal al Qaran",
    "latitude": 22.62807,
    "longitude": 41.28373,
    "category": "Mountain",
    "subcategory": "Mountain",
    "featured": false,
    "priority": 50
  },
  {
    "geonameId": 411682,
    "name": "Jabal al Qarārah",
    "latitude": 21.92943,
    "longitude": 40.15297,
    "category": "Mountain",
    "subcategory": "Mountain",
    "featured": false,
    "priority": 50
  },
  {
    "geonameId": 103297,
    "name": "Jabal al Qarnad",
    "latitude": 18.50809,
    "longitude": 41.93776,
    "category": "Mountain",
    "subcategory": "Mountain",
    "featured": false,
    "priority": 50
  },
  {
    "geonameId": 399501,
    "name": "Jabal al Qaws",
    "latitude": 19.23861,
    "longitude": 41.94167,
    "category": "Mountain",
    "subcategory": "Mountain",
    "featured": false,
    "priority": 50
  },
  {
    "geonameId": 400281,
    "name": "Jabal al Qawwāmah",
    "latitude": 25.92556,
    "longitude": 37.48444,
    "category": "Mountain",
    "subcategory": "Mountain",
    "featured": false,
    "priority": 50
  },
  {
    "geonameId": 103214,
    "name": "Jabal al Qimmah al Janūbīyah",
    "latitude": 18.13336,
    "longitude": 44.45524,
    "category": "Mountain",
    "subcategory": "Mountain",
    "featured": false,
    "priority": 50
  },
  {
    "geonameId": 103213,
    "name": "Jabal al Qimmah ash Shimālīyah",
    "latitude": 18.24313,
    "longitude": 44.42087,
    "category": "Mountain",
    "subcategory": "Mountain",
    "featured": false,
    "priority": 50
  },
  {
    "geonameId": 103200,
    "name": "Jabal al Qishr",
    "latitude": 24.73155,
    "longitude": 37.7811,
    "category": "Mountain",
    "subcategory": "Mountain",
    "featured": false,
    "priority": 50
  },
  {
    "geonameId": 448586,
    "name": "Jabal al Quways",
    "latitude": 21.43222,
    "longitude": 39.885,
    "category": "Mountain",
    "subcategory": "Mountain",
    "featured": false,
    "priority": 50
  },
  {
    "geonameId": 8436678,
    "name": "jabal al Rumah جبل الرماه",
    "latitude": 24.50229,
    "longitude": 39.61208,
    "category": "Mountain",
    "subcategory": "Mountain",
    "featured": false,
    "priority": 50
  },
  {
    "geonameId": 100573,
    "name": "Jabal al Wajrah",
    "latitude": 25.93729,
    "longitude": 39.23605,
    "category": "Mountain",
    "subcategory": "Mountain",
    "featured": false,
    "priority": 50
  },
  {
    "geonameId": 100541,
    "name": "Jabal al Warrah",
    "latitude": 18.93333,
    "longitude": 41.98333,
    "category": "Mountain",
    "subcategory": "Mountain",
    "featured": false,
    "priority": 50
  },
  {
    "geonameId": 409576,
    "name": "Jabal an Na‘ām",
    "latitude": 21.06333,
    "longitude": 40.92611,
    "category": "Mountain",
    "subcategory": "Mountain",
    "featured": false,
    "priority": 50
  },
  {
    "geonameId": 103694,
    "name": "Jabal an Nab‘",
    "latitude": 17.88333,
    "longitude": 44.11667,
    "category": "Mountain",
    "subcategory": "Mountain",
    "featured": false,
    "priority": 50
  },
  {
    "geonameId": 103692,
    "name": "Jabal an Nab‘ah",
    "latitude": 18.7,
    "longitude": 41.81667,
    "category": "Mountain",
    "subcategory": "Mountain",
    "featured": false,
    "priority": 50
  },
  {
    "geonameId": 410035,
    "name": "Jabal an Najmah",
    "latitude": 21.71689,
    "longitude": 39.30689,
    "category": "Mountain",
    "subcategory": "Mountain",
    "featured": false,
    "priority": 50
  },
  {
    "geonameId": 411528,
    "name": "Jabal an Naşb",
    "latitude": 21.30768,
    "longitude": 40.16838,
    "category": "Mountain",
    "subcategory": "Mountain",
    "featured": false,
    "priority": 50
  },