[
  {
    "geonameId": 12217173,
    "name": "Adamova hora",
    "latitude": 49.10385,
    "longitude": 20.87832,
    "category": "Mountain",
    "subcategory": "Mountain",
    "featured": false,
    "priority": 50
  },
  {
    "geonameId": 3061262,
    "name": "Almášsky Roháč",
    "latitude": 48.36667,
    "longitude": 18.8,
    "category": "Mountain",
    "subcategory": "Mountain",
    "featured": false,
    "priority": 50
  },
  {
    "geonameId": 3061260,
    "name": "Am Eben",
    "latitude": 48.66667,
    "longitude": 18.75,
    "category": "Mountain",
    "subcategory": "Mountain",
    "featured": false,
    "priority": 50
  },
  {
    "geonameId": 6690191,
    "name": "Andrejcová",
    "latitude": 48.90086,
    "longitude": 20.03067,
    "category": "Mountain",
    "subcategory": "Mountain",
    "featured": false,
    "priority": 50
  },
  {
    "geonameId": 6690456,
    "name": "Apáli",
    "latitude": 47.78877,
    "longitude": 18.1253,
    "category": "Park",
    "subcategory": "Nature Reserve",
    "featured": false,
    "priority": 50
  },
  {
    "geonameId": 3061236,
    "name": "Baba",
    "latitude": 48.90507,
    "longitude": 19.57583,
    "category": "Mountain",
    "subcategory": "Mountain",
    "featured": false,
    "priority": 50
  },
  {
    "geonameId": 725196,
    "name": "Babia Skała",
    "latitude": 49.1032,
    "longitude": 22.45331,
    "category": "Mountain",
    "subcategory": "Mountain",
    "featured": false,
    "priority": 50
  },
  {
    "geonameId": 12217221,
    "name": "Babie",
    "latitude": 49.20237,
    "longitude": 21.06204,
    "category": "Mountain",
    "subcategory": "Mountain",
    "featured": false,
    "priority": 50
  },
  {
    "geonameId": 725194,
    "name": "Babina",
    "latitude": 48.83014,
    "longitude": 20.46258,
    "category": "Mountain",
    "subcategory": "Mountain",
    "featured": false,
    "priority": 50
  },
  {
    "geonameId": 3061230,
    "name": "Babka",
    "latitude": 48.22916,
    "longitude": 19.35692,
    "category": "Mountain",
    "subcategory": "Mountain",
    "featured": false,
    "priority": 50
  },
  {
    "geonameId": 3061228,
    "name": "Babky",
    "latitude": 49.17993,
    "longitude": 19.62568,
    "category": "Mountain",
    "subcategory": "Mountain",
    "featured": false,
    "priority": 50
  },
  {
    "geonameId": 8617966,
    "name": "Báborská",
    "latitude": 48.48497,
    "longitude": 17.29631,
    "category": "Mountain",
    "subcategory": "Mountain",
    "featured": false,
    "priority": 50
  },
  {
    "geonameId": 725191,
    "name": "Bachureň",
    "latitude": 49.09047,
    "longitude": 20.92255,
    "category": "Mountain",
    "subcategory": "Mountain",
    "featured": false,
    "priority": 50
  },
  {
    "geonameId": 3061210,
    "name": "Bahaňa",
    "latitude": 49.47454,
    "longitude": 18.6746,
    "category": "Mountain",
    "subcategory": "Mountain",
    "featured": false,
    "priority": 50
  },
  {
    "geonameId": 12217343,
    "name": "Bakuľa",
    "latitude": 49.27411,
    "longitude": 20.76822,
    "category": "Mountain",
    "subcategory": "Mountain",
    "featured": false,
    "priority": 50
  },
  {
    "geonameId": 12217331,
    "name": "Balážka",
    "latitude": 49.17912,
    "longitude": 20.94184,
    "category": "Mountain",
    "subcategory": "Mountain",
    "featured": false,
    "priority": 50
  },
  {
    "geonameId": 12166700,
    "name": "Balochova hoľa",
    "latitude": 48.75634,
    "longitude": 20.5356,
    "category": "Mountain",
    "subcategory": "Mountain",
    "featured": false,
    "priority": 50
  },
  {
    "geonameId": 725180,
    "name": "Balova",
    "latitude": 48.73333,
    "longitude": 22.35,
    "category": "Mountain",
    "subcategory": "Mountain",
    "featured": false,
    "priority": 50
  },
  {
    "geonameId": 725179,
    "name": "Baňa",
    "latitude": 49.21442,
    "longitude": 21.59472,
    "category": "Mountain",
    "subcategory": "Mountain",
    "featured": false,
    "priority": 50
  },
  {
    "geonameId": 3061196,
    "name": "Baníkov",
    "latitude": 49.19756,
    "longitude": 19.70994,
    "category": "Mountain",
    "subcategory": "Mountain",
    "featured": false,
    "priority": 50
  },
  {
    "geonameId": 12172893,
    "name": "Banisko",
    "latitude": 48.95708,
    "longitude": 21.20029,
    "category": "Mountain",
    "subcategory": "Mountain",
    "featured": false,
    "priority": 50
  },
  {
    "geonameId": 3061191,
    "name": "Báňova",
    "latitude": 48.71641,
    "longitude": 19.82999,
    "category": "Mountain",
    "subcategory": "Mountain",
    "featured": false,
    "priority": 50
  },
  {
    "geonameId": 3061188,
    "name": "Bánovce nad Bebravou",
    "latitude": 48.7213,
    "longitude": 18.25754,
    "category": "City",
    "subcategory": "County Seat",
    "featured": false,
    "priority": 50
  },
  {
    "geonameId": 3061186,
    "name": "Banská Bystrica",
    "latitude": 48.73947,
    "longitude": 19.14932,
    "category": "City",
    "subcategory": "Regional Capital",
    "featured": false,
    "priority": 50
  },
  {
    "geonameId": 3061184,
    "name": "Banská Štiavnica",
    "latitude": 48.44858,
    "longitude": 18.91003,
    "category": "City",
    "subcategory": "County Seat",
    "featured": false,
    "priority": 50
  },
  {
    "geonameId": 12166671,
    "name": "Banský vrch",
    "latitude": 48.85322,
    "longitude": 20.85223,
    "category": "Mountain",
    "subcategory": "Mountain",
    "featured": false,
    "priority": 50
  },
  {
    "geonameId": 3061181,
    "name": "Baranec",
    "latitude": 49.17348,
    "longitude": 19.74097,
    "category": "Mountain",
    "subcategory": "Mountain",
    "featured": false,
    "priority": 50
  },
  {
    "geonameId": 3061180,
    "name": "Baraniarky",
    "latitude": 49.22306,
    "longitude": 19.01091,
    "category": "Mountain",
    "subcategory": "Mountain",
    "featured": false,
    "priority": 50
  },
  {
    "geonameId": 6696717,
    "name": "Baranie rohy",
    "latitude": 49.20159,
    "longitude": 20.19712,
    "category": "Mountain",
    "subcategory": "Mountain",
    "featured": false,
    "priority": 50
  },
  {
    "geonameId": 3061177,
    "name": "Barbajky",
    "latitude": 48.68333,
    "longitude": 17.18333,
    "category": "Mountain",
    "subcategory": "Mountain",
    "featured": false,
    "priority": 50
  },
  {
    "geonameId": 725168,
    "name": "Bardejov",
    "latitude": 49.29175,
    "longitude": 21.27271,
    "category": "City",
    "subcategory": "County Seat",
    "featured": false,
    "priority": 50
  },
  {
    "geonameId": 6690484,
    "name": "Baromlaki-víztározó",
    "latitude": 48.03597,
    "longitude": 18.31472,
    "category": "Lake",
    "subcategory": "Reservoir",
    "featured": false,
    "priority": 50
  },
  {
    "geonameId": 12212861,
    "name": "Bartáková",
    "latitude": 48.89864,
    "longitude": 21.53186,
    "category": "Mountain",
    "subcategory": "Mountain",
    "featured": false,
    "priority": 50
  },
  {
    "geonameId": 6690190,
    "name": "Bártková",
    "latitude": 48.89227,
    "longitude": 20.07393,
    "category": "Mountain",
    "subcategory": "Mountain",
    "featured": false,
    "priority": 50
  },
  {
    "geonameId": 12212857,
    "name": "Barvienky",
    "latitude": 48.98416,
    "longitude": 21.53166,
    "category": "Mountain",
    "subcategory": "Mountain",
    "featured": false,
    "priority": 50
  },
  {
    "geonameId": 12217258,
    "name": "Barvienok",
    "latitude": 49.3066,
    "longitude": 21.16699,
    "category": "Mountain",
    "subcategory": "Mountain",
    "featured": false,
    "priority": 50
  },
  {
    "geonameId": 3061168,
    "name": "Baske",
    "latitude": 48.88049,
    "longitude": 18.25616,
    "category": "Mountain",
    "subcategory": "Mountain",
    "featured": false,
    "priority": 50
  },
  {
    "geonameId": 6698099,
    "name": "Batizovské pleso",
    "latitude": 49.15223,
    "longitude": 20.12985,
    "category": "Lake",
    "subcategory": "Lake",
    "featured": false,
    "priority": 50
  },
  {
    "geonameId": 9958002,
    "name": "Batizovský štít",
    "latitude": 49.16518,
    "longitude": 20.12412,
    "category": "Mountain",
    "subcategory": "Mountain",
    "featured": false,
    "priority": 50
  },
  {
    "geonameId": 12166607,
    "name": "Bekovec",
    "latitude": 48.95261,
    "longitude": 21.13084,
    "category": "Mountain",
    "subcategory": "Mountain",
    "featured": false,
    "priority": 50
  },
  {
    "geonameId": 3061142,
    "name": "Belakova",
    "latitude": 48.30718,
    "longitude": 19.19564,
    "category": "Mountain",
    "subcategory": "Mountain",
    "featured": false,
    "priority": 50
  },
  {
    "geonameId": 3061138,
    "name": "Belica",
    "latitude": 49.1,
    "longitude": 19.05,
    "category": "Mountain",
    "subcategory": "Mountain",
    "featured": false,
    "priority": 50
  },
  {
    "geonameId": 3061130,
    "name": "Beluša",
    "latitude": 49.0649,
    "longitude": 18.32685,
    "category": "City",
    "subcategory": "City",
    "featured": false,
    "priority": 50
  },
  {
    "geonameId": 3061128,
    "name": "Benad",
    "latitude": 48.4,
    "longitude": 18.48333,
    "category": "Mountain",
    "subcategory": "Mountain",
    "featured": false,
    "priority": 50
  },
  {
    "geonameId": 3061125,
    "name": "Benčatov",
    "latitude": 48.33333,
    "longitude": 19.06667,
    "category": "Mountain",
    "subcategory": "Mountain",
    "featured": false,
    "priority": 50
  },
  {
    "geonameId": 3061111,
    "name": "Beran",
    "latitude": 49.07138,
    "longitude": 19.41006,
    "category": "Mountain",
    "subcategory": "Mountain",
    "featured": false,
    "priority": 50
  },
  {
    "geonameId": 3061107,
    "name": "Bernolákovo",
    "latitude": 48.20068,
    "longitude": 17.30186,
    "category": "City",
    "subcategory": "City",
    "featured": false,
    "priority": 50
  },
  {
    "geonameId": 7667767,
    "name": "Besenova Thermal Park",
    "latitude": 49.10017,
    "longitude": 19.44526,
    "category": "Park",
    "subcategory": "Park",
    "featured": false,
    "priority": 50
  },
  {
    "geonameId": 725134,
    "name": "Beskid",
    "latitude": 49.45,
    "longitude": 21.35,
    "category": "Mountain",
    "subcategory": "Mountain",
    "featured": false,
    "priority": 50
  },
  {
    "geonameId": 8134026,
    "name": "Beskid Krzyżowski",
    "latitude": 49.57407,
    "longitude": 19.39572,
    "category": "Mountain",
    "subcategory": "Mountain",
    "featured": false,
    "priority": 50
  },
  {
    "geonameId": 12217338,
    "name": "Beskyd",
    "latitude": 49.20885,
    "longitude": 20.81335,
    "category": "Mountain",
    "subcategory": "Mountain",
    "featured": false,
    "priority": 50
  },
  {
    "geonameId": 3061100,
    "name": "Bestine",
    "latitude": 48.86083,
    "longitude": 17.77703,
    "category": "Mountain",
    "subcategory": "Mountain",
    "featured": false,
    "priority": 50
  },
  {
    "geonameId": 3061099,
    "name": "Beťárka",
    "latitude": 48.78333,
    "longitude": 19.75,
    "category": "Mountain",
    "subcategory": "Mountain",
    "featured": false,
    "priority": 50
  },
  {
    "geonameId": 3061093,
    "name": "Bezovec",
    "latitude": 48.67362,
    "longitude": 17.97501,
    "category": "Mountain",
    "subcategory": "Mountain",
    "featured": false,
    "priority": 50
  },
  {
    "geonameId": 12166685,
    "name": "Biela skala",
    "latitude": 48.89646,
    "longitude": 20.83646,
    "category": "Mountain",
    "subcategory": "Mountain",
    "featured": false,
    "priority": 50
  },
  {
    "geonameId": 12166699,
    "name": "Biele skaly",
    "latitude": 48.72215,
    "longitude": 20.64795,
    "category": "Mountain",
    "subcategory": "Mountain",
    "featured": false,
    "priority": 50
  },
  {
    "geonameId": 12166634,
    "name": "Biely kameň",
    "latitude": 48.70456,
    "longitude": 21.09985,
    "category": "Mountain",
    "subcategory": "Mountain",
    "featured": false,
    "priority": 50
  },
  {
    "geonameId": 3061078,
    "name": "Biely Vrch",
    "latitude": 49.28688,
    "longitude": 18.93061,
    "category": "Mountain",
    "subcategory": "Mountain",
    "featured": false,
    "priority": 50
  },
  {
    "geonameId": 3061075,
    "name": "Bik",
    "latitude": 48.36546,
    "longitude": 19.8906,
    "category": "Mountain",
    "subcategory": "Mountain",
    "featured": false,
    "priority": 50
  },
  {
    "geonameId": 725123,
    "name": "Bikoš",
    "latitude": 49.02512,
    "longitude": 21.20924,
    "category": "Mountain",
    "subcategory": "Mountain",
    "featured": false,
    "priority": 50
  },
  {
    "geonameId": 3061063,
    "name": "Blahulov Vrch",
    "latitude": 49.44883,
    "longitude": 19.33667,
    "category": "Mountain",
    "subcategory": "Mountain",
    "featured": false,
    "priority": 50
  },
  {
    "geonameId": 3061054,
    "name": "Blato",
    "latitude": 48.79071,
    "longitude": 19.81654,
    "category": "Mountain",
    "subcategory": "Mountain",
    "featured": false,
    "priority": 50
  },
  {
    "geonameId": 3061043,
    "name": "Bobek",
    "latitude": 49.4331,
    "longitude": 18.4898,
    "category": "Mountain",
    "subcategory": "Mountain",
    "featured": false,
    "priority": 50
  },
  {
    "geonameId": 12166287,
    "name": "Bodoň",
    "latitude": 48.94004,
    "longitude": 21.40725,
    "category": "Mountain",
    "subcategory": "Mountain",
    "featured": false,
    "priority": 50
  },
  {
    "geonameId": 12166606,
    "name": "Bodrová hora",
    "latitude": 48.92154,
    "longitude": 21.14534,
    "category": "Mountain",
    "subcategory": "Mountain",
    "featured": false,
    "priority": 50
  },
  {
    "geonameId": 12217217,
    "name": "Bogliarsky vrch",
    "latitude": 49.26551,
    "longitude": 21.13689,
    "category": "Mountain",
    "subcategory": "Mountain",
    "featured": false,
    "priority": 50
  },
  {
    "geonameId": 725105,
    "name": "Bogota",
    "latitude": 48.70099,
    "longitude": 21.51698,
    "category": "Mountain",
    "subcategory": "Mountain",
    "featured": false,
    "priority": 50
  },
  {
    "geonameId": 3061015,
    "name": "Bojnice",
    "latitude": 48.78511,
    "longitude": 18.5864,
    "category": "City",
    "subcategory": "City",
    "featured": false,
    "priority": 50
  },
  {
    "geonameId": 6690514,
    "name": "Bokrosi szikes Védett Terület",
    "latitude": 47.74902,
    "longitude": 18.2567,
    "category": "Park",
    "subcategory": "Nature Reserve",
    "featured": false,
    "priority": 50
  },
  {
    "geonameId": 12166730,
    "name": "Bokšov",
    "latitude": 48.86173,
    "longitude": 21.13083,
    "category": "Mountain",
    "subcategory": "Mountain",
    "featured": false,
    "priority": 50
  },
  {
    "geonameId": 12166597,
    "name": "Boldigáň",
    "latitude": 49.05362,
    "longitude": 20.8968,
    "category": "Mountain",
    "subcategory": "Mountain Pass",
    "featured": false,
    "priority": 50
  },
  {
    "geonameId": 3061005,
    "name": "Bor",
    "latitude": 48.96508,
    "longitude": 19.54331,
    "category": "Mountain",
    "subcategory": "Mountain",
    "featured": false,
    "priority": 50
  },
  {
    "geonameId": 3060999,
    "name": "Borišov",
    "latitude": 48.94226,
    "longitude": 19.0893,
    "category": "Mountain",
    "subcategory": "Mountain",
    "featured": false,
    "priority": 50
  },
  {
    "geonameId": 12166684,
    "name": "Borisová",
    "latitude": 48.89062,
    "longitude": 20.74188,
    "category": "Mountain",
    "subcategory": "Mountain",
    "featured": false,
    "priority": 50
  },
  {
    "geonameId": 3060995,
    "name": "Borovia",
    "latitude": 48.85,
    "longitude": 19.5,
    "category": "Mountain",
    "subcategory": "Mountain",
    "featured": false,
    "priority": 50
  },
  {
    "geonameId": 7732449,
    "name": "Borsučia hora",
    "latitude": 48.97795,
    "longitude": 21.16375,
    "category": "Mountain",
    "subcategory": "Mountain",
    "featured": false,
    "priority": 50
  },
  {
    "geonameId": 725095,
    "name": "Borsuk",
    "latitude": 49.0912,
    "longitude": 22.48477,
    "category": "Mountain",
    "subcategory": "Mountain",
    "featured": false,
    "priority": 50
  },
  {
    "geonameId": 725089,
    "name": "Brada",
    "latitude": 49.02194,
    "longitude": 20.01478,
    "category": "Mountain",
    "subcategory": "Mountain",
    "featured": false,
    "priority": 50
  },
  {
    "geonameId": 725087,
    "name": "Bradavica",
    "latitude": 49.17149,
    "longitude": 20.15519,
    "category": "Mountain",
    "subcategory": "Mountain",
    "featured": false,
    "priority": 50
  },
  {
    "geonameId": 3060980,
    "name": "Bradlo",
    "latitude": 48.68033,
    "longitude": 17.56362,
    "category": "Mountain",
    "subcategory": "Mountain",
    "featured": false,
    "priority": 50
  },
  {
    "geonameId": 3060978,
    "name": "Braľova Skala",
    "latitude": 48.76157,
    "longitude": 18.81142,
    "category": "Mountain",
    "subcategory": "Mountain",
    "featured": false,
    "priority": 50
  },
  {
    "geonameId": 3060972,
    "name": "Bratislava",
    "latitude": 48.14816,
    "longitude": 17.10674,
    "category": "City",
    "subcategory": "Capital",
    "featured": false,
    "priority": 50
  },
  {
    "geonameId": 725082,
    "name": "Brehy",
    "latitude": 48.91667,
    "longitude": 22.06667,
    "category": "Mountain",
    "subcategory": "Mountain",
    "featured": false,
    "priority": 50
  },
  {
    "geonameId": 6693986,
    "name": "Brestová",
    "latitude": 49.22259,
    "longitude": 19.68218,
    "category": "Mountain",
    "subcategory": "Mountain",
    "featured": false,
    "priority": 50
  },
  {
    "geonameId": 12217275,
    "name": "Brezie",
    "latitude": 49.18386,
    "longitude": 21.29668,
    "category": "Mountain",
    "subcategory": "Mountain",
    "featured": false,
    "priority": 50
  },
  {
    "geonameId": 12217165,
    "name": "Brezina",
    "latitude": 49.07713,
    "longitude": 20.99185,
    "category": "Mountain",
    "subcategory": "Mountain",
    "featured": false,
    "priority": 50
  },
  {
    "geonameId": 3060950,
    "name": "Brezno",
    "latitude": 48.80431,
    "longitude": 19.63631,
    "category": "City",
    "subcategory": "County Seat",
    "featured": false,
    "priority": 50
  },
  {
    "geonameId": 725071,
    "name": "Brezová",
    "latitude": 49.05481,
    "longitude": 20.53131,
    "category": "Mountain",
    "subcategory": "Mountain",
    "featured": false,
    "priority": 50
  },
  {
    "geonameId": 725066,
    "name": "Brincova",
    "latitude": 49.24359,
    "longitude": 21.99454,
    "category": "Mountain",
    "subcategory": "Mountain",
    "featured": false,
    "priority": 50
  },
  {
    "geonameId": 3060932,
    "name": "Brložno",
    "latitude": 48.53196,
    "longitude": 19.69564,
    "category": "Mountain",
    "subcategory": "Mountain",
    "featured": false,
    "priority": 50
  },
  {
    "geonameId": 3060930,
    "name": "Broda",
    "latitude": 49.18562,
    "longitude": 18.59679,
    "category": "Mountain",
    "subcategory": "Mountain",
    "featured": false,
    "priority": 50
  },
  {
    "geonameId": 3060916,
    "name": "Brusova",
    "latitude": 49.21564,
    "longitude": 18.22543,
    "category": "Mountain",
    "subcategory": "Mountain",
    "featured": false,
    "priority": 50
  },
  {
    "geonameId": 3060914,
    "name": "Bruženský Grúň",
    "latitude": 48.67275,
    "longitude": 19.48094,
    "category": "Mountain",
    "subcategory": "Mountain",
    "featured": false,
    "priority": 50
  },
  {
    "geonameId": 3060912,
    "name": "Bubanec",
    "latitude": 48.28158,
    "longitude": 18.87775,
    "category": "Mountain",
    "subcategory": "Mountain",
    "featured": false,
    "priority": 50
  },
  {
    "geonameId": 12212825,
    "name": "Bubon",
    "latitude": 48.9667,
    "longitude": 21.05882,
    "category": "Mountain",
    "subcategory": "Mountain",
    "featured": false,
    "priority": 50
  },
  {
    "geonameId": 725061,
    "name": "Búč",
    "latitude": 49.15627,
    "longitude": 21.25628,
    "category": "Mountain",
    "subcategory": "Mountain",
    "featured": false,
    "priority": 50
  },
  {
    "geonameId": 725060,
    "name": "Buča",
    "latitude": 49.20574,
    "longitude": 21.4868,
    "category": "Mountain",
    "subcategory": "Mountain",
    "featured": false,
    "priority": 50
  },
  {
    "geonameId": 12217168,
    "name": "Buče",
    "latitude": 49.07465,
    "longitude": 20.93641,
    "category": "Mountain",
    "subcategory": "Mountain",
    "featured": false,
    "priority": 50
  },
  {
    "geonameId": 3060909,
    "name": "Buchlov",
    "latitude": 48.60712,
    "longitude": 18.57437,
    "category": "Mountain",
    "subcategory": "Mountain",
    "featured": false,
    "priority": 50
  },
  {
    "geonameId": 725059,
    "name": "Bučina",
    "latitude": 48.76023,
    "longitude": 20.37989,
    "category": "Mountain",
    "subcategory": "Mountain",
    "featured": false,
    "priority": 50
  },
  {
    "geonameId": 12212816,
    "name": "Bučinový vrch",
    "latitude": 48.92989,
    "longitude": 21.23245,
    "category": "Mountain",
    "subcategory": "Mountain",
    "featured": false,
    "priority": 50
  },
  {
    "geonameId": 12212772,
    "name": "Bučky",
    "latitude": 49.0123,
    "longitude": 21.62396,
    "category": "Mountain",
    "subcategory": "Peak",
    "featured": false,
    "priority": 50
  },
  {
    "geonameId": 3060908,
    "name": "Bučník",
    "latitude": 49.3247,
    "longitude": 19.761,
    "category": "Mountain",
    "subcategory": "Mountain",
    "featured": false,
    "priority": 50
  },
  {
    "geonameId": 12217274,
    "name": "Budanová",
    "latitude": 49.25557,
    "longitude": 21.30672,
    "category": "Mountain",
    "subcategory": "Mountain",
    "featured": false,
    "priority": 50
  },
  {
    "geonameId": 3060900,
    "name": "Budin",
    "latitude": 49.34403,
    "longitude": 19.45284,
    "category": "Mountain",
    "subcategory": "Mountain",
    "featured": false,
    "priority": 50
  },
  {
    "geonameId": 3060896,
    "name": "Budinska Skala",
    "latitude": 48.46667,
    "longitude": 19.43333,
    "category": "Mountain",
    "subcategory": "Mountain",
    "featured": false,
    "priority": 50
  },
  {
    "geonameId": 725050,
    "name": "Bujačí vrch",
    "latitude": 49.23015,
    "longitude": 20.26548,
    "category": "Mountain",
    "subcategory": "Mountain",
    "featured": false,
    "priority": 50
  },
  {
    "geonameId": 725048,
    "name": "Bujanov",
    "latitude": 48.87351,
    "longitude": 21.06208,
    "category": "Mountain",
    "subcategory": "Mountain",
    "featured": false,
    "priority": 50
  },
  {
    "geonameId": 12166665,
    "name": "Bujnisko",
    "latitude": 48.86135,
    "longitude": 21.07419,
    "category": "Mountain",
    "subcategory": "Mountain",
    "featured": false,
    "priority": 50
  },
  {
    "geonameId": 7732447,
    "name": "Bukanovec",
    "latitude": 48.94981,
    "longitude": 21.18759,
    "category": "Mountain",
    "subcategory": "Mountain",
    "featured": false,
    "priority": 50
  },
  {
    "geonameId": 6944849,
    "name": "Bukov",
    "latitude": 49.14769,
    "longitude": 19.36152,
    "category": "Mountain",
    "subcategory": "Mountain",
    "featured": false,
    "priority": 50
  },
  {
    "geonameId": 12166678,
    "name": "Bukovec",
    "latitude": 48.84701,
    "longitude": 20.72143,
    "category": "Mountain",
    "subcategory": "Mountain",
    "featured": false,
    "priority": 50
  },
  {
    "geonameId": 725046,
    "name": "Bukovina",
    "latitude": 48.83402,
    "longitude": 21.35972,
    "category": "Mountain",
    "subcategory": "Mountain",
    "featured": false,
    "priority": 50
  },
  {
    "geonameId": 12217256,
    "name": "Bukový vrch",
    "latitude": 49.20459,
    "longitude": 21.18343,
    "category": "Mountain",
    "subcategory": "Mountain",
    "featured": false,
    "priority": 50
  },
  {
    "geonameId": 3060874,
    "name": "Bulkov",
    "latitude": 49.02216,
    "longitude": 18.33176,
    "category": "Mountain",
    "subcategory": "Mountain",
    "featured": false,
    "priority": 50
  },
  {
    "geonameId": 725041,
    "name": "Busov",
    "latitude": 49.38762,
    "longitude": 21.16293,
    "category": "Mountain",
    "subcategory": "Mountain",
    "featured": false,
    "priority": 50
  },
  {
    "geonameId": 725039,
    "name": "Butová",
    "latitude": 49.00304,
    "longitude": 21.78012,
    "category": "Mountain",
    "subcategory": "Mountain",
    "featured": false,
    "priority": 50
  },
  {
    "geonameId": 3060870,
    "name": "Bykovo",
    "latitude": 48.58319,
    "longitude": 19.66202,
    "category": "Mountain",
    "subcategory": "Mountain",
    "featured": false,
    "priority": 50
  },
  {
    "geonameId": 12212856,
    "name": "Byrotka",
    "latitude": 48.97605,
    "longitude": 21.51432,
    "category": "Mountain",
    "subcategory": "Mountain",
    "featured": false,
    "priority": 50
  },
  {
    "geonameId": 725032,
    "name": "Bystrá",
    "latitude": 48.90626,
    "longitude": 21.05574,
    "category": "Mountain",
    "subcategory": "Mountain",
    "featured": false,
    "priority": 50
  },
  {
    "geonameId": 3060852,
    "name": "Bytča",
    "latitude": 49.22404,
    "longitude": 18.55878,
    "category": "City",
    "subcategory": "County Seat",
    "featured": false,
    "priority": 50
  },
  {
    "geonameId": 12212801,
    "name": "Čachov",
    "latitude": 48.86793,
    "longitude": 21.58522,
    "category": "Mountain",
    "subcategory": "Mountain",
    "featured": false,
    "priority": 50
  },
  {
    "geonameId": 3060835,
    "name": "Čadca",
    "latitude": 49.43503,
    "longitude": 18.78895,
    "category": "City",
    "subcategory": "County Seat",
    "featured": false,
    "priority": 50
  },
  {
    "geonameId": 3060833,
    "name": "Čahovica",
    "latitude": 48.49645,
    "longitude": 19.95616,
    "category": "Mountain",
    "subcategory": "Mountain",
    "featured": false,
    "priority": 50
  },
  {
    "geonameId": 725017,
    "name": "Čaňa",
    "latitude": 48.60994,
    "longitude": 21.32622,
    "category": "City",
    "subcategory": "City",
    "featured": false,
    "priority": 50
  },
  {
    "geonameId": 12217306,
    "name": "Capie",
    "latitude": 49.17806,
    "longitude": 21.13453,
    "category": "Mountain",
    "subcategory": "Mountain",
    "featured": false,
    "priority": 50
  },
  {
    "geonameId": 725012,
    "name": "Čečatová",
    "latitude": 48.80592,
    "longitude": 21.18393,
    "category": "Mountain",
    "subcategory": "Mountain",
    "featured": false,
    "priority": 50
  },
  {
    "geonameId": 12217315,
    "name": "Čekošov",
    "latitude": 49.25758,
    "longitude": 21.0714,
    "category": "Mountain",
    "subcategory": "Mountain",
    "featured": false,
    "priority": 50
  },
  {
    "geonameId": 12217327,
    "name": "Čeliská",
    "latitude": 49.17514,
    "longitude": 20.97007,
    "category": "Mountain",
    "subcategory": "Mountain",
    "featured": false,
    "priority": 50
  },
  {
    "geonameId": 3060792,
    "name": "Čelo",
    "latitude": 48.96667,
    "longitude": 18.58333,
    "category": "Mountain",
    "subcategory": "Mountain",
    "featured": false,
    "priority": 50
  },
  {
    "geonameId": 3060790,
    "name": "Čemerka",
    "latitude": 49.32866,
    "longitude": 18.4311,
    "category": "Mountain",
    "subcategory": "Mountain",
    "featured": false,
    "priority": 50
  },
  {
    "geonameId": 12212911,
    "name": "Čepcov",
    "latitude": 49.08927,
    "longitude": 21.43149,
    "category": "Mountain",
    "subcategory": "Mountain",
    "featured": false,
    "priority": 50
  },
  {
    "geonameId": 12217254,
    "name": "Čeperata",
    "latitude": 49.20543,
    "longitude": 21.2024,
    "category": "Mountain",
    "subcategory": "Mountain",
    "featured": false,
    "priority": 50
  },
  {
    "geonameId": 725001,
    "name": "Čerbania",
    "latitude": 48.96667,
    "longitude": 22.23333,
    "category": "Mountain",
    "subcategory": "Mountain",
    "featured": false,
    "priority": 50
  },
  {
    "geonameId": 3060784,
    "name": "Čerčes",
    "latitude": 49.33333,
    "longitude": 18.68333,
    "category": "Mountain",
    "subcategory": "Mountain",
    "featured": false,
    "priority": 50
  },
  {
    "geonameId": 724997,
    "name": "Čerhov",
    "latitude": 49.1864,
    "longitude": 21.17235,
    "category": "Mountain",
    "subcategory": "Mountain",
    "featured": false,
    "priority": 50
  },
  {
    "geonameId": 3060778,
    "name": "Černatin",
    "latitude": 49.31751,
    "longitude": 18.91057,
    "category": "Mountain",
    "subcategory": "Mountain",
    "featured": false,
    "priority": 50
  },
  {
    "geonameId": 724989,
    "name": "Černiny",
    "latitude": 49.14041,
    "longitude": 22.03871,
    "category": "Mountain",
    "subcategory": "Mountain",
    "featured": false,
    "priority": 50
  },
  {
    "geonameId": 3060769,
    "name": "Čerťaz",
    "latitude": 48.76784,
    "longitude": 19.46004,
    "category": "Mountain",
    "subcategory": "Mountain",
    "featured": false,
    "priority": 50
  },
  {
    "geonameId": 3060770,
    "name": "Čerťaž",
    "latitude": 48.62396,
    "longitude": 19.65722,
    "category": "Mountain",
    "subcategory": "Mountain",
    "featured": false,
    "priority": 50
  },
  {
    "geonameId": 3060762,
    "name": "Čertov Kopec",
    "latitude": 48.38114,
    "longitude": 17.21182,
    "category": "Mountain",
    "subcategory": "Mountain",
    "featured": false,
    "priority": 50
  },
  {
    "geonameId": 724984,
    "name": "Čertova Hlava",
    "latitude": 48.88333,
    "longitude": 20.45,
    "category": "Mountain",
    "subcategory": "Mountain",
    "featured": false,
    "priority": 50
  },
  {
    "geonameId": 724983,
    "name": "Čertova Hoľa",
    "latitude": 48.78101,
    "longitude": 20.5492,
    "category": "Mountain",
    "subcategory": "Mountain",
    "featured": false,
    "priority": 50
  },
  {
    "geonameId": 3060764,
    "name": "Čertova Svadba",
    "latitude": 48.89971,
    "longitude": 19.74518,
    "category": "Mountain",
    "subcategory": "Mountain",
    "featured": false,
    "priority": 50
  },
  {
    "geonameId": 724982,
    "name": "Čertovica",
    "latitude": 48.94619,
    "longitude": 20.14327,
    "category": "Mountain",
    "subcategory": "Mountain",
    "featured": false,
    "priority": 50
  },
  {
    "geonameId": 12166661,
    "name": "Čertovík",
    "latitude": 48.84085,
    "longitude": 21.05651,
    "category": "Mountain",
    "subcategory": "Mountain",
    "featured": false,
    "priority": 50
  },
  {
    "geonameId": 3060759,
    "name": "Červená Magura",
    "latitude": 48.97174,
    "longitude": 19.30959,
    "category": "Mountain",
    "subcategory": "Mountain",
    "featured": false,
    "priority": 50
  },
  {
    "geonameId": 12166600,
    "name": "Červená skala",
    "latitude": 49.06,
    "longitude": 20.92152,
    "category": "Mountain",
    "subcategory": "Mountain",
    "featured": false,
    "priority": 50
  },
  {
    "geonameId": 724981,
    "name": "Červená vŕba",
    "latitude": 49.22344,
    "longitude": 21.34502,
    "category": "Mountain",
    "subcategory": "Mountain",
    "featured": false,
    "priority": 50
  },
  {
    "geonameId": 3060760,
    "name": "Červenákov",
    "latitude": 48.48333,
    "longitude": 19.33333,
    "category": "Mountain",
    "subcategory": "Mountain",
    "featured": false,
    "priority": 50
  },
  {
    "geonameId": 724976,
    "name": "Červený Hrunec",
    "latitude": 48.5326,
    "longitude": 21.01579,
    "category": "Mountain",
    "subcategory": "Mountain",
    "featured": false,
    "priority": 50
  },
  {
    "geonameId": 12212791,
    "name": "Červený kameň",
    "latitude": 48.8646,
    "longitude": 21.75911,
    "category": "Mountain",
    "subcategory": "Peak",
    "featured": false,
    "priority": 50
  },
  {
    "geonameId": 12166291,
    "name": "Chabadová",
    "latitude": 48.93042,
    "longitude": 21.41798,
    "category": "Mountain",
    "subcategory": "Mountain",
    "featured": false,
    "priority": 50
  },
  {
    "geonameId": 3060744,
    "name": "Chabenec",
    "latitude": 48.94222,
    "longitude": 19.49362,
    "category": "Mountain",
    "subcategory": "Mountain",
    "featured": false,
    "priority": 50
  },
  {
    "geonameId": 12212798,
    "name": "Cham",
    "latitude": 48.87454,
    "longitude": 21.55045,
    "category": "Mountain",
    "subcategory": "Mountain",
    "featured": false,
    "priority": 50
  },
  {
    "geonameId": 3060736,
    "name": "Chleb",
    "latitude": 49.18891,
    "longitude": 19.05068,
    "category": "Mountain",
    "subcategory": "Mountain",
    "featured": false,
    "priority": 50
  },
  {
    "geonameId": 3060733,
    "name": "Chlm",
    "latitude": 48.40323,
    "longitude": 18.68255,
    "category": "Mountain",
    "subcategory": "Mountain",
    "featured": false,
    "priority": 50
  },
  {
    "geonameId": 3060732,
    "name": "Chlmok",
    "latitude": 48.61283,
    "longitude": 18.46527,
    "category": "Mountain",
    "subcategory": "Mountain",
    "featured": false,
    "priority": 50
  },
  {
    "geonameId": 3060727,
    "name": "Chmelova",
    "latitude": 49.07423,
    "longitude": 18.1551,
    "category": "Mountain",
    "subcategory": "Mountain",
    "featured": false,
    "priority": 50
  },
  {
    "geonameId": 9958529,
    "name": "Chmúrna veža",
    "latitude": 49.1817,
    "longitude": 20.19901,
    "category": "Mountain",
    "subcategory": "Mountain",
    "featured": false,
    "priority": 50
  },
  {
    "geonameId": 3060721,
    "name": "Chochulka",
    "latitude": 48.65314,
    "longitude": 19.2944,
    "category": "Mountain",
    "subcategory": "Mountain",
    "featured": false,
    "priority": 50
  },
  {
    "geonameId": 724961,
    "name": "Chom",
    "latitude": 48.88333,
    "longitude": 21.95,
    "category": "Mountain",
    "subcategory": "Mountain",
    "featured": false,
    "priority": 50
  },
  {
    "geonameId": 3060717,
    "name": "Chopok",
    "latitude": 48.94466,
    "longitude": 19.59021,
    "category": "Mountain",
    "subcategory": "Mountain",
    "featured": false,
    "priority": 50
  },
  {
    "geonameId": 3060715,
    "name": "Chorvátsky Grob",
    "latitude": 48.22787,
    "longitude": 17.29094,
    "category": "City",
    "subcategory": "City",
    "featured": false,
    "priority": 50
  },
  {
    "geonameId": 3060291,
    "name": "Chorvátsky Grob - Čierna Voda",
    "latitude": 48.2249,
    "longitude": 17.2324,
    "category": "City",
    "subcategory": "City",
    "featured": false,
    "priority": 50
  },
  {
    "geonameId": 12217216,
    "name": "Chotárna",
    "latitude": 49.25601,
    "longitude": 21.13925,
    "category": "Mountain",
    "subcategory": "Mountain",
    "featured": false,
    "priority": 50
  },
  {
    "geonameId": 12217345,
    "name": "Chotárňa",
    "latitude": 49.31514,
    "longitude": 20.7417,
    "category": "Mountain",
    "subcategory": "Mountain",
    "featured": false,
    "priority": 50
  },
  {
    "geonameId": 3060710,
    "name": "Chrabov",
    "latitude": 48.51667,
    "longitude": 17.93333,
    "category": "Mountain",
    "subcategory": "Mountain",
    "featured": false,
    "priority": 50
  },
  {
    "geonameId": 12212790,
    "name": "Chrasť",
    "latitude": 48.91472,
    "longitude": 21.68444,
    "category": "Mountain",
    "subcategory": "Peak",
    "featured": false,
    "priority": 50
  },
  {
    "geonameId": 3060708,
    "name": "Chrastelovo",
    "latitude": 49.25,
    "longitude": 19.25,
    "category": "Mountain",
    "subcategory": "Mountain",
    "featured": false,
    "priority": 50
  },
  {
    "geonameId": 3060705,
    "name": "Chrbát",
    "latitude": 47.85303,
    "longitude": 18.36176,
    "category": "Mountain",
    "subcategory": "Mountain",
    "featured": false,
    "priority": 50
  },
  {
    "geonameId": 3060700,
    "name": "Chrobča",
    "latitude": 48.47799,
    "longitude": 19.65064,
    "category": "Mountain",
    "subcategory": "Mountain",
    "featured": false,
    "priority": 50
  },
  {
    "geonameId": 3060699,
    "name": "Chrobla",
    "latitude": 48.35,
    "longitude": 18.88333,
    "category": "Mountain",
    "subcategory": "Mountain",
    "featured": false,
    "priority": 50
  },
  {
    "geonameId": 3060691,
    "name": "Chvatimech",
    "latitude": 48.79844,
    "longitude": 19.55746,
    "category": "Mountain",
    "subcategory": "Mountain",
    "featured": false,
    "priority": 50
  },
  {
    "geonameId": 6692185,
    "name": "Chýžky",
    "latitude": 48.92509,
    "longitude": 19.10128,
    "category": "Mountain",
    "subcategory": "Mountain",
    "featured": false,
    "priority": 50
  },
  {
    "geonameId": 724948,
    "name": "Čiarna",
    "latitude": 48.88987,
    "longitude": 21.98633,
    "category": "Mountain",
    "subcategory": "Mountain",
    "featured": false,
    "priority": 50
  },
  {
    "geonameId": 12166647,
    "name": "Číčky",
    "latitude": 48.72698,
    "longitude": 21.20375,
    "category": "Mountain",
    "subcategory": "Mountain",
    "featured": false,
    "priority": 50
  },
  {
    "geonameId": 12166302,
    "name": "Čierna hora",
    "latitude": 48.96974,
    "longitude": 21.42626,
    "category": "Mountain",
    "subcategory": "Mountain",
    "featured": false,
    "priority": 50
  },
  {
    "geonameId": 8617949,
    "name": "Čierna skala",
    "latitude": 48.49922,
    "longitude": 17.34252,
    "category": "Mountain",
    "subcategory": "Mountain",
    "featured": false,
    "priority": 50
  },
  {
    "geonameId": 3060669,
    "name": "Čierné Blato",
    "latitude": 48.59654,
    "longitude": 18.67995,
    "category": "Mountain",
    "subcategory": "Mountain",
    "featured": false,
    "priority": 50
  },
  {
    "geonameId": 3060668,
    "name": "Čierné Brdo",
    "latitude": 48.66115,
    "longitude": 19.0095,
    "category": "Mountain",
    "subcategory": "Mountain",
    "featured": false,
    "priority": 50
  },
  {
    "geonameId": 3060663,
    "name": "Čierny Diel",
    "latitude": 48.84863,
    "longitude": 19.41521,
    "category": "Mountain",
    "subcategory": "Mountain",
    "featured": false,
    "priority": 50
  },
  {
    "geonameId": 724937,
    "name": "Čierny Kusec",
    "latitude": 49.16508,
    "longitude": 20.69966,
    "category": "Mountain",
    "subcategory": "Mountain",
    "featured": false,
    "priority": 50
  },
  {
    "geonameId": 6696716,
    "name": "Čierny štit",
    "latitude": 49.20507,
    "longitude": 20.20158,
    "category": "Mountain",
    "subcategory": "Mountain",
    "featured": false,
    "priority": 50
  },
  {
    "geonameId": 3060656,
    "name": "Čierny Vrch",
    "latitude": 48.8829,
    "longitude": 18.35224,
    "category": "Mountain",
    "subcategory": "Mountain",
    "featured": false,
    "priority": 50
  },
  {
    "geonameId": 3060642,
    "name": "Čipčie",
    "latitude": 49.13333,
    "longitude": 18.76667,
    "category": "Mountain",
    "subcategory": "Mountain",
    "featured": false,
    "priority": 50
  },
  {
    "geonameId": 724932,
    "name": "Čipov",
    "latitude": 49.25,
    "longitude": 21.31667,
    "category": "Mountain",
    "subcategory": "Mountain",
    "featured": false,
    "priority": 50
  },
  {
    "geonameId": 3060640,
    "name": "Cisárska Hoľá",
    "latitude": 48.62602,
    "longitude": 19.79154,
    "category": "Mountain",
    "subcategory": "Mountain",
    "featured": false,
    "priority": 50
  },
  {
    "geonameId": 12212908,
    "name": "Čonkáš",
    "latitude": 49.09585,
    "longitude": 21.36274,
    "category": "Mountain",
    "subcategory": "Mountain",
    "featured": false,
    "priority": 50
  },
  {
    "geonameId": 724987,
    "name": "Črchlina",
    "latitude": 48.8358,
    "longitude": 21.51466,
    "category": "Mountain",
    "subcategory": "Mountain",
    "featured": false,
    "priority": 50
  },
  {
    "geonameId": 12212884,
    "name": "Črepník",
    "latitude": 48.69742,
    "longitude": 21.46384,
    "category": "Mountain",
    "subcategory": "Mountain",
    "featured": false,
    "priority": 50
  },
  {
    "geonameId": 6690552,
    "name": "Csicsói Holtág Védett Terület",
    "latitude": 47.77325,
    "longitude": 17.73296,
    "category": "Park",
    "subcategory": "Nature Reserve",
    "featured": false,
    "priority": 50
  },
  {
    "geonameId": 6690554,
    "name": "Csicsói-halastavak",
    "latitude": 47.77914,
    "longitude": 17.75202,
    "category": "Lake",
    "subcategory": "Lake",
    "featured": false,
    "priority": 50
  },
  {
    "geonameId": 6690476,
    "name": "Csúzi-víztároló",
    "latitude": 47.95648,
    "longitude": 18.37987,
    "category": "Lake",
    "subcategory": "Reservoir",
    "featured": false,
    "priority": 50
  },
  {
    "geonameId": 3060626,
    "name": "Čubec",
    "latitude": 49.34459,
    "longitude": 18.6219,
    "category": "Mountain",
    "subcategory": "Mountain",
    "featured": false,
    "priority": 50
  },
  {
    "geonameId": 12212794,
    "name": "Čulkov",
    "latitude": 48.92222,
    "longitude": 21.50883,
    "category": "Mountain",
    "subcategory": "Mountain",
    "featured": false,
    "priority": 50
  },
  {
    "geonameId": 724999,
    "name": "Czeremcha",
    "latitude": 49.41667,
    "longitude": 21.46667,
    "category": "Mountain",
    "subcategory": "Mountain",
    "featured": false,
    "priority": 50
  },
  {
    "geonameId": 724998,
    "name": "Czerenin",
    "latitude": 49.15,
    "longitude": 22.23333,
    "category": "Mountain",
    "subcategory": "Mountain",
    "featured": false,
    "priority": 50
  },
  {
    "geonameId": 724918,
    "name": "Danava",
    "latitude": 49.33333,
    "longitude": 21.96667,
    "category": "Mountain",
    "subcategory": "Mountain",
    "featured": false,
    "priority": 50
  },
  {
    "geonameId": 3060601,
    "name": "Dedová",
    "latitude": 49.42749,
    "longitude": 18.92203,
    "category": "Mountain",
    "subcategory": "Mountain",
    "featured": false,
    "priority": 50
  },
  {
    "geonameId": 3060594,
    "name": "Demänovská Hora",
    "latitude": 49.02557,
    "longitude": 19.58913,
    "category": "Mountain",
    "subcategory": "Mountain",
    "featured": false,
    "priority": 50
  },
  {
    "geonameId": 12217334,
    "name": "Demianka",
    "latitude": 49.20324,
    "longitude": 20.89205,
    "category": "Mountain",
    "subcategory": "Mountain",
    "featured": false,
    "priority": 50
  },
  {
    "geonameId": 3060591,
    "name": "Dereše",
    "latitude": 48.94173,
    "longitude": 19.5718,
    "category": "Mountain",
    "subcategory": "Mountain",
    "featured": false,
    "priority": 50
  },
  {
    "geonameId": 3060589,
    "name": "Detva",
    "latitude": 48.56082,
    "longitude": 19.41954,
    "category": "City",
    "subcategory": "City",
    "featured": false,
    "priority": 50
  },
  {
    "geonameId": 3060583,
    "name": "Devínska Kobyla",
    "latitude": 48.1906,
    "longitude": 16.99548,
    "category": "Mountain",
    "subcategory": "Mountain",
    "featured": false,
    "priority": 50
  },
  {
    "geonameId": 3077170,
    "name": "Devínska Nová Ves",
    "latitude": 48.20711,
    "longitude": 16.9786,
    "category": "City",
    "subcategory": "City",
    "featured": false,
    "priority": 50
  },
  {
    "geonameId": 724919,
    "name": "Diaľna",
    "latitude": 48.81099,
    "longitude": 21.37047,
    "category": "Mountain",
    "subcategory": "Mountain",
    "featured": false,
    "priority": 50
  },
  {
    "geonameId": 3060573,
    "name": "Diel",
    "latitude": 49.29216,
    "longitude": 18.6627,
    "category": "Mountain",
    "subcategory": "Mountain",
    "featured": false,
    "priority": 50
  },
  {
    "geonameId": 3060576,
    "name": "Dieľ",
    "latitude": 49.16569,
    "longitude": 18.36286,
    "category": "Mountain",
    "subcategory": "Mountain",
    "featured": false,
    "priority": 50
  },
  {
    "geonameId": 9958048,
    "name": "Divá veža",
    "latitude": 49.17865,
    "longitude": 20.14395,
    "category": "Mountain",
    "subcategory": "Mountain",
    "featured": false,
    "priority": 50
  },
  {
    "geonameId": 12217301,
    "name": "Dlhá",
    "latitude": 49.28329,
    "longitude": 20.9737,
    "category": "Mountain",
    "subcategory": "Mountain",
    "featured": false,
    "priority": 50
  },
  {
    "geonameId": 12166631,
    "name": "Dlhá chrasť",
    "latitude": 48.68597,
    "longitude": 21.12929,
    "category": "Mountain",
    "subcategory": "Mountain",
    "featured": false,
    "priority": 50
  },
  {
    "geonameId": 12212880,
    "name": "Dlhá hora",
    "latitude": 48.69459,
    "longitude": 21.56488,
    "category": "Mountain",
    "subcategory": "Mountain",
    "featured": false,
    "priority": 50
  },
  {
    "geonameId": 12217307,
    "name": "Dlhé hory",
    "latitude": 49.15794,
    "longitude": 21.18566,
    "category": "Mountain",
    "subcategory": "Mountain",
    "featured": false,
    "priority": 50
  },
  {
    "geonameId": 3060553,
    "name": "Dlhý Grúň",
    "latitude": 48.6729,
    "longitude": 19.66087,
    "category": "Mountain",
    "subcategory": "Mountain",
    "featured": false,
    "priority": 50
  },
  {
    "geonameId": 12212822,
    "name": "Dlhý vrch",
    "latitude": 48.94472,
    "longitude": 21.08028,
    "category": "Mountain",
    "subcategory": "Mountain",
    "featured": false,
    "priority": 50
  },
  {
    "geonameId": 12172704,
    "name": "Dobrák",
    "latitude": 48.60657,
    "longitude": 21.43773,
    "category": "Mountain",
    "subcategory": "Mountain",
    "featured": false,
    "priority": 50
  },
  {
    "geonameId": 3060542,
    "name": "Dobroč",
    "latitude": 48.53333,
    "longitude": 19.58333,
    "category": "Mountain",
    "subcategory": "Mountain",
    "featured": false,
    "priority": 50
  },
  {
    "geonameId": 724893,
    "name": "Dobšiná",
    "latitude": 48.82073,
    "longitude": 20.36988,
    "category": "City",
    "subcategory": "City",
    "featured": false,
    "priority": 50
  },
  {
    "geonameId": 724888,
    "name": "Dolina",
    "latitude": 48.94578,
    "longitude": 22.2723,
    "category": "Mountain",
    "subcategory": "Mountain",
    "featured": false,
    "priority": 50
  },
  {
    "geonameId": 724884,
    "name": "Dolinka",
    "latitude": 49.28333,
    "longitude": 21.06667,
    "category": "Mountain",
    "subcategory": "Mountain",
    "featured": false,
    "priority": 50
  },
  {
    "geonameId": 3060517,
    "name": "Dolinky",
    "latitude": 48.84838,
    "longitude": 19.52557,
    "category": "Mountain",
    "subcategory": "Mountain",
    "featured": false,
    "priority": 50
  },
  {
    "geonameId": 3060507,
    "name": "Dolná Klapa",
    "latitude": 48.65,
    "longitude": 18.86667,
    "category": "Mountain",
    "subcategory": "Mountain",
    "featured": false,
    "priority": 50
  },
  {
    "geonameId": 3060418,
    "name": "Dolný Chom",
    "latitude": 48.66667,
    "longitude": 18.98333,
    "category": "Mountain",
    "subcategory": "Mountain",
    "featured": false,
    "priority": 50
  },
  {
    "geonameId": 3060405,
    "name": "Dolný Kubín",
    "latitude": 49.20983,
    "longitude": 19.30341,
    "category": "City",
    "subcategory": "County Seat",
    "featured": false,
    "priority": 50
  },
  {
    "geonameId": 12172710,
    "name": "Domaška",
    "latitude": 48.57026,
    "longitude": 21.38774,
    "category": "Mountain",
    "subcategory": "Mountain",
    "featured": false,
    "priority": 50
  },
  {
    "geonameId": 724876,
    "name": "Doščanka",
    "latitude": 48.96667,
    "longitude": 20.05,
    "category": "Mountain",
    "subcategory": "Mountain",
    "featured": false,
    "priority": 50
  },
  {
    "geonameId": 9957966,
    "name": "Dračí štít",
    "latitude": 49.17172,
    "longitude": 20.0958,
    "category": "Mountain",
    "subcategory": "Mountain",
    "featured": false,
    "priority": 50
  },
  {
    "geonameId": 6698101,
    "name": "Dračie pleso",
    "latitude": 49.1665,
    "longitude": 20.0879,
    "category": "Lake",
    "subcategory": "Lake",
    "featured": false,
    "priority": 50
  },
  {
    "geonameId": 3060373,
    "name": "Drahová Hora",
    "latitude": 48.61825,
    "longitude": 19.69956,
    "category": "Mountain",
    "subcategory": "Mountain",
    "featured": false,
    "priority": 50
  },
  {
    "geonameId": 3060360,
    "name": "Drienok",
    "latitude": 48.89037,
    "longitude": 18.96144,
    "category": "Mountain",
    "subcategory": "Mountain",
    "featured": false,
    "priority": 50
  },
  {
    "geonameId": 3060357,
    "name": "Drienov Vrch",
    "latitude": 48.68612,
    "longitude": 18.47436,
    "category": "Mountain",
    "subcategory": "Mountain",
    "featured": false,
    "priority": 50
  },
  {
    "geonameId": 12212797,
    "name": "Drina",
    "latitude": 48.88628,
    "longitude": 21.56942,
    "category": "Mountain",
    "subcategory": "Mountain",
    "featured": false,
    "priority": 50
  },
  {
    "geonameId": 12166646,
    "name": "Drobná",
    "latitude": 48.74068,
    "longitude": 21.17047,
    "category": "Mountain",
    "subcategory": "Mountain",
    "featured": false,
    "priority": 50
  },
  {
    "geonameId": 9958548,
    "name": "Dromedárov hrb (Kotol)",
    "latitude": 49.15777,
    "longitude": 20.13575,
    "category": "Mountain",
    "subcategory": "Mountain",
    "featured": false,
    "priority": 50
  },
  {
    "geonameId": 724860,
    "name": "Dubie",
    "latitude": 48.99029,
    "longitude": 20.95713,
    "category": "Mountain",
    "subcategory": "Mountain",
    "featured": false,
    "priority": 50
  },
  {
    "geonameId": 12166650,
    "name": "Dubina",
    "latitude": 48.77774,
    "longitude": 21.15346,
    "category": "Mountain",
    "subcategory": "Mountain",
    "featured": false,
    "priority": 50
  },
  {
    "geonameId": 12212903,
    "name": "Dubiná",
    "latitude": 49.10759,
    "longitude": 21.34601,
    "category": "Mountain",
    "subcategory": "Mountain",
    "featured": false,
    "priority": 50
  },
  {
    "geonameId": 3060346,
    "name": "Dubnica nad Váhom",
    "latitude": 48.95981,
    "longitude": 18.16634,
    "category": "City",
    "subcategory": "City",
    "featured": false,
    "priority": 50
  },
  {
    "geonameId": 3060342,
    "name": "Dubník",
    "latitude": 48.59313,
    "longitude": 17.22808,
    "category": "Mountain",
    "subcategory": "Mountain",
    "featured": false,
    "priority": 50
  },
  {
    "geonameId": 12166297,
    "name": "Dubová",
    "latitude": 48.90682,
    "longitude": 21.40088,
    "category": "Mountain",
    "subcategory": "Mountain",
    "featured": false,
    "priority": 50
  },
  {
    "geonameId": 12166307,
    "name": "Dubová hora",
    "latitude": 49.00655,
    "longitude": 21.37155,
    "category": "Mountain",
    "subcategory": "Mountain",
    "featured": false,
    "priority": 50
  },
  {
    "geonameId": 724850,
    "name": "Dúbrava",
    "latitude": 49.03595,
    "longitude": 21.2223,
    "category": "Mountain",
    "subcategory": "Mountain",
    "featured": false,
    "priority": 50
  },
  {
    "geonameId": 724844,
    "name": "Dúbravka",
    "latitude": 48.71722,
    "longitude": 22.31181,
    "category": "Mountain",
    "subcategory": "Mountain",
    "featured": false,
    "priority": 50
  },
  {
    "geonameId": 12217265,
    "name": "Dukance",
    "latitude": 49.20493,
    "longitude": 21.32827,
    "category": "Mountain",
    "subcategory": "Mountain",
    "featured": false,
    "priority": 50
  },
  {
    "geonameId": 724842,
    "name": "Dukla Pass",
    "latitude": 49.41691,
    "longitude": 21.69654,
    "category": "Mountain",
    "subcategory": "Mountain Pass",
    "featured": false,
    "priority": 50
  },
  {
    "geonameId": 3060310,
    "name": "Ďumbier",
    "latitude": 48.93613,
    "longitude": 19.64049,
    "category": "Mountain",
    "subcategory": "Mountain",
    "featured": false,
    "priority": 50
  },
  {
    "geonameId": 8436244,
    "name": "Dunajská Lužná",
    "latitude": 48.08347,
    "longitude": 17.26072,
    "category": "City",
    "subcategory": "City",
    "featured": false,
    "priority": 50
  },
  {
    "geonameId": 3060308,
    "name": "Dunajská Streda",
    "latitude": 47.99268,
    "longitude": 17.61211,
    "category": "City",
    "subcategory": "City",
    "featured": false,
    "priority": 50
  },
  {
    "geonameId": 6690198,
    "name": "Ďurková",
    "latitude": 48.93107,
    "longitude": 19.45832,
    "category": "Mountain",
    "subcategory": "Mountain",
    "featured": false,
    "priority": 50
  },
  {
    "geonameId": 12217305,
    "name": "Dvoriská",
    "latitude": 49.22217,
    "longitude": 21.05653,
    "category": "Mountain",
    "subcategory": "Mountain",
    "featured": false,
    "priority": 50
  },
  {
    "geonameId": 3060267,
    "name": "Dvory nad Žitavou",
    "latitude": 47.98946,
    "longitude": 18.26717,
    "category": "City",
    "subcategory": "City",
    "featured": false,
    "priority": 50
  },
  {
    "geonameId": 12217259,
    "name": "Dzuranov",
    "latitude": 49.29737,
    "longitude": 21.18793,
    "category": "Mountain",
    "subcategory": "Mountain",
    "featured": false,
    "priority": 50
  },
  {
    "geonameId": 724724,
    "name": "Eliaszówka",
    "latitude": 49.41667,
    "longitude": 20.65,
    "category": "Mountain",
    "subcategory": "Mountain",
    "featured": false,
    "priority": 50
  },
  {
    "geonameId": 3060258,
    "name": "Fabová Hol’a",
    "latitude": 48.76777,
    "longitude": 19.88793,
    "category": "Mountain",
    "subcategory": "Mountain",
    "featured": false,
    "priority": 50
  },
  {
    "geonameId": 12166691,
    "name": "Fajferný hrb",
    "latitude": 48.86533,
    "longitude": 20.71919,
    "category": "Mountain",
    "subcategory": "Mountain",
    "featured": false,
    "priority": 50
  },
  {
    "geonameId": 3060251,
    "name": "Fangov Vrch",
    "latitude": 48.58081,
    "longitude": 19.46734,
    "category": "Mountain",
    "subcategory": "Mountain",
    "featured": false,
    "priority": 50
  },
  {
    "geonameId": 3060247,
    "name": "Fedorka",
    "latitude": 48.90211,
    "longitude": 19.29289,
    "category": "Mountain",
    "subcategory": "Mountain",
    "featured": false,
    "priority": 50
  },
  {
    "geonameId": 3060244,
    "name": "Feračova",
    "latitude": 49.31039,
    "longitude": 19.27336,
    "category": "Mountain",
    "subcategory": "Mountain",
    "featured": false,
    "priority": 50
  },
  {
    "geonameId": 724820,
    "name": "Fetkov",
    "latitude": 48.90737,
    "longitude": 22.23513,
    "category": "Mountain",
    "subcategory": "Mountain",
    "featured": false,
    "priority": 50
  },
  {
    "geonameId": 3060242,
    "name": "Fiľakovo",
    "latitude": 48.26757,
    "longitude": 19.82473,
    "category": "City",
    "subcategory": "District Seat",
    "featured": false,
    "priority": 50
  },
  {
    "geonameId": 3060237,
    "name": "Fišerka",
    "latitude": 48.92403,
    "longitude": 19.78176,
    "category": "Mountain",
    "subcategory": "Mountain",
    "featured": false,
    "priority": 50
  },
  {
    "geonameId": 12217302,
    "name": "Foderková",
    "latitude": 49.28777,
    "longitude": 20.96821,
    "category": "Mountain",
    "subcategory": "Mountain",
    "featured": false,
    "priority": 50
  },
  {
    "geonameId": 12166618,
    "name": "Folkmarská skala",
    "latitude": 48.82907,
    "longitude": 21.01115,
    "category": "Mountain",
    "subcategory": "Mountain",
    "featured": false,
    "priority": 50
  },
  {
    "geonameId": 12217224,
    "name": "Forgáčka",
    "latitude": 49.22116,
    "longitude": 21.03346,
    "category": "Mountain",
    "subcategory": "Mountain",
    "featured": false,
    "priority": 50
  },
  {
    "geonameId": 6692183,
    "name": "Frčkov",
    "latitude": 48.89463,
    "longitude": 19.07879,
    "category": "Mountain",
    "subcategory": "Mountain",
    "featured": false,
    "priority": 50
  },
  {
    "geonameId": 7732445,
    "name": "Furča",
    "latitude": 48.95705,
    "longitude": 21.23243,
    "category": "Mountain",
    "subcategory": "Mountain",
    "featured": false,
    "priority": 50
  },
  {
    "geonameId": 12166609,
    "name": "Furča (Bajerov)",
    "latitude": 48.94663,
    "longitude": 21.11204,
    "category": "Mountain",
    "subcategory": "Mountain",
    "featured": false,
    "priority": 50
  },
  {
    "geonameId": 6690498,
    "name": "Füri-víztározó",
    "latitude": 47.92204,
    "longitude": 18.40776,
    "category": "Lake",
    "subcategory": "Reservoir",
    "featured": false,
    "priority": 50
  },
  {
    "geonameId": 3056925,
    "name": "Furkaska",
    "latitude": 49.26667,
    "longitude": 19.78333,
    "category": "Mountain",
    "subcategory": "Mountain",
    "featured": false,
    "priority": 50
  },
  {
    "geonameId": 9958083,
    "name": "Furkotský štít",
    "latitude": 49.16871,
    "longitude": 20.02739,
    "category": "Mountain",
    "subcategory": "Mountain",
    "featured": false,
    "priority": 50
  },
  {
    "geonameId": 6690520,
    "name": "Füzes Védett Terület",
    "latitude": 47.80935,
    "longitude": 18.05243,
    "category": "Park",
    "subcategory": "Nature Reserve",
    "featured": false,
    "priority": 50
  },
  {
    "geonameId": 3060224,
    "name": "Gabčíkovo",
    "latitude": 47.89211,
    "longitude": 17.57884,
    "category": "City",
    "subcategory": "City",
    "featured": false,
    "priority": 50
  },
  {
    "geonameId": 724804,
    "name": "Gačalov",
    "latitude": 49.31667,
    "longitude": 21.36667,
    "category": "Mountain",
    "subcategory": "Mountain",
    "featured": false,
    "priority": 50
  },
  {
    "geonameId": 3060219,
    "name": "Galanta",
    "latitude": 48.19001,
    "longitude": 17.72747,
    "category": "City",
    "subcategory": "City",
    "featured": false,
    "priority": 50
  },
  {
    "geonameId": 12166654,
    "name": "Gaľová",
    "latitude": 48.83255,
    "longitude": 21.12037,
    "category": "Mountain",
    "subcategory": "Mountain Pass",
    "featured": false,
    "priority": 50
  },
  {
    "geonameId": 7729872,
    "name": "Gánok",
    "latitude": 49.17416,
    "longitude": 20.10485,
    "category": "Mountain",
    "subcategory": "Mountain",
    "featured": false,
    "priority": 50
  },
  {
    "geonameId": 12166590,
    "name": "Gavart",
    "latitude": 48.93605,
    "longitude": 20.89766,
    "category": "Mountain",
    "subcategory": "Mountain",
    "featured": false,
    "priority": 50
  },
  {
    "geonameId": 7732431,
    "name": "Gazdoráň",
    "latitude": 49.0506,
    "longitude": 22.26506,
    "category": "Mountain",
    "subcategory": "Peak",
    "featured": false,
    "priority": 50
  },
  {
    "geonameId": 3060206,
    "name": "Geď",
    "latitude": 48.13333,
    "longitude": 19.93333,
    "category": "Mountain",
    "subcategory": "Mountain",
    "featured": false,
    "priority": 50
  },
  {
    "geonameId": 724800,
    "name": "Gelnica",
    "latitude": 48.85584,
    "longitude": 20.93713,
    "category": "City",
    "subcategory": "County Seat",
    "featured": false,
    "priority": 50
  },
  {
    "geonameId": 12217177,
    "name": "Gerginovec",
    "latitude": 49.15724,
    "longitude": 20.91225,
    "category": "Mountain",
    "subcategory": "Mountain",
    "featured": false,
    "priority": 50
  },
  {
    "geonameId": 724786,
    "name": "Gerlachovský štít",
    "latitude": 49.16436,
    "longitude": 20.13369,
    "category": "Mountain",
    "subcategory": "Mountain",
    "featured": false,
    "priority": 50
  },
  {
    "geonameId": 3060199,
    "name": "Gírová",
    "latitude": 49.53189,
    "longitude": 18.79984,
    "category": "Mountain",
    "subcategory": "Mountain",
    "featured": false,
    "priority": 50
  },
  {
    "geonameId": 3060197,
    "name": "Glean",
    "latitude": 48.98333,
    "longitude": 19.8,
    "category": "Mountain",
    "subcategory": "Mountain",
    "featured": false,
    "priority": 50
  },
  {
    "geonameId": 3060195,
    "name": "Golanky",
    "latitude": 49.34565,
    "longitude": 19.32836,
    "category": "Mountain",
    "subcategory": "Mountain",
    "featured": false,
    "priority": 50
  },
  {
    "geonameId": 723710,
    "name": "Gora Rozhok",
    "latitude": 48.96667,
    "longitude": 22.46667,
    "category": "Mountain",
    "subcategory": "Mountain",
    "featured": false,
    "priority": 50
  },
  {
    "geonameId": 12217335,
    "name": "Gordoška",
    "latitude": 49.21995,
    "longitude": 20.84678,
    "category": "Mountain",
    "subcategory": "Mountain",
    "featured": false,
    "priority": 50
  },
  {
    "geonameId": 724774,
    "name": "Grajnár",
    "latitude": 48.86027,
    "longitude": 20.50973,
    "category": "Mountain",
    "subcategory": "Mountain",
    "featured": false,
    "priority": 50
  },
  {
    "geonameId": 12217339,
    "name": "Grapa",
    "latitude": 49.2526,
    "longitude": 20.80811,
    "category": "Mountain",
    "subcategory": "Mountain",
    "featured": false,
    "priority": 50
  },
  {
    "geonameId": 12217324,
    "name": "Gregorka",
    "latitude": 49.19629,
    "longitude": 20.99924,
    "category": "Mountain",
    "subcategory": "Mountain",
    "featured": false,
    "priority": 50
  },
  {
    "geonameId": 12217255,
    "name": "Gregorkov",
    "latitude": 49.21418,
    "longitude": 21.19639,
    "category": "Mountain",
    "subcategory": "Mountain",
    "featured": false,
    "priority": 50
  },
  {
    "geonameId": 724769,
    "name": "Grejnár",
    "latitude": 48.95033,
    "longitude": 21.05477,
    "category": "Mountain",
    "subcategory": "Mountain",
    "featured": false,
    "priority": 50
  },
  {
    "geonameId": 724766,
    "name": "Griglova roveň",
    "latitude": 49.29275,
    "longitude": 21.19825,
    "category": "Mountain",
    "subcategory": "Mountain",
    "featured": false,
    "priority": 50
  },
  {
    "geonameId": 12212783,
    "name": "Grófňa",
    "latitude": 49.04479,
    "longitude": 21.67105,
    "category": "Mountain",
    "subcategory": "Peak",
    "featured": false,
    "priority": 50
  },
  {
    "geonameId": 3060182,
    "name": "Groň",
    "latitude": 49.44991,
    "longitude": 18.72085,
    "category": "Mountain",
    "subcategory": "Mountain",
    "featured": false,
    "priority": 50
  },
  {
    "geonameId": 3060181,
    "name": "Gropa",
    "latitude": 49.45374,
    "longitude": 19.48029,
    "category": "Mountain",
    "subcategory": "Mountain",
    "featured": false,
    "priority": 50
  },
  {
    "geonameId": 724763,
    "name": "Grúň",
    "latitude": 48.75597,
    "longitude": 22.0087,
    "category": "Mountain",
    "subcategory": "Mountain",
    "featured": false,
    "priority": 50
  },
  {
    "geonameId": 12212781,
    "name": "Grúnik",
    "latitude": 49.12276,
    "longitude": 21.54299,
    "category": "Mountain",
    "subcategory": "Peak",
    "featured": false,
    "priority": 50
  },
  {
    "geonameId": 7729863,
    "name": "Grześ",
    "latitude": 49.2366,
    "longitude": 19.76689,
    "category": "Mountain",
    "subcategory": "Mountain",
    "featured": false,
    "priority": 50
  },
  {
    "geonameId": 3060177,
    "name": "Gunie",
    "latitude": 48.65,
    "longitude": 18.63333,
    "category": "Mountain",
    "subcategory": "Mountain",
    "featured": false,
    "priority": 50
  },
  {
    "geonameId": 12217161,
    "name": "Háj",
    "latitude": 49.13775,
    "longitude": 21.12317,
    "category": "Mountain",
    "subcategory": "Mountain",
    "featured": false,
    "priority": 50
  },
  {
    "geonameId": 12217163,
    "name": "Hájna hôrka",
    "latitude": 49.1281,
    "longitude": 21.10343,
    "category": "Mountain",
    "subcategory": "Mountain",
    "featured": false,
    "priority": 50
  },
  {
    "geonameId": 3060160,
    "name": "Hajnáš",
    "latitude": 48.72324,
    "longitude": 19.93929,
    "category": "Mountain",
    "subcategory": "Mountain",
    "featured": false,
    "priority": 50
  },
  {
    "geonameId": 3060157,
    "name": "Hájny Grúň",
    "latitude": 48.6905,
    "longitude": 19.46681,
    "category": "Mountain",
    "subcategory": "Mountain",
    "featured": false,
    "priority": 50
  },
  {
    "geonameId": 12212909,
    "name": "Haľagoš",
    "latitude": 49.1018,
    "longitude": 21.37828,
    "category": "Mountain",
    "subcategory": "Mountain",
    "featured": false,
    "priority": 50
  },
  {
    "geonameId": 12217261,
    "name": "Hančov",
    "latitude": 49.2603,
    "longitude": 21.26492,
    "category": "Mountain",
    "subcategory": "Mountain",
    "featured": false,
    "priority": 50
  },
  {
    "geonameId": 3060139,
    "name": "Handlová",
    "latitude": 48.7276,
    "longitude": 18.76012,
    "category": "City",
    "subcategory": "District Seat",
    "featured": false,
    "priority": 50
  },
  {
    "geonameId": 3060134,
    "name": "Hantalova Kyčera",
    "latitude": 49.23333,
    "longitude": 18.3,
    "category": "Mountain",
    "subcategory": "Mountain",
    "featured": false,
    "priority": 50
  },
  {
    "geonameId": 6696714,
    "name": "Havran",
    "latitude": 49.24867,
    "longitude": 20.19751,
    "category": "Mountain",
    "subcategory": "Mountain",
    "featured": false,
    "priority": 50
  },
  {
    "geonameId": 12212776,
    "name": "Havraní vrch",
    "latitude": 49.07527,
    "longitude": 21.54831,
    "category": "Mountain",
    "subcategory": "Peak",
    "featured": false,
    "priority": 50
  },
  {
    "geonameId": 6944852,
    "name": "Havrania",
    "latitude": 49.16125,
    "longitude": 19.39799,
    "category": "Mountain",
    "subcategory": "Mountain",
    "featured": false,
    "priority": 50
  },
  {
    "geonameId": 724694,
    "name": "Havrania hlava",
    "latitude": 48.84887,
    "longitude": 20.82966,
    "category": "Mountain",
    "subcategory": "Mountain",
    "featured": false,
    "priority": 50
  },
  {
    "geonameId": 724732,
    "name": "Havrania Skala",
    "latitude": 48.8901,
    "longitude": 20.33655,
    "category": "Mountain",
    "subcategory": "Mountain",
    "featured": false,
    "priority": 50
  },
  {
    "geonameId": 8617942,
    "name": "Havranica",
    "latitude": 48.52476,
    "longitude": 17.40716,
    "category": "Mountain",
    "subcategory": "Mountain",
    "featured": false,
    "priority": 50
  },
  {
    "geonameId": 12217320,
    "name": "Havranka",
    "latitude": 49.17884,
    "longitude": 21.04018,
    "category": "Mountain",
    "subcategory": "Mountain",
    "featured": false,
    "priority": 50
  },
  {
    "geonameId": 724728,
    "name": "Heckerova",
    "latitude": 48.73383,
    "longitude": 20.66515,
    "category": "Mountain",
    "subcategory": "Mountain",
    "featured": false,
    "priority": 50
  },
  {
    "geonameId": 6690508,
    "name": "Hetényi homokbuckák Védett Terület",
    "latitude": 47.81523,
    "longitude": 18.20847,
    "category": "Park",
    "subcategory": "Nature Reserve",
    "featured": false,
    "priority": 50
  },
  {
    "geonameId": 724711,
    "name": "Hiriač",
    "latitude": 48.85,
    "longitude": 21.95,
    "category": "Mountain",
    "subcategory": "Mountain",
    "featured": false,
    "priority": 50
  },
  {
    "geonameId": 3060113,
    "name": "Hľačovo",
    "latitude": 49.00034,
    "longitude": 19.49267,
    "category": "Mountain",
    "subcategory": "Mountain",
    "featured": false,
    "priority": 50
  },
  {
    "geonameId": 8618010,
    "name": "Hlboča waterfall",
    "latitude": 48.51076,
    "longitude": 17.4108,
    "category": "Waterfall",
    "subcategory": "Waterfall",
    "featured": false,
    "priority": 50
  },
  {
    "geonameId": 724710,
    "name": "Hlimce",
    "latitude": 49.2699,
    "longitude": 21.84764,
    "category": "Mountain",
    "subcategory": "Mountain",
    "featured": false,
    "priority": 50
  },
  {
    "geonameId": 3060104,
    "name": "Hlina",
    "latitude": 48.45,
    "longitude": 19.11667,
    "category": "Mountain",
    "subcategory": "Mountain",
    "featured": false,
    "priority": 50
  },
  {
    "geonameId": 724709,
    "name": "Hliník",
    "latitude": 48.53802,
    "longitude": 21.63282,
    "category": "Mountain",
    "subcategory": "Mountain",
    "featured": false,
    "priority": 50
  },
  {
    "geonameId": 12166683,
    "name": "Hlinisko",
    "latitude": 48.86824,
    "longitude": 20.53603,
    "category": "Mountain",
    "subcategory": "Mountain",
    "featured": false,
    "priority": 50
  },
  {
    "geonameId": 9958084,
    "name": "Hlinská veža",
    "latitude": 49.17062,
    "longitude": 20.04769,
    "category": "Mountain",
    "subcategory": "Mountain",
    "featured": false,
    "priority": 50
  },
  {
    "geonameId": 3060095,
    "name": "Hlohovec",
    "latitude": 48.43174,
    "longitude": 17.8031,
    "category": "City",
    "subcategory": "County Seat",
    "featured": false,
    "priority": 50
  },
  {
    "geonameId": 6696715,
    "name": "Hlúpy",
    "latitude": 49.23708,
    "longitude": 20.22064,
    "category": "Mountain",
    "subcategory": "Mountain",
    "featured": false,
    "priority": 50
  },
  {
    "geonameId": 3060090,
    "name": "Hnilická Kyčera",
    "latitude": 49.02663,
    "longitude": 18.74057,
    "category": "Mountain",
    "subcategory": "Mountain",
    "featured": false,
    "priority": 50
  },
  {
    "geonameId": 3060089,
    "name": "Hnúšťa",
    "latitude": 48.57257,
    "longitude": 19.95395,
    "category": "City",
    "subcategory": "City",
    "featured": false,
    "priority": 50
  },
  {
    "geonameId": 3060088,
    "name": "Hoblík",
    "latitude": 49.15071,
    "longitude": 18.81268,
    "category": "Mountain",
    "subcategory": "Mountain",
    "featured": false,
    "priority": 50
  },
  {
    "geonameId": 3060085,
    "name": "Hodulov Vrch",
    "latitude": 48.75879,
    "longitude": 17.68077,
    "category": "Mountain",
    "subcategory": "Mountain",
    "featured": false,
    "priority": 50
  },
  {
    "geonameId": 724696,
    "name": "Hoľa",
    "latitude": 49.06914,
    "longitude": 20.79178,
    "category": "Mountain",
    "subcategory": "Mountain",
    "featured": false,
    "priority": 50
  },
  {
    "geonameId": 12212864,
    "name": "Holá hora",
    "latitude": 48.85065,
    "longitude": 21.4696,
    "category": "Mountain",
    "subcategory": "Mountain",
    "featured": false,
    "priority": 50
  },
  {
    "geonameId": 3060077,
    "name": "Holíč",
    "latitude": 48.81105,
    "longitude": 17.16238,
    "category": "City",
    "subcategory": "City",
    "featured": false,
    "priority": 50
  },
  {
    "geonameId": 724693,
    "name": "Holica",
    "latitude": 49.23865,
    "longitude": 20.11676,
    "category": "Mountain",
    "subcategory": "Mountain",
    "featured": false,
    "priority": 50
  },
  {
    "geonameId": 6285441,
    "name": "Holica - 828 m npm Pieniny",
    "latitude": 49.40795,
    "longitude": 20.4465,
    "category": "Mountain",
    "subcategory": "Peak",
    "featured": false,
    "priority": 50
  },
  {
    "geonameId": 724692,
    "name": "Holička",
    "latitude": 48.71292,
    "longitude": 21.08211,
    "category": "Mountain",
    "subcategory": "Mountain",
    "featured": false,
    "priority": 50
  },
  {
    "geonameId": 12166689,
    "name": "Holina",
    "latitude": 48.87773,
    "longitude": 20.77853,
    "category": "Mountain",
    "subcategory": "Mountain",
    "featured": false,
    "priority": 50
  },
  {
    "geonameId": 6690465,
    "name": "Holt-Vág",
    "latitude": 47.78029,
    "longitude": 18.12409,
    "category": "Lake",
    "subcategory": "Lake",
    "featured": false,
    "priority": 50
  },
  {
    "geonameId": 12212866,
    "name": "Holubia hora",
    "latitude": 48.77627,
    "longitude": 21.52719,
    "category": "Mountain",
    "subcategory": "Mountain",
    "featured": false,
    "priority": 50
  },
  {
    "geonameId": 3060072,
    "name": "Holubin",
    "latitude": 48.48479,
    "longitude": 19.88274,
    "category": "Mountain",
    "subcategory": "Mountain",
    "featured": false,
    "priority": 50
  },
  {
    "geonameId": 12217336,
    "name": "Holý hrb",
    "latitude": 49.21712,
    "longitude": 20.83639,
    "category": "Mountain",
    "subcategory": "Mountain",
    "featured": false,
    "priority": 50
  },
  {
    "geonameId": 12166615,
    "name": "Holý hŕbok",
    "latitude": 48.90764,
    "longitude": 21.01083,
    "category": "Mountain",
    "subcategory": "Mountain",
    "featured": false,
    "priority": 50
  },
  {
    "geonameId": 724690,
    "name": "Holý Kameň",
    "latitude": 48.89696,
    "longitude": 20.42999,
    "category": "Mountain",
    "subcategory": "Mountain",
    "featured": false,
    "priority": 50
  },
  {
    "geonameId": 3060071,
    "name": "Holý Kopec",
    "latitude": 48.84933,
    "longitude": 18.98621,
    "category": "Mountain",
    "subcategory": "Mountain",
    "featured": false,
    "priority": 50
  },
  {
    "geonameId": 9959064,
    "name": "Holý vrch",
    "latitude": 49.17354,
    "longitude": 19.88993,
    "category": "Mountain",
    "subcategory": "Mountain",
    "featured": false,
    "priority": 50
  },
  {
    "geonameId": 9959066,
    "name": "Holý vrch (Lipt. Kopy)",
    "latitude": 49.1886,
    "longitude": 19.96692,
    "category": "Mountain",
    "subcategory": "Mountain",
    "featured": false,
    "priority": 50
  },
  {
    "geonameId": 3060064,
    "name": "Homolka",
    "latitude": 49.24741,
    "longitude": 19.31603,
    "category": "Mountain",
    "subcategory": "Mountain",
    "featured": false,
    "priority": 50
  },
  {
    "geonameId": 12166598,
    "name": "Homoľka",
    "latitude": 49.03564,
    "longitude": 20.91019,
    "category": "Mountain",
    "subcategory": "Mountain",
    "featured": false,
    "priority": 50
  },
  {
    "geonameId": 724685,
    "name": "Hora",
    "latitude": 49.1209,
    "longitude": 21.28416,
    "category": "Mountain",
    "subcategory": "Mountain",
    "featured": false,
    "priority": 50
  },
  {
    "geonameId": 724683,
    "name": "Horb Sredni",
    "latitude": 49.31667,
    "longitude": 21.98333,
    "category": "Mountain",
    "subcategory": "Mountain",
    "featured": false,
    "priority": 50
  },
  {
    "geonameId": 3060054,
    "name": "Horenovo",
    "latitude": 48.78596,
    "longitude": 18.78431,
    "category": "Mountain",
    "subcategory": "Mountain",
    "featured": false,
    "priority": 50
  },
  {
    "geonameId": 3060043,
    "name": "Horná Klapa",
    "latitude": 48.64754,
    "longitude": 18.87089,
    "category": "Mountain",
    "subcategory": "Mountain",
    "featured": false,
    "priority": 50
  },
  {
    "geonameId": 3060037,
    "name": "Horná Lúka",
    "latitude": 49.065,
    "longitude": 18.78464,
    "category": "Mountain",
    "subcategory": "Mountain",
    "featured": false,
    "priority": 50
  },
  {
    "geonameId": 3059929,
    "name": "Horný Pajer",
    "latitude": 48.48652,
    "longitude": 18.64754,
    "category": "Mountain",
    "subcategory": "Mountain",
    "featured": false,
    "priority": 50
  },
  {
    "geonameId": 3059915,
    "name": "Horvátov Vrch",
    "latitude": 48.41711,
    "longitude": 19.03046,
    "category": "Mountain",
    "subcategory": "Mountain",
    "featured": false,
    "priority": 50
  },
  {
    "geonameId": 3059914,
    "name": "Hošková",
    "latitude": 49.03446,
    "longitude": 19.92172,
    "category": "Mountain",
    "subcategory": "Mountain",
    "featured": false,
    "priority": 50
  },
  {
    "geonameId": 12212829,
    "name": "Hrabina",
    "latitude": 48.8615,
    "longitude": 21.10688,
    "category": "Mountain",
    "subcategory": "Mountain",
    "featured": false,
    "priority": 50
  },
  {
    "geonameId": 12166733,
    "name": "Hrad",
    "latitude": 48.85891,
    "longitude": 21.20619,
    "category": "Mountain",
    "subcategory": "Mountain",
    "featured": false,
    "priority": 50
  },
  {
    "geonameId": 3059891,
    "name": "Hradisko",
    "latitude": 49.23333,
    "longitude": 18.68333,
    "category": "Mountain",
    "subcategory": "Mountain",
    "featured": false,
    "priority": 50
  },
  {
    "geonameId": 3059890,
    "name": "Hradište",
    "latitude": 49.2,
    "longitude": 18.26667,
    "category": "Mountain",
    "subcategory": "Mountain",
    "featured": false,
    "priority": 50
  },
  {
    "geonameId": 724654,
    "name": "Hrádok",
    "latitude": 48.76667,
    "longitude": 21.9,
    "category": "Mountain",
    "subcategory": "Mountain",
    "featured": false,
    "priority": 50
  },
  {
    "geonameId": 724653,
    "name": "Hradová",
    "latitude": 48.65024,
    "longitude": 21.45562,
    "category": "Mountain",
    "subcategory": "Mountain",
    "featured": false,
    "priority": 50
  },
  {
    "geonameId": 12217240,
    "name": "Hradová hora",
    "latitude": 49.145,
    "longitude": 21.1854,
    "category": "Mountain",
    "subcategory": "Mountain",
    "featured": false,
    "priority": 50
  },
  {
    "geonameId": 3059876,
    "name": "Hradovicka",
    "latitude": 48.50465,
    "longitude": 18.20217,
    "category": "Mountain",
    "subcategory": "Mountain",
    "featured": false,
    "priority": 50
  },
  {
    "geonameId": 12217309,
    "name": "Hradské",
    "latitude": 49.23074,
    "longitude": 21.05202,
    "category": "Mountain",
    "subcategory": "Mountain",
    "featured": false,
    "priority": 50
  },
  {
    "geonameId": 9958523,
    "name": "Hranatá veža",
    "latitude": 49.18524,
    "longitude": 20.15828,
    "category": "Mountain",
    "subcategory": "Mountain",
    "featured": false,
    "priority": 50
  },
  {
    "geonameId": 12217213,
    "name": "Hrašovík",
    "latitude": 49.21718,
    "longitude": 21.09891,
    "category": "Mountain",
    "subcategory": "Mountain",
    "featured": false,
    "priority": 50
  },
  {
    "geonameId": 12212901,
    "name": "Hrb",
    "latitude": 48.92024,
    "longitude": 21.41038,
    "category": "Mountain",
    "subcategory": "Mountain",
    "featured": false,
    "priority": 50
  },
  {
    "geonameId": 724647,
    "name": "Hrbek",
    "latitude": 48.77006,
    "longitude": 21.19741,
    "category": "Mountain",
    "subcategory": "Mountain",
    "featured": false,
    "priority": 50
  },
  {
    "geonameId": 12212789,
    "name": "Hrebovka",
    "latitude": 48.94195,
    "longitude": 21.69843,
    "category": "Mountain",
    "subcategory": "Mountain",
    "featured": false,
    "priority": 50
  },
  {
    "geonameId": 3059870,
    "name": "Hriňová",
    "latitude": 48.57787,
    "longitude": 19.52574,
    "category": "City",
    "subcategory": "City",
    "featured": false,
    "priority": 50
  },
  {
    "geonameId": 12217304,
    "name": "Hriňová hora",
    "latitude": 49.24632,
    "longitude": 20.944,
    "category": "Mountain",
    "subcategory": "Mountain",
    "featured": false,
    "priority": 50
  },
  {
    "geonameId": 12217329,
    "name": "Hrnčiarka",
    "latitude": 49.16939,
    "longitude": 20.99226,
    "category": "Mountain",
    "subcategory": "Mountain",
    "featured": false,
    "priority": 50
  },
  {
    "geonameId": 12217328,
    "name": "Hrnčiarky",
    "latitude": 49.16333,
    "longitude": 20.99196,
    "category": "Mountain",
    "subcategory": "Mountain",
    "featured": false,
    "priority": 50
  },
  {
    "geonameId": 724764,
    "name": "Hromovec",
    "latitude": 49.23069,
    "longitude": 20.76904,
    "category": "Mountain",
    "subcategory": "Mountain",
    "featured": false,
    "priority": 50
  },
  {
    "geonameId": 3059849,
    "name": "Hrozný",
    "latitude": 48.15809,
    "longitude": 19.4811,
    "category": "Mountain",
    "subcategory": "Mountain",
    "featured": false,
    "priority": 50
  },
  {
    "geonameId": 3059847,
    "name": "Hrubá Bučina",
    "latitude": 49.4873,
    "longitude": 19.23174,
    "category": "Mountain",
    "subcategory": "Mountain",
    "featured": false,
    "priority": 50
  },
  {
    "geonameId": 3059846,
    "name": "Hrubá Kačka",
    "latitude": 48.98372,
    "longitude": 18.51335,
    "category": "Mountain",
    "subcategory": "Mountain",
    "featured": false,
    "priority": 50
  },
  {
    "geonameId": 12217347,
    "name": "Hrubá Klada",
    "latitude": 49.32137,
    "longitude": 20.73541,
    "category": "Mountain",
    "subcategory": "Mountain",
    "featured": false,
    "priority": 50
  },
  {
    "geonameId": 9958099,
    "name": "Hrubá kopa",
    "latitude": 49.1794,
    "longitude": 20.00563,
    "category": "Mountain",
    "subcategory": "Mountain",
    "featured": false,
    "priority": 50
  },
  {
    "geonameId": 9958550,
    "name": "Hrubá veža",
    "latitude": 49.18154,
    "longitude": 20.13004,
    "category": "Mountain",
    "subcategory": "Mountain",
    "featured": false,
    "priority": 50
  },
  {
    "geonameId": 3059845,
    "name": "Hrubý Grúň",
    "latitude": 49.09746,
    "longitude": 19.93629,
    "category": "Mountain",
    "subcategory": "Mountain",
    "featured": false,
    "priority": 50
  },
  {
    "geonameId": 7729875,
    "name": "Hrubý vrch",
    "latitude": 49.17068,
    "longitude": 20.02683,
    "category": "Mountain",
    "subcategory": "Mountain",
    "featured": false,
    "priority": 50
  },
  {
    "geonameId": 724636,
    "name": "Hrun",
    "latitude": 48.98333,
    "longitude": 20.01667,
    "category": "Mountain",
    "subcategory": "Mountain",
    "featured": false,
    "priority": 50
  },
  {
    "geonameId": 7732450,
    "name": "Humenec",
    "latitude": 48.86236,
    "longitude": 21.17083,
    "category": "Mountain",
    "subcategory": "Mountain",
    "featured": false,
    "priority": 50
  },
  {
    "geonameId": 724627,
    "name": "Humenné",
    "latitude": 48.93707,
    "longitude": 21.91625,
    "category": "City",
    "subcategory": "County Seat",
    "featured": false,
    "priority": 50
  },
  {
    "geonameId": 724625,
    "name": "Humenská",
    "latitude": 48.91141,
    "longitude": 21.94749,
    "category": "Mountain",
    "subcategory": "Mountain",
    "featured": false,
    "priority": 50
  },
  {
    "geonameId": 6696720,
    "name": "Huncovský štít",
    "latitude": 49.19797,
    "longitude": 20.22592,
    "category": "Mountain",
    "subcategory": "Mountain",
    "featured": false,
    "priority": 50
  },
  {
    "geonameId": 3059821,
    "name": "Hurbanovo",
    "latitude": 47.86984,
    "longitude": 18.19233,
    "category": "City",
    "subcategory": "City",
    "featured": false,
    "priority": 50
  },
  {
    "geonameId": 12212784,
    "name": "Húšťavy",
    "latitude": 48.97227,
    "longitude": 21.60067,
    "category": "Mountain",
    "subcategory": "Peak",
    "featured": false,
    "priority": 50
  },
  {
    "geonameId": 3059814,
    "name": "Huštie",
    "latitude": 49.10286,
    "longitude": 18.39472,
    "category": "Mountain",
    "subcategory": "Mountain",
    "featured": false,
    "priority": 50
  },
  {
    "geonameId": 7732421,
    "name": "Hutná hoľa",
    "latitude": 48.79314,
    "longitude": 20.85089,
    "category": "Mountain",
    "subcategory": "Peak",
    "featured": false,
    "priority": 50
  },
  {
    "geonameId": 12217223,
    "name": "Hýrová",
    "latitude": 49.2181,
    "longitude": 21.01247,
    "category": "Mountain",
    "subcategory": "Mountain",
    "featured": false,
    "priority": 50
  },
  {
    "geonameId": 12166626,
    "name": "Idčianske sedlo",
    "latitude": 48.76247,
    "longitude": 21.03243,
    "category": "Mountain",
    "subcategory": "Mountain Pass",
    "featured": false,
    "priority": 50
  },
  {
    "geonameId": 724611,
    "name": "Ihla",
    "latitude": 49.18784,
    "longitude": 20.60488,
    "category": "Mountain",
    "subcategory": "Mountain",
    "featured": false,
    "priority": 50
  },
  {
    "geonameId": 3059796,
    "name": "Ilava",
    "latitude": 48.99769,
    "longitude": 18.2353,
    "category": "City",
    "subcategory": "County Seat",
    "featured": false,
    "priority": 50
  },
  {
    "geonameId": 3059783,
    "name": "Inovec",
    "latitude": 48.77497,
    "longitude": 18.04221,
    "category": "Mountain",
    "subcategory": "Mountain",
    "featured": false,
    "priority": 50
  },
  {
    "geonameId": 3059782,
    "name": "Ipeľ",
    "latitude": 48.6,
    "longitude": 19.65,
    "category": "Mountain",
    "subcategory": "Mountain",
    "featured": false,
    "priority": 50
  },
  {
    "geonameId": 3059767,
    "name": "Ivanka pri Dunaji",
    "latitude": 48.18675,
    "longitude": 17.2554,
    "category": "City",
    "subcategory": "City",
    "featured": false,
    "priority": 50
  },
  {
    "geonameId": 724603,
    "name": "Ivanov Vrch",
    "latitude": 48.94743,
    "longitude": 21.50517,
    "category": "Mountain",
    "subcategory": "Mountain",
    "featured": false,
    "priority": 50
  },
  {
    "geonameId": 3059761,
    "name": "Ivolác",
    "latitude": 48.13333,
    "longitude": 18.45,
    "category": "Mountain",
    "subcategory": "Mountain",
    "featured": false,
    "priority": 50
  },
  {
    "geonameId": 3059753,
    "name": "Jablonová",
    "latitude": 48.41667,
    "longitude": 19,
    "category": "Mountain",
    "subcategory": "Mountain",
    "featured": false,
    "priority": 50
  },
  {
    "geonameId": 724598,
    "name": "Jahňací štít",
    "latitude": 49.21984,
    "longitude": 20.20828,
    "category": "Mountain",
    "subcategory": "Mountain",
    "featured": false,
    "priority": 50
  },
  {
    "geonameId": 724597,
    "name": "Jahodná",
    "latitude": 48.76572,
    "longitude": 21.12438,
    "category": "Mountain",
    "subcategory": "Mountain",
    "featured": false,
    "priority": 50
  },
  {
    "geonameId": 3059743,
    "name": "Jakubiná",
    "latitude": 49.19304,
    "longitude": 19.80105,
    "category": "Mountain",
    "subcategory": "Mountain",
    "featured": false,
    "priority": 50
  },
  {
    "geonameId": 3059742,
    "name": "Jakubová",
    "latitude": 48.75008,
    "longitude": 18.00608,
    "category": "Mountain",
    "subcategory": "Mountain",
    "featured": false,
    "priority": 50
  },
  {
    "geonameId": 3059740,
    "name": "Jakubovský Vrch",
    "latitude": 49.36164,
    "longitude": 18.68719,
    "category": "Mountain",
    "subcategory": "Mountain",
    "featured": false,
    "priority": 50
  },
  {
    "geonameId": 6693982,
    "name": "Jalovská kopa",
    "latitude": 49.18496,
    "longitude": 19.69904,
    "category": "Mountain",
    "subcategory": "Mountain",
    "featured": false,
    "priority": 50
  },
  {
    "geonameId": 3059729,
    "name": "Jančekova Skala",
    "latitude": 48.69317,
    "longitude": 18.65192,
    "category": "Mountain",
    "subcategory": "Mountain",
    "featured": false,
    "priority": 50
  },
  {
    "geonameId": 3059710,
    "name": "Jarabina",
    "latitude": 49.00954,
    "longitude": 19.1103,
    "category": "Mountain",
    "subcategory": "Mountain",
    "featured": false,
    "priority": 50
  },
  {
    "geonameId": 724579,
    "name": "Jarovnice",
    "latitude": 49.05801,
    "longitude": 21.05806,
    "category": "City",
    "subcategory": "City",
    "featured": false,
    "priority": 50
  },
  {
    "geonameId": 724638,
    "name": "Jarząbczy",
    "latitude": 49.19786,
    "longitude": 19.79522,
    "category": "Mountain",
    "subcategory": "Mountain",
    "featured": false,
    "priority": 50
  },
  {
    "geonameId": 3059699,
    "name": "Jasenina",
    "latitude": 48.54744,
    "longitude": 19.73557,
    "category": "Mountain",
    "subcategory": "Mountain",
    "featured": false,
    "priority": 50
  },
  {
    "geonameId": 3059698,
    "name": "Jasenný Vrch",
    "latitude": 48.67619,
    "longitude": 19.35027,
    "category": "Mountain",
    "subcategory": "Mountain",
    "featured": false,
    "priority": 50
  },
  {
    "geonameId": 12217299,
    "name": "Jasenov",
    "latitude": 49.28978,
    "longitude": 21.02048,
    "category": "Mountain",
    "subcategory": "Mountain",
    "featured": false,
    "priority": 50
  },
  {
    "geonameId": 12217314,
    "name": "Jaseňov",
    "latitude": 49.25254,
    "longitude": 21.04397,
    "category": "Mountain",
    "subcategory": "Mountain",
    "featured": false,
    "priority": 50
  },
  {
    "geonameId": 3059690,
    "name": "Jasený Vrch",
    "latitude": 48.38477,
    "longitude": 19.25049,
    "category": "Mountain",
    "subcategory": "Mountain",
    "featured": false,
    "priority": 50
  },
  {
    "geonameId": 6698125,
    "name": "Jastrabia veža",
    "latitude": 49.21292,
    "longitude": 20.20772,
    "category": "Mountain",
    "subcategory": "Mountain",
    "featured": false,
    "priority": 50
  },
  {
    "geonameId": 6690490,
    "name": "Jászfalui-víztározó",
    "latitude": 47.99452,
    "longitude": 18.41334,
    "category": "Lake",
    "subcategory": "Reservoir",
    "featured": false,
    "priority": 50
  },
  {
    "geonameId": 3059678,
    "name": "Javor",
    "latitude": 48.48589,
    "longitude": 19.4619,
    "category": "Mountain",
    "subcategory": "Mountain",
    "featured": false,
    "priority": 50
  },
  {
    "geonameId": 3059675,
    "name": "Javorie",
    "latitude": 48.80178,
    "longitude": 18.04813,
    "category": "Mountain",
    "subcategory": "Mountain",
    "featured": false,
    "priority": 50
  },
  {
    "geonameId": 724568,
    "name": "Javorina",
    "latitude": 49.19867,
    "longitude": 21.14649,
    "category": "Mountain",
    "subcategory": "Mountain",
    "featured": false,
    "priority": 50
  },
  {
    "geonameId": 724565,
    "name": "Javorinka",
    "latitude": 49.13255,
    "longitude": 20.75374,
    "category": "Mountain",
    "subcategory": "Mountain",
    "featured": false,
    "priority": 50
  },
  {
    "geonameId": 3059667,
    "name": "Javorková",
    "latitude": 49.28953,
    "longitude": 19.63634,
    "category": "Mountain",
    "subcategory": "Mountain",
    "featured": false,
    "priority": 50
  },
  {
    "geonameId": 3059666,
    "name": "Javorník",
    "latitude": 49.32223,
    "longitude": 18.37756,
    "category": "Mountain",
    "subcategory": "Mountain",
    "featured": false,
    "priority": 50
  },
  {
    "geonameId": 3059662,
    "name": "Javorov Vrch",
    "latitude": 49.34842,
    "longitude": 19.50295,
    "category": "Mountain",
    "subcategory": "Mountain",
    "featured": false,
    "priority": 50
  },
  {
    "geonameId": 7729879,
    "name": "Javorový štít",
    "latitude": 49.18737,
    "longitude": 20.16789,
    "category": "Mountain",
    "subcategory": "Mountain",
    "featured": false,
    "priority": 50
  },
  {
    "geonameId": 3059661,
    "name": "Javorské",
    "latitude": 49.45076,
    "longitude": 18.85386,
    "category": "Mountain",
    "subcategory": "Mountain",
    "featured": false,
    "priority": 50
  },
  {
    "geonameId": 3059671,
    "name": "Jaworzyna",
    "latitude": 49.4,
    "longitude": 19.05,
    "category": "Mountain",
    "subcategory": "Mountain",
    "featured": false,
    "priority": 50
  },
  {
    "geonameId": 724567,
    "name": "Jaworzynka",
    "latitude": 49.43333,
    "longitude": 21.26667,
    "category": "Mountain",
    "subcategory": "Mountain",
    "featured": false,
    "priority": 50
  },
  {
    "geonameId": 12166621,
    "name": "Jedlinka",
    "latitude": 48.80556,
    "longitude": 20.98188,
    "category": "Mountain",
    "subcategory": "Mountain",
    "featured": false,
    "priority": 50
  },
  {
    "geonameId": 12217273,
    "name": "Jedlovec",
    "latitude": 49.2885,
    "longitude": 21.31659,
    "category": "Mountain",
    "subcategory": "Mountain",
    "featured": false,
    "priority": 50
  },
  {
    "geonameId": 3059655,
    "name": "Jedlovina",
    "latitude": 49.18802,
    "longitude": 18.91811,
    "category": "Mountain",
    "subcategory": "Mountain",
    "featured": false,
    "priority": 50
  },
  {
    "geonameId": 8617952,
    "name": "Jelenia hora",
    "latitude": 48.49741,
    "longitude": 17.30363,
    "category": "Mountain",
    "subcategory": "Mountain",
    "featured": false,
    "priority": 50
  },
  {
    "geonameId": 3059648,
    "name": "Jelenská Skala",
    "latitude": 48.8289,
    "longitude": 19.15842,
    "category": "Mountain",
    "subcategory": "Mountain",
    "featured": false,
    "priority": 50
  },
  {
    "geonameId": 724562,
    "name": "Jeleny Vrch",
    "latitude": 48.67923,
    "longitude": 20.83677,
    "category": "Mountain",
    "subcategory": "Mountain",
    "featured": false,
    "priority": 50
  },
  {
    "geonameId": 7732436,
    "name": "Jeseník",
    "latitude": 49.00634,
    "longitude": 22.47181,
    "category": "Mountain",
    "subcategory": "Peak",
    "featured": false,
    "priority": 50
  },
  {
    "geonameId": 3059633,
    "name": "Ježová",
    "latitude": 49.1695,
    "longitude": 19.83479,
    "category": "Mountain",
    "subcategory": "Mountain",
    "featured": false,
    "priority": 50
  },
  {
    "geonameId": 8740909,
    "name": "k.891 [Horná Mariková]",
    "latitude": 49.24969,
    "longitude": 18.26358,
    "category": "Mountain",
    "subcategory": "Mountain",
    "featured": false,
    "priority": 50
  },
  {
    "geonameId": 9958547,
    "name": "Kačací štít",
    "latitude": 49.16591,
    "longitude": 20.11833,
    "category": "Mountain",
    "subcategory": "Mountain",
    "featured": false,
    "priority": 50
  },
  {
    "geonameId": 9958148,
    "name": "Kačacia veža",
    "latitude": 49.17839,
    "longitude": 20.10507,
    "category": "Mountain",
    "subcategory": "Mountain",
    "featured": false,
    "priority": 50
  },
  {
    "geonameId": 12166296,
    "name": "Kalejová",
    "latitude": 48.8674,
    "longitude": 21.36226,
    "category": "Mountain",
    "subcategory": "Mountain",
    "featured": false,
    "priority": 50
  },
  {
    "geonameId": 3059603,
    "name": "Kalinov Vrch",
    "latitude": 49.41674,
    "longitude": 18.8961,
    "category": "Mountain",
    "subcategory": "Mountain",
    "featured": false,
    "priority": 50
  },
  {
    "geonameId": 7732428,
    "name": "Kalnica",
    "latitude": 49.07922,
    "longitude": 22.55493,
    "category": "Mountain",
    "subcategory": "Peak",
    "featured": false,
    "priority": 50
  },
  {
    "geonameId": 3059596,
    "name": "Kalužná",
    "latitude": 49.09591,
    "longitude": 18.84524,
    "category": "Mountain",
    "subcategory": "Mountain",
    "featured": false,
    "priority": 50
  },
  {
    "geonameId": 3059590,
    "name": "Kameň",
    "latitude": 48.43639,
    "longitude": 19.89343,
    "category": "Mountain",
    "subcategory": "Mountain",
    "featured": false,
    "priority": 50
  },
  {
    "geonameId": 12166588,
    "name": "Kamenčie",
    "latitude": 48.96043,
    "longitude": 20.90545,
    "category": "Mountain",
    "subcategory": "Mountain",
    "featured": false,
    "priority": 50
  },
  {
    "geonameId": 12217283,
    "name": "Kamenica",
    "latitude": 49.35501,
    "longitude": 21.213,
    "category": "Mountain",
    "subcategory": "Mountain",
    "featured": false,
    "priority": 50
  },
  {
    "geonameId": 12212899,
    "name": "Kamenná",
    "latitude": 48.90089,
    "longitude": 21.39081,
    "category": "Mountain",
    "subcategory": "Mountain",
    "featured": false,
    "priority": 50
  },
  {
    "geonameId": 12217281,
    "name": "Kamenná hora",
    "latitude": 49.33975,
    "longitude": 21.24553,
    "category": "Mountain",
    "subcategory": "Mountain",
    "featured": false,
    "priority": 50
  },
  {
    "geonameId": 3059577,
    "name": "Kamenná Vráta",
    "latitude": 48.84293,
    "longitude": 18.33752,
    "category": "Mountain",
    "subcategory": "Mountain",
    "featured": false,
    "priority": 50
  },
  {
    "geonameId": 12166644,
    "name": "Kamenný hrb",
    "latitude": 48.75129,
    "longitude": 21.17232,
    "category": "Mountain",
    "subcategory": "Mountain",
    "featured": false,
    "priority": 50
  },
  {
    "geonameId": 12166663,
    "name": "Kamenný hŕbok",
    "latitude": 48.85142,
    "longitude": 21.03763,
    "category": "Mountain",
    "subcategory": "Mountain",
    "featured": false,
    "priority": 50
  },
  {
    "geonameId": 12212821,
    "name": "Kamenný laz",
    "latitude": 48.94308,
    "longitude": 21.03281,
    "category": "Mountain",
    "subcategory": "Mountain",
    "featured": false,
    "priority": 50
  },
  {
    "geonameId": 3056922,
    "name": "Kamienista",
    "latitude": 49.19548,
    "longitude": 19.87006,
    "category": "Mountain",
    "subcategory": "Mountain",
    "featured": false,
    "priority": 50
  },
  {
    "geonameId": 3059574,
    "name": "Kamzikov Vrch",
    "latitude": 48.18192,
    "longitude": 17.09294,
    "category": "Mountain",
    "subcategory": "Mountain",
    "featured": false,
    "priority": 50
  },
  {
    "geonameId": 12495496,
    "name": "Kanný hrb",
    "latitude": 49.02168,
    "longitude": 20.89628,
    "category": "Mountain",
    "subcategory": "Mountain",
    "featured": false,
    "priority": 50
  },
  {
    "geonameId": 724528,
    "name": "Kapoveň",
    "latitude": 48.68819,
    "longitude": 21.55273,
    "category": "Mountain",
    "subcategory": "Mountain",
    "featured": false,
    "priority": 50
  },
  {
    "geonameId": 3059564,
    "name": "Karlova Ves",
    "latitude": 48.15344,
    "longitude": 17.05522,
    "category": "City",
    "subcategory": "City",
    "featured": false,
    "priority": 50
  },
  {
    "geonameId": 724519,
    "name": "Kasteli",
    "latitude": 49.38333,
    "longitude": 21.41667,
    "category": "Mountain",
    "subcategory": "Mountain",
    "featured": false,
    "priority": 50
  },
  {
    "geonameId": 3059556,
    "name": "Kastor",
    "latitude": 48.69956,
    "longitude": 19.91422,
    "category": "Mountain",
    "subcategory": "Mountain",
    "featured": false,
    "priority": 50
  },
  {
    "geonameId": 6690449,
    "name": "Kavicsos",
    "latitude": 47.809,
    "longitude": 18.10684,
    "category": "Lake",
    "subcategory": "Lake",
    "featured": false,
    "priority": 50
  },
  {
    "geonameId": 3059547,
    "name": "Kečka",
    "latitude": 49.25,
    "longitude": 19.18333,
    "category": "Mountain",
    "subcategory": "Mountain",
    "featured": false,
    "priority": 50
  },
  {
    "geonameId": 724503,
    "name": "Kežmarok",
    "latitude": 49.13571,
    "longitude": 20.43352,
    "category": "City",
    "subcategory": "County Seat",
    "featured": false,
    "priority": 50
  },
  {
    "geonameId": 6696719,
    "name": "Kežmarský štít",
    "latitude": 49.19932,
    "longitude": 20.22029,
    "category": "Mountain",
    "subcategory": "Mountain",
    "featured": false,
    "priority": 50
  },
  {
    "geonameId": 12217278,
    "name": "Kiar",
    "latitude": 49.28497,
    "longitude": 21.23823,
    "category": "Mountain",
    "subcategory": "Mountain",
    "featured": false,
    "priority": 50
  },
  {
    "geonameId": 3059190,
    "name": "Kikula",
    "latitude": 49.46667,
    "longitude": 18.96667,
    "category": "Mountain",
    "subcategory": "Mountain",
    "featured": false,
    "priority": 50
  },