[
  {
    "geonameId": 66059,
    "name": "Aantaara",
    "latitude": 11.4184,
    "longitude": 49.6069,
    "category": "Mountain",
    "subcategory": "Mountain",
    "featured": false,
    "priority": 50
  },
  {
    "geonameId": 66036,
    "name": "Abaar Moog",
    "latitude": 11.0737,
    "longitude": 50.6074,
    "category": "Mountain",
    "subcategory": "Mountain",
    "featured": false,
    "priority": 50
  },
  {
    "geonameId": 65995,
    "name": "Abdaal",
    "latitude": 9.95972,
    "longitude": 44.61944,
    "category": "Mountain",
    "subcategory": "Mountain",
    "featured": false,
    "priority": 50
  },
  {
    "geonameId": 8346666,
    "name": "Abdi-Arale",
    "latitude": 10.50671,
    "longitude": 42.79654,
    "category": "Mountain",
    "subcategory": "Mountain",
    "featured": false,
    "priority": 50
  },
  {
    "geonameId": 65916,
    "name": "Adaahi",
    "latitude": 9.86833,
    "longitude": 46.75833,
    "category": "Mountain",
    "subcategory": "Mountain",
    "featured": false,
    "priority": 50
  },
  {
    "geonameId": 65903,
    "name": "Adad",
    "latitude": 10.1779,
    "longitude": 44.67036,
    "category": "Mountain",
    "subcategory": "Mountain",
    "featured": false,
    "priority": 50
  },
  {
    "geonameId": 63361,
    "name": "Adado",
    "latitude": 6.13603,
    "longitude": 46.62761,
    "category": "City",
    "subcategory": "County Seat",
    "featured": false,
    "priority": 50
  },
  {
    "geonameId": 13494281,
    "name": "Adalle Marine Protected Area",
    "latitude": 2.52725,
    "longitude": 46.19057,
    "category": "Park",
    "subcategory": "Nature Reserve",
    "featured": false,
    "priority": 50
  },
  {
    "geonameId": 65870,
    "name": "Addilo",
    "latitude": 1.79479,
    "longitude": 44.90335,
    "category": "Island",
    "subcategory": "Island",
    "featured": false,
    "priority": 50
  },
  {
    "geonameId": 65860,
    "name": "Adeego",
    "latitude": 10.6436,
    "longitude": 50.3674,
    "category": "Mountain",
    "subcategory": "Mountain",
    "featured": false,
    "priority": 50
  },
  {
    "geonameId": 65785,
    "name": "Afgooye",
    "latitude": 2.1381,
    "longitude": 45.1212,
    "category": "City",
    "subcategory": "County Seat",
    "featured": false,
    "priority": 50
  },
  {
    "geonameId": 8346681,
    "name": "Afiueyni",
    "latitude": 10.63037,
    "longitude": 42.81066,
    "category": "Mountain",
    "subcategory": "Mountain",
    "featured": false,
    "priority": 50
  },
  {
    "geonameId": 65746,
    "name": "Aftoox",
    "latitude": 10.15921,
    "longitude": 43.02874,
    "category": "Mountain",
    "subcategory": "Mountain",
    "featured": false,
    "priority": 50
  },
  {
    "geonameId": 65722,
    "name": "Agabar",
    "latitude": 9.92618,
    "longitude": 43.91673,
    "category": "City",
    "subcategory": "City",
    "featured": false,
    "priority": 50
  },
  {
    "geonameId": 65679,
    "name": "Aidid Aialih",
    "latitude": 10.33333,
    "longitude": 45.43333,
    "category": "Mountain",
    "subcategory": "Mountain",
    "featured": false,
    "priority": 50
  },
  {
    "geonameId": 65662,
    "name": "Akloo",
    "latitude": 10.59826,
    "longitude": 45.35276,
    "category": "Mountain",
    "subcategory": "Mountain",
    "featured": false,
    "priority": 50
  },
  {
    "geonameId": 65647,
    "name": "Alan Debe",
    "latitude": 8.75,
    "longitude": 45.9,
    "category": "Mountain",
    "subcategory": "Mountain",
    "featured": false,
    "priority": 50
  },
  {
    "geonameId": 65610,
    "name": "Alla Kajeed",
    "latitude": 10.48126,
    "longitude": 45.40695,
    "category": "Mountain",
    "subcategory": "Mountain",
    "featured": false,
    "priority": 50
  },
  {
    "geonameId": 65600,
    "name": "Alma",
    "latitude": 11.5682,
    "longitude": 50.2591,
    "category": "Mountain",
    "subcategory": "Mountain",
    "featured": false,
    "priority": 50
  },
  {
    "geonameId": 65594,
    "name": "Aloolweyn",
    "latitude": 10.2596,
    "longitude": 46.9614,
    "category": "Mountain",
    "subcategory": "Mountain",
    "featured": false,
    "priority": 50
  },
  {
    "geonameId": 65589,
    "name": "Alyera Hadai Hills",
    "latitude": 10.13333,
    "longitude": 45.56667,
    "category": "Mountain",
    "subcategory": "Mountain",
    "featured": false,
    "priority": 50
  },
  {
    "geonameId": 65580,
    "name": "Ambuu",
    "latitude": -0.8173,
    "longitude": 42.2106,
    "category": "Island",
    "subcategory": "Island",
    "featured": false,
    "priority": 50
  },
  {
    "geonameId": 65570,
    "name": "Amut Pass",
    "latitude": 10.05,
    "longitude": 44.23333,
    "category": "Mountain",
    "subcategory": "Mountain Pass",
    "featured": false,
    "priority": 50
  },
  {
    "geonameId": 65568,
    "name": "Anane",
    "latitude": 9.31667,
    "longitude": 48.48333,
    "category": "Mountain",
    "subcategory": "Mountain Pass",
    "featured": false,
    "priority": 50
  },
  {
    "geonameId": 65566,
    "name": "Anansu",
    "latitude": 9.98333,
    "longitude": 47.1,
    "category": "Mountain",
    "subcategory": "Mountain",
    "featured": false,
    "priority": 50
  },
  {
    "geonameId": 65524,
    "name": "Aor Haris",
    "latitude": 11.13333,
    "longitude": 49.58333,
    "category": "Mountain",
    "subcategory": "Mountain",
    "featured": false,
    "priority": 50
  },
  {
    "geonameId": 8346218,
    "name": "Aradera",
    "latitude": 10.15101,
    "longitude": 42.9719,
    "category": "Mountain",
    "subcategory": "Mountain",
    "featured": false,
    "priority": 50
  },
  {
    "geonameId": 65466,
    "name": "Ardable",
    "latitude": 10.35,
    "longitude": 46.71667,
    "category": "Mountain",
    "subcategory": "Mountain",
    "featured": false,
    "priority": 50
  },
  {
    "geonameId": 65445,
    "name": "Argesa Pass",
    "latitude": 10.21667,
    "longitude": 46.05,
    "category": "Mountain",
    "subcategory": "Mountain Pass",
    "featured": false,
    "priority": 50
  },
  {
    "geonameId": 65400,
    "name": "Aroweina",
    "latitude": 10.0578,
    "longitude": 44.6842,
    "category": "Mountain",
    "subcategory": "Mountain",
    "featured": false,
    "priority": 50
  },
  {
    "geonameId": 65316,
    "name": "Aw Dari",
    "latitude": 11.4435,
    "longitude": 49.7653,
    "category": "Mountain",
    "subcategory": "Mountain",
    "featured": false,
    "priority": 50
  },
  {
    "geonameId": 65134,
    "name": "Baayo Hantuli",
    "latitude": 10.3781,
    "longitude": 47.1349,
    "category": "Mountain",
    "subcategory": "Mountain",
    "featured": false,
    "priority": 50
  },
  {
    "geonameId": 65127,
    "name": "Bab Caleed",
    "latitude": 11.0675,
    "longitude": 48.4259,
    "category": "Mountain",
    "subcategory": "Mountain",
    "featured": false,
    "priority": 50
  },
  {
    "geonameId": 65060,
    "name": "Badhaax",
    "latitude": 11.0079,
    "longitude": 47.6936,
    "category": "Mountain",
    "subcategory": "Mountain",
    "featured": false,
    "priority": 50
  },
  {
    "geonameId": 65056,
    "name": "Badhanle",
    "latitude": 10.4033,
    "longitude": 47.007,
    "category": "Mountain",
    "subcategory": "Mountain",
    "featured": false,
    "priority": 50
  },
  {
    "geonameId": 65034,
    "name": "Bago Uged",
    "latitude": 10.85,
    "longitude": 49.85,
    "category": "Mountain",
    "subcategory": "Mountain",
    "featured": false,
    "priority": 50
  },
  {
    "geonameId": 64536,
    "name": "Baidoa",
    "latitude": 3.11383,
    "longitude": 43.6498,
    "category": "City",
    "subcategory": "Regional Capital",
    "featured": false,
    "priority": 50
  },
  {
    "geonameId": 64990,
    "name": "Bakellan",
    "latitude": 10.046,
    "longitude": 46.7408,
    "category": "Mountain",
    "subcategory": "Mountain Pass",
    "featured": false,
    "priority": 50
  },
  {
    "geonameId": 8045596,
    "name": "Baki",
    "latitude": 9.89206,
    "longitude": 43.38531,
    "category": "City",
    "subcategory": "City",
    "featured": false,
    "priority": 50
  },
  {
    "geonameId": 64976,
    "name": "Balaadh",
    "latitude": 10.01848,
    "longitude": 45.02205,
    "category": "Mountain",
    "subcategory": "Mountain",
    "featured": false,
    "priority": 50
  },
  {
    "geonameId": 342803,
    "name": "Balanbale",
    "latitude": 5.76897,
    "longitude": 45.76297,
    "category": "City",
    "subcategory": "City",
    "featured": false,
    "priority": 50
  },
  {
    "geonameId": 64932,
    "name": "Baledid",
    "latitude": 9.58333,
    "longitude": 43.66667,
    "category": "Mountain",
    "subcategory": "Mountain",
    "featured": false,
    "priority": 50
  },
  {
    "geonameId": 9259238,
    "name": "Baligubadle",
    "latitude": 9,
    "longitude": 44.00028,
    "category": "City",
    "subcategory": "County Seat",
    "featured": false,
    "priority": 50
  },
  {
    "geonameId": 64913,
    "name": "Ballaadhis Pass",
    "latitude": 9.13333,
    "longitude": 46.26667,
    "category": "Mountain",
    "subcategory": "Mountain Pass",
    "featured": false,
    "priority": 50
  },
  {
    "geonameId": 64920,
    "name": "Ballad As",
    "latitude": 10.56667,
    "longitude": 47.16667,
    "category": "Mountain",
    "subcategory": "Mountain",
    "featured": false,
    "priority": 50
  },
  {
    "geonameId": 64814,
    "name": "Bandarbeyla",
    "latitude": 9.4942,
    "longitude": 50.8122,
    "category": "City",
    "subcategory": "City",
    "featured": false,
    "priority": 50
  },
  {
    "geonameId": 64808,
    "name": "Bandarka",
    "latitude": 2.2937,
    "longitude": 45.7955,
    "category": "Island",
    "subcategory": "Island",
    "featured": false,
    "priority": 50
  },
  {
    "geonameId": 64763,
    "name": "Bantaabsi",
    "latitude": 1.8919,
    "longitude": 45.0639,
    "category": "Island",
    "subcategory": "Island",
    "featured": false,
    "priority": 50
  },
  {
    "geonameId": 64742,
    "name": "Baqayaale",
    "latitude": 10.15558,
    "longitude": 44.50391,
    "category": "Mountain",
    "subcategory": "Mountain",
    "featured": false,
    "priority": 50
  },
  {
    "geonameId": 64741,
    "name": "Baqayaley",
    "latitude": 10.14373,
    "longitude": 44.48648,
    "category": "Mountain",
    "subcategory": "Mountain",
    "featured": false,
    "priority": 50
  },
  {
    "geonameId": 64670,
    "name": "Bargaal",
    "latitude": 11.28636,
    "longitude": 51.0773,
    "category": "City",
    "subcategory": "City",
    "featured": false,
    "priority": 50
  },
  {
    "geonameId": 64618,
    "name": "Barqasan",
    "latitude": 9.96419,
    "longitude": 44.74045,
    "category": "Mountain",
    "subcategory": "Mountain",
    "featured": false,
    "priority": 50
  },
  {
    "geonameId": 64596,
    "name": "Baru",
    "latitude": 10.02626,
    "longitude": 44.01248,
    "category": "Mountain",
    "subcategory": "Mountain",
    "featured": false,
    "priority": 50
  },
  {
    "geonameId": 64551,
    "name": "Bawaadi",
    "latitude": -0.91765,
    "longitude": 42.09831,
    "category": "Island",
    "subcategory": "Island",
    "featured": false,
    "priority": 50
  },
  {
    "geonameId": 64544,
    "name": "Baxaya",
    "latitude": 11.2679,
    "longitude": 49.8073,
    "category": "Mountain",
    "subcategory": "Mountain",
    "featured": false,
    "priority": 50
  },
  {
    "geonameId": 64486,
    "name": "Beeyada Qadhaad",
    "latitude": 10.34284,
    "longitude": 43.16708,
    "category": "Mountain",
    "subcategory": "Mountain",
    "featured": false,
    "priority": 50
  },
  {
    "geonameId": 12212406,
    "name": "Beled Hawo",
    "latitude": 3.9284,
    "longitude": 41.87997,
    "category": "City",
    "subcategory": "County Seat",
    "featured": false,
    "priority": 50
  },
  {
    "geonameId": 64460,
    "name": "Beledweyne",
    "latitude": 4.73583,
    "longitude": 45.20361,
    "category": "City",
    "subcategory": "Regional Capital",
    "featured": false,
    "priority": 50
  },
  {
    "geonameId": 64441,
    "name": "Bengadiine",
    "latitude": -0.92165,
    "longitude": 42.11731,
    "category": "Island",
    "subcategory": "Island",
    "featured": false,
    "priority": 50
  },
  {
    "geonameId": 64435,
    "name": "Berbera",
    "latitude": 10.43959,
    "longitude": 45.01432,
    "category": "City",
    "subcategory": "City",
    "featured": false,
    "priority": 50
  },
  {
    "geonameId": 64412,
    "name": "Bereeda",
    "latitude": 11.87037,
    "longitude": 51.05795,
    "category": "City",
    "subcategory": "City",
    "featured": false,
    "priority": 50
  },
  {
    "geonameId": 64402,
    "name": "Beyla Subko",
    "latitude": 10.4946,
    "longitude": 46.0988,
    "category": "Mountain",
    "subcategory": "Mountain",
    "featured": false,
    "priority": 50
  },
  {
    "geonameId": 64381,
    "name": "Bihan Gaha Pass",
    "latitude": 10.45,
    "longitude": 45.6,
    "category": "Mountain",
    "subcategory": "Mountain Pass",
    "featured": false,
    "priority": 50
  },
  {
    "geonameId": 64373,
    "name": "Biijaale",
    "latitude": 10.04046,
    "longitude": 43.21611,
    "category": "Mountain",
    "subcategory": "Mountain",
    "featured": false,
    "priority": 50
  },
  {
    "geonameId": 64359,
    "name": "Bilbil Ciid",
    "latitude": 10.66266,
    "longitude": 49.67108,
    "category": "Mountain",
    "subcategory": "Mountain",
    "featured": false,
    "priority": 50
  },
  {
    "geonameId": 64329,
    "name": "Bildhaaley",
    "latitude": 10.1451,
    "longitude": 44.1706,
    "category": "Mountain",
    "subcategory": "Mountain",
    "featured": false,
    "priority": 50
  },
  {
    "geonameId": 64324,
    "name": "Bilhanley",
    "latitude": 10.13262,
    "longitude": 44.17251,
    "category": "Mountain",
    "subcategory": "Mountain",
    "featured": false,
    "priority": 50
  },
  {
    "geonameId": 64308,
    "name": "Biliq Deddon",
    "latitude": 1.11667,
    "longitude": 43.58333,
    "category": "Lake",
    "subcategory": "Lake",
    "featured": false,
    "priority": 50
  },
  {
    "geonameId": 64261,
    "name": "Birbiris",
    "latitude": 1.66476,
    "longitude": 42.41118,
    "category": "Lake",
    "subcategory": "Lake",
    "featured": false,
    "priority": 50
  },
  {
    "geonameId": 64253,
    "name": "Birukhode",
    "latitude": 10.23333,
    "longitude": 47.21667,
    "category": "Mountain",
    "subcategory": "Mountain",
    "featured": false,
    "priority": 50
  },
  {
    "geonameId": 64247,
    "name": "Bishikaani",
    "latitude": -0.43726,
    "longitude": 42.50919,
    "category": "Island",
    "subcategory": "Island",
    "featured": false,
    "priority": 50
  },
  {
    "geonameId": 64246,
    "name": "Bisiida",
    "latitude": 11.6373,
    "longitude": 50.3741,
    "category": "Mountain",
    "subcategory": "Mountain",
    "featured": false,
    "priority": 50
  },
  {
    "geonameId": 63265,
    "name": "Biyo Caddo",
    "latitude": 11.92731,
    "longitude": 50.84393,
    "category": "Lake",
    "subcategory": "Lake",
    "featured": false,
    "priority": 50
  },
  {
    "geonameId": 64183,
    "name": "Biyoguure",
    "latitude": 10.40759,
    "longitude": 45.21773,
    "category": "Mountain",
    "subcategory": "Mountain",
    "featured": false,
    "priority": 50
  },
  {
    "geonameId": 64152,
    "name": "Boalé",
    "latitude": 11.18333,
    "longitude": 43.1,
    "category": "Mountain",
    "subcategory": "Mountain",
    "featured": false,
    "priority": 50
  },
  {
    "geonameId": 64118,
    "name": "Bohol",
    "latitude": 10.7869,
    "longitude": 47.4119,
    "category": "Mountain",
    "subcategory": "Mountain Pass",
    "featured": false,
    "priority": 50
  },
  {
    "geonameId": 64072,
    "name": "Bolo-Bolo",
    "latitude": 1.8091,
    "longitude": 44.9311,
    "category": "Island",
    "subcategory": "Island",
    "featured": false,
    "priority": 50
  },
  {
    "geonameId": 64036,
    "name": "Boojo",
    "latitude": 0.93839,
    "longitude": 43.23941,
    "category": "Lake",
    "subcategory": "Lake",
    "featured": false,
    "priority": 50
  },
  {
    "geonameId": 64007,
    "name": "Bootinle",
    "latitude": 10.41283,
    "longitude": 42.88374,
    "category": "Mountain",
    "subcategory": "Mountain",
    "featured": false,
    "priority": 50
  },
  {
    "geonameId": 63991,
    "name": "Boqonrigo",
    "latitude": 10.04204,
    "longitude": 44.22346,
    "category": "Mountain",
    "subcategory": "Mountain Pass",
    "featured": false,
    "priority": 50
  },
  {
    "geonameId": 64021,
    "name": "Borama",
    "latitude": 9.93611,
    "longitude": 43.18278,
    "category": "City",
    "subcategory": "City",
    "featured": false,
    "priority": 50
  },
  {
    "geonameId": 50410,
    "name": "Borka Weina",
    "latitude": 10.03333,
    "longitude": 46.35,
    "category": "Mountain",
    "subcategory": "Mountain",
    "featured": false,
    "priority": 50
  },
  {
    "geonameId": 64013,
    "name": "Bosaso",
    "latitude": 11.28421,
    "longitude": 49.18158,
    "category": "City",
    "subcategory": "Regional Capital",
    "featured": false,
    "priority": 50
  },
  {
    "geonameId": 63949,
    "name": "Bu’aale",
    "latitude": 1.08333,
    "longitude": 42.58333,
    "category": "City",
    "subcategory": "Regional Capital",
    "featured": false,
    "priority": 50
  },
  {
    "geonameId": 63707,
    "name": "Buhodle",
    "latitude": 8.23056,
    "longitude": 46.32667,
    "category": "City",
    "subcategory": "City",
    "featured": false,
    "priority": 50
  },
  {
    "geonameId": 8346806,
    "name": "Bukh-Nortakh",
    "latitude": 10.79374,
    "longitude": 42.86893,
    "category": "Mountain",
    "subcategory": "Mountain",
    "featured": false,
    "priority": 50
  },
  {
    "geonameId": 65963,
    "name": "Bur Ablhais",
    "latitude": 11.06667,
    "longitude": 49.66667,
    "category": "Mountain",
    "subcategory": "Mountain",
    "featured": false,
    "priority": 50
  },
  {
    "geonameId": 65921,
    "name": "Bur Ad",
    "latitude": 9.73333,
    "longitude": 46.91667,
    "category": "Mountain",
    "subcategory": "Mountain",
    "featured": false,
    "priority": 50
  },
  {
    "geonameId": 62515,
    "name": "Bur Ahlat Couri",
    "latitude": 9.68,
    "longitude": 50.28,
    "category": "Mountain",
    "subcategory": "Mountain",
    "featured": false,
    "priority": 50
  },
  {
    "geonameId": 65657,
    "name": "Bur Alad",
    "latitude": 11.28333,
    "longitude": 50.23333,
    "category": "Mountain",
    "subcategory": "Mountain",
    "featured": false,
    "priority": 50
  },
  {
    "geonameId": 65562,
    "name": "Bur Ancochib",
    "latitude": 9.78333,
    "longitude": 49.21667,
    "category": "Mountain",
    "subcategory": "Mountain",
    "featured": false,
    "priority": 50
  },
  {
    "geonameId": 65501,
    "name": "Bur Arale",
    "latitude": 2.43333,
    "longitude": 43.01667,
    "category": "Mountain",
    "subcategory": "Mountain",
    "featured": false,
    "priority": 50
  },
  {
    "geonameId": 65088,
    "name": "Bur Bacheli",
    "latitude": 4.11667,
    "longitude": 43.91667,
    "category": "Mountain",
    "subcategory": "Mountain",
    "featured": false,
    "priority": 50
  },
  {
    "geonameId": 63447,
    "name": "Bur Cabai",
    "latitude": 3.83333,
    "longitude": 43.73333,
    "category": "Mountain",
    "subcategory": "Mountain",
    "featured": false,
    "priority": 50
  },
  {
    "geonameId": 63167,
    "name": "Bur Calangiap",
    "latitude": 11.11667,
    "longitude": 50.33333,
    "category": "Mountain",
    "subcategory": "Mountain",
    "featured": false,
    "priority": 50
  },
  {
    "geonameId": 62574,
    "name": "Bur Cobolli",
    "latitude": 7.64583,
    "longitude": 48.8275,
    "category": "Mountain",
    "subcategory": "Mountain",
    "featured": false,
    "priority": 50
  },
  {
    "geonameId": 62505,
    "name": "Bur Cudalle",
    "latitude": 3.35,
    "longitude": 41.86667,
    "category": "Mountain",
    "subcategory": "Mountain",
    "featured": false,
    "priority": 50
  },
  {
    "geonameId": 62452,
    "name": "Bur Curis",
    "latitude": 2.96667,
    "longitude": 42.08333,
    "category": "Mountain",
    "subcategory": "Mountain",
    "featured": false,
    "priority": 50
  },
  {
    "geonameId": 62152,
    "name": "Bur Daddabo",
    "latitude": 10.96667,
    "longitude": 49.16667,
    "category": "Mountain",
    "subcategory": "Mountain",
    "featured": false,
    "priority": 50
  },
  {
    "geonameId": 62029,
    "name": "Bur Dalanle",
    "latitude": 9.93333,
    "longitude": 49.95,
    "category": "Mountain",
    "subcategory": "Mountain",
    "featured": false,
    "priority": 50
  },
  {
    "geonameId": 61728,
    "name": "Bur Dathal",
    "latitude": 9.95,
    "longitude": 49.28333,
    "category": "Mountain",
    "subcategory": "Mountain",
    "featured": false,
    "priority": 50
  },
  {
    "geonameId": 61598,
    "name": "Bur Deghebed",
    "latitude": 9.86667,
    "longitude": 49.76667,
    "category": "Mountain",
    "subcategory": "Mountain",
    "featured": false,
    "priority": 50
  },
  {
    "geonameId": 60372,
    "name": "Bur Durcumerzan",
    "latitude": 9,
    "longitude": 49.78333,
    "category": "Mountain",
    "subcategory": "Mountain",
    "featured": false,
    "priority": 50
  },
  {
    "geonameId": 60223,
    "name": "Bur Ei Dur",
    "latitude": 3.83333,
    "longitude": 43.71667,
    "category": "Mountain",
    "subcategory": "Mountain",
    "featured": false,
    "priority": 50
  },
  {
    "geonameId": 59921,
    "name": "Bur Fan",
    "latitude": 11.81667,
    "longitude": 51.1,
    "category": "Mountain",
    "subcategory": "Mountain",
    "featured": false,
    "priority": 50
  },
  {
    "geonameId": 59711,
    "name": "Bur Finjo",
    "latitude": 11.7,
    "longitude": 50.98333,
    "category": "Mountain",
    "subcategory": "Mountain",
    "featured": false,
    "priority": 50
  },
  {
    "geonameId": 59573,
    "name": "Bur Gab",
    "latitude": 3.73333,
    "longitude": 43.36667,
    "category": "Mountain",
    "subcategory": "Mountain",
    "featured": false,
    "priority": 50
  },
  {
    "geonameId": 59471,
    "name": "Bur Gaerre",
    "latitude": 4.8,
    "longitude": 43.95,
    "category": "Mountain",
    "subcategory": "Mountain",
    "featured": false,
    "priority": 50
  },
  {
    "geonameId": 59449,
    "name": "Bur Gaider Mogh",
    "latitude": 9.78333,
    "longitude": 49.26667,
    "category": "Mountain",
    "subcategory": "Mountain",
    "featured": false,
    "priority": 50
  },
  {
    "geonameId": 58620,
    "name": "Bur Ghedef",
    "latitude": 8.36667,
    "longitude": 49.86667,
    "category": "Mountain",
    "subcategory": "Mountain",
    "featured": false,
    "priority": 50
  },
  {
    "geonameId": 58596,
    "name": "Bur Gheli San Ti",
    "latitude": 9.83333,
    "longitude": 50.4,
    "category": "Mountain",
    "subcategory": "Mountain",
    "featured": false,
    "priority": 50
  },
  {
    "geonameId": 58588,
    "name": "Bur Gheri Fud",
    "latitude": 9.91667,
    "longitude": 49.16667,
    "category": "Mountain",
    "subcategory": "Mountain",
    "featured": false,
    "priority": 50
  },
  {
    "geonameId": 58093,
    "name": "Bur Gosc Ara Uen",
    "latitude": 8.95,
    "longitude": 49.73333,
    "category": "Mountain",
    "subcategory": "Mountain",
    "featured": false,
    "priority": 50
  },
  {
    "geonameId": 57926,
    "name": "Bur Gudud",
    "latitude": 8,
    "longitude": 49.83333,
    "category": "Mountain",
    "subcategory": "Mountain",
    "featured": false,
    "priority": 50
  },
  {
    "geonameId": 57427,
    "name": "Bur Hamrada",
    "latitude": 10.75,
    "longitude": 45.66667,
    "category": "Mountain",
    "subcategory": "Mountain",
    "featured": false,
    "priority": 50
  },
  {
    "geonameId": 56976,
    "name": "Bur Hogor Dobli",
    "latitude": 2.35,
    "longitude": 41.03333,
    "category": "Mountain",
    "subcategory": "Mountain",
    "featured": false,
    "priority": 50
  },
  {
    "geonameId": 56480,
    "name": "Bur Iug",
    "latitude": 7.16667,
    "longitude": 48.08333,
    "category": "Mountain",
    "subcategory": "Mountain",
    "featured": false,
    "priority": 50
  },
  {
    "geonameId": 55073,
    "name": "Bur Lafwein",
    "latitude": 10.75,
    "longitude": 48.28333,
    "category": "Mountain",
    "subcategory": "Mountain",
    "featured": false,
    "priority": 50
  },
  {
    "geonameId": 55026,
    "name": "Bur Lamalloin",
    "latitude": 11.86667,
    "longitude": 51.13333,
    "category": "Mountain",
    "subcategory": "Mountain",
    "featured": false,
    "priority": 50
  },
  {
    "geonameId": 53489,
    "name": "Bur Nohle",
    "latitude": 4.85,
    "longitude": 43.61667,
    "category": "Mountain",
    "subcategory": "Mountain",
    "featured": false,
    "priority": 50
  },
  {
    "geonameId": 53415,
    "name": "Bur Ohojale",
    "latitude": 11.13333,
    "longitude": 49.51667,
    "category": "Mountain",
    "subcategory": "Mountain",
    "featured": false,
    "priority": 50
  },
  {
    "geonameId": 52494,
    "name": "Bur Riafonleh",
    "latitude": 10.38333,
    "longitude": 48.13333,
    "category": "Mountain",
    "subcategory": "Mountain",
    "featured": false,
    "priority": 50
  },
  {
    "geonameId": 51246,
    "name": "Bur Tinle",
    "latitude": 7.8,
    "longitude": 48,
    "category": "Mountain",
    "subcategory": "Mountain",
    "featured": false,
    "priority": 50
  },
  {
    "geonameId": 51055,
    "name": "Bur Uarabale",
    "latitude": 2.73333,
    "longitude": 41.8,
    "category": "Mountain",
    "subcategory": "Mountain",
    "featured": false,
    "priority": 50
  },
  {
    "geonameId": 51014,
    "name": "Bur Udalei",
    "latitude": 4.8,
    "longitude": 43.48333,
    "category": "Mountain",
    "subcategory": "Mountain",
    "featured": false,
    "priority": 50
  },
  {
    "geonameId": 50959,
    "name": "Bur Uleule",
    "latitude": 4.75,
    "longitude": 43.46667,
    "category": "Mountain",
    "subcategory": "Mountain",
    "featured": false,
    "priority": 50
  },
  {
    "geonameId": 50471,
    "name": "Bur Wawa",
    "latitude": 9.8,
    "longitude": 43.6,
    "category": "Mountain",
    "subcategory": "Mountain",
    "featured": false,
    "priority": 50
  },
  {
    "geonameId": 50411,
    "name": "Bur Wein",
    "latitude": 8.33333,
    "longitude": 47.68333,
    "category": "Mountain",
    "subcategory": "Mountain",
    "featured": false,
    "priority": 50
  },
  {
    "geonameId": 57606,
    "name": "Bur-ta Habarta",
    "latitude": 11.23333,
    "longitude": 48.68333,
    "category": "Mountain",
    "subcategory": "Mountain",
    "featured": false,
    "priority": 50
  },
  {
    "geonameId": 63807,
    "name": "Burale Xaydh",
    "latitude": 10.53637,
    "longitude": 43.01566,
    "category": "Mountain",
    "subcategory": "Mountain",
    "featured": false,
    "priority": 50
  },
  {
    "geonameId": 63795,
    "name": "Burao",
    "latitude": 9.52213,
    "longitude": 45.53363,
    "category": "City",
    "subcategory": "Regional Capital",
    "featured": false,
    "priority": 50
  },
  {
    "geonameId": 63743,
    "name": "Busti",
    "latitude": 10.21314,
    "longitude": 45.08351,
    "category": "Mountain",
    "subcategory": "Mountain",
    "featured": false,
    "priority": 50
  },
  {
    "geonameId": 63689,
    "name": "Buulobarde",
    "latitude": 3.85375,
    "longitude": 45.56744,
    "category": "City",
    "subcategory": "City",
    "featured": false,
    "priority": 50
  },
  {
    "geonameId": 66033,
    "name": "Buur Abaarso",
    "latitude": 9.56414,
    "longitude": 43.96602,
    "category": "Mountain",
    "subcategory": "Mountain",
    "featured": false,
    "priority": 50
  },
  {
    "geonameId": 6282874,
    "name": "Buur Awordil",
    "latitude": 9.91005,
    "longitude": 43.27084,
    "category": "Mountain",
    "subcategory": "Mountain",
    "featured": false,
    "priority": 50
  },
  {
    "geonameId": 63476,
    "name": "Buur Caanood",
    "latitude": 9.08385,
    "longitude": 47.34125,
    "category": "Mountain",
    "subcategory": "Mountain",
    "featured": false,
    "priority": 50
  },
  {
    "geonameId": 63452,
    "name": "Buur Cabaaddheer",
    "latitude": 9.92106,
    "longitude": 43.3727,
    "category": "Mountain",
    "subcategory": "Mountain",
    "featured": false,
    "priority": 50
  },
  {
    "geonameId": 63230,
    "name": "Buur Cadooy",
    "latitude": 4.04744,
    "longitude": 43.35112,
    "category": "Mountain",
    "subcategory": "Mountain",
    "featured": false,
    "priority": 50
  },
  {
    "geonameId": 6282866,
    "name": "Buur Cagwiyille",
    "latitude": 9.8582,
    "longitude": 43.39902,
    "category": "Mountain",
    "subcategory": "Mountain",
    "featured": false,
    "priority": 50
  },
  {
    "geonameId": 6282876,
    "name": "Buur Cowsguduudle",
    "latitude": 9.8826,
    "longitude": 43.25129,
    "category": "Mountain",
    "subcategory": "Mountain",
    "featured": false,
    "priority": 50
  },
  {
    "geonameId": 61941,
    "name": "Buur Dameer",
    "latitude": 10.99539,
    "longitude": 49.14247,
    "category": "Mountain",
    "subcategory": "Mountain",
    "featured": false,
    "priority": 50
  },
  {
    "geonameId": 61607,
    "name": "Buur Degeb",
    "latitude": 9.8791,
    "longitude": 49.5774,
    "category": "Mountain",
    "subcategory": "Mountain",
    "featured": false,
    "priority": 50
  },
  {
    "geonameId": 61493,
    "name": "Buur Dhabar",
    "latitude": 10.0775,
    "longitude": 50.0841,
    "category": "Mountain",
    "subcategory": "Mountain",
    "featured": false,
    "priority": 50
  },
  {
    "geonameId": 61482,
    "name": "Buur Dhaber",
    "latitude": 10.06667,
    "longitude": 50.08333,
    "category": "Mountain",
    "subcategory": "Mountain",
    "featured": false,
    "priority": 50
  },
  {
    "geonameId": 6263581,
    "name": "Buur Dhubbato",
    "latitude": 9.73299,
    "longitude": 44.45669,
    "category": "Mountain",
    "subcategory": "Mountain",
    "featured": false,
    "priority": 50
  },
  {
    "geonameId": 60338,
    "name": "Buur Durlale",
    "latitude": 11.8506,
    "longitude": 51.0717,
    "category": "Mountain",
    "subcategory": "Mountain",
    "featured": false,
    "priority": 50
  },
  {
    "geonameId": 60292,
    "name": "Buur Duur",
    "latitude": 2.5611,
    "longitude": 43.5294,
    "category": "Mountain",
    "subcategory": "Mountain",
    "featured": false,
    "priority": 50
  },
  {
    "geonameId": 59253,
    "name": "Buur Gal Waay",
    "latitude": 2.3576,
    "longitude": 43.5826,
    "category": "Mountain",
    "subcategory": "Mountain",
    "featured": false,
    "priority": 50
  },
  {
    "geonameId": 58874,
    "name": "Buur Gassle",
    "latitude": 8.13333,
    "longitude": 48.96667,
    "category": "Mountain",
    "subcategory": "Mountain",
    "featured": false,
    "priority": 50
  },
  {
    "geonameId": 6282863,
    "name": "Buur Geelwanaaje",
    "latitude": 9.93293,
    "longitude": 43.40187,
    "category": "Mountain",
    "subcategory": "Mountain",
    "featured": false,
    "priority": 50
  },
  {
    "geonameId": 57787,
    "name": "Buur Gunburo",
    "latitude": 9.72259,
    "longitude": 44.42093,
    "category": "Mountain",
    "subcategory": "Mountain",
    "featured": false,
    "priority": 50
  },
  {
    "geonameId": 63568,
    "name": "Buur Howla",
    "latitude": -1.29224,
    "longitude": 41.81712,
    "category": "Island",
    "subcategory": "Island",
    "featured": false,
    "priority": 50
  },
  {
    "geonameId": 55460,
    "name": "Buur Kumeersan",
    "latitude": 10.10707,
    "longitude": 50.3456,
    "category": "Mountain",
    "subcategory": "Mountain",
    "featured": false,
    "priority": 50
  },
  {
    "geonameId": 8073628,
    "name": "Buur Mayraale",
    "latitude": 10.9766,
    "longitude": 49.3289,
    "category": "Mountain",
    "subcategory": "Mountain",
    "featured": false,
    "priority": 50
  },
  {
    "geonameId": 53604,
    "name": "Buur Muufaale",
    "latitude": 10.9959,
    "longitude": 49.2775,
    "category": "Mountain",
    "subcategory": "Mountain",
    "featured": false,
    "priority": 50
  },
  {
    "geonameId": 53538,
    "name": "Buur Nasa Hablood",
    "latitude": 9.5938,
    "longitude": 44.12151,
    "category": "Mountain",
    "subcategory": "Mountain",
    "featured": false,
    "priority": 50
  },
  {
    "geonameId": 52682,
    "name": "Buur Raariile",
    "latitude": 9.97668,
    "longitude": 43.2666,
    "category": "Mountain",
    "subcategory": "Mountain",
    "featured": false,
    "priority": 50
  },
  {
    "geonameId": 52196,
    "name": "Buur Samays",
    "latitude": 3.59955,
    "longitude": 42.91924,
    "category": "Mountain",
    "subcategory": "Mountain",
    "featured": false,
    "priority": 50
  },
  {
    "geonameId": 6282858,
    "name": "Buur Shallowdheere",
    "latitude": 9.8977,
    "longitude": 43.44194,
    "category": "Mountain",
    "subcategory": "Mountain",
    "featured": false,
    "priority": 50
  },
  {
    "geonameId": 50197,
    "name": "Buur Xajiin",
    "latitude": 10.1421,
    "longitude": 50.3199,
    "category": "Mountain",
    "subcategory": "Mountain",
    "featured": false,
    "priority": 50
  },
  {
    "geonameId": 51675,
    "name": "Buuray Shunle",
    "latitude": 3.3152,
    "longitude": 43.41817,
    "category": "Mountain",
    "subcategory": "Mountain",
    "featured": false,
    "priority": 50
  },
  {
    "geonameId": 63571,
    "name": "Buurhakaba",
    "latitude": 2.80257,
    "longitude": 44.07805,
    "category": "City",
    "subcategory": "County Seat",
    "featured": false,
    "priority": 50
  },
  {
    "geonameId": 63520,
    "name": "Buuxiso",
    "latitude": 8.31955,
    "longitude": 47.73411,
    "category": "Mountain",
    "subcategory": "Mountain",
    "featured": false,
    "priority": 50
  },
  {
    "geonameId": 52592,
    "name": "Caal Raqar",
    "latitude": 10.63333,
    "longitude": 45.65,
    "category": "Mountain",
    "subcategory": "Mountain",
    "featured": false,
    "priority": 50
  },
  {
    "geonameId": 63459,
    "name": "Caaryaale",
    "latitude": 9.98008,
    "longitude": 45.29585,
    "category": "Mountain",
    "subcategory": "Mountain",
    "featured": false,
    "priority": 50
  },
  {
    "geonameId": 63400,
    "name": "Cabudwaaq",
    "latitude": 6.24585,
    "longitude": 46.2247,
    "category": "City",
    "subcategory": "City",
    "featured": false,
    "priority": 50
  },
  {
    "geonameId": 63362,
    "name": "Cadaado",
    "latitude": 11.0378,
    "longitude": 49.2445,
    "category": "Mountain",
    "subcategory": "Mountain",
    "featured": false,
    "priority": 50
  },
  {
    "geonameId": 63346,
    "name": "Cadalay",
    "latitude": 10.13674,
    "longitude": 45.33085,
    "category": "Mountain",
    "subcategory": "Mountain",
    "featured": false,
    "priority": 50
  },
  {
    "geonameId": 63344,
    "name": "Cadale",
    "latitude": 2.7603,
    "longitude": 46.3222,
    "category": "City",
    "subcategory": "City",
    "featured": false,
    "priority": 50
  },
  {
    "geonameId": 63327,
    "name": "Caday",
    "latitude": 11.8658,
    "longitude": 51.1207,
    "category": "Mountain",
    "subcategory": "Mountain",
    "featured": false,
    "priority": 50
  },
  {
    "geonameId": 63306,
    "name": "Caday Xiriiro",
    "latitude": 11.7362,
    "longitude": 51.0821,
    "category": "Mountain",
    "subcategory": "Mountain",
    "featured": false,
    "priority": 50
  },
  {
    "geonameId": 63233,
    "name": "Cadilley",
    "latitude": 1.14586,
    "longitude": 43.4729,
    "category": "Lake",
    "subcategory": "Lake",
    "featured": false,
    "priority": 50
  },
  {
    "geonameId": 63199,
    "name": "Cagasur",
    "latitude": 10.43805,
    "longitude": 43.40631,
    "category": "Mountain",
    "subcategory": "Mountain Pass",
    "featured": false,
    "priority": 50
  },
  {
    "geonameId": 60030,
    "name": "Cal Eryo",
    "latitude": 10.42106,
    "longitude": 46.55798,
    "category": "Mountain",
    "subcategory": "Mountain",
    "featured": false,
    "priority": 50
  },
  {
    "geonameId": 63097,
    "name": "Cal Madow",
    "latitude": 10.7486,
    "longitude": 46.9225,
    "category": "Mountain",
    "subcategory": "Mountain",
    "featured": false,
    "priority": 50
  },
  {
    "geonameId": 53870,
    "name": "Cal Miskaat",
    "latitude": 10.85372,
    "longitude": 49.81404,
    "category": "Mountain",
    "subcategory": "Mountain",
    "featured": false,
    "priority": 50
  },
  {
    "geonameId": 63168,
    "name": "Calandheere",
    "latitude": 11.2384,
    "longitude": 48.6886,
    "category": "Mountain",
    "subcategory": "Mountain",
    "featured": false,
    "priority": 50
  },
  {
    "geonameId": 63163,
    "name": "Calbahal",
    "latitude": 11.0245,
    "longitude": 47.8911,
    "category": "Mountain",
    "subcategory": "Mountain",
    "featured": false,
    "priority": 50
  },
  {
    "geonameId": 63161,
    "name": "Calbiyale",
    "latitude": 10.9462,
    "longitude": 47.2016,
    "category": "Mountain",
    "subcategory": "Mountain",
    "featured": false,
    "priority": 50
  },
  {
    "geonameId": 63081,
    "name": "Caluula",
    "latitude": 11.96611,
    "longitude": 50.75694,
    "category": "City",
    "subcategory": "County Seat",
    "featured": false,
    "priority": 50
  },
  {
    "geonameId": 63053,
    "name": "Camuud",
    "latitude": 10.04224,
    "longitude": 44.22918,
    "category": "Mountain",
    "subcategory": "Mountain",
    "featured": false,
    "priority": 50
  },
  {
    "geonameId": 63027,
    "name": "Canqor",
    "latitude": 10.54874,
    "longitude": 46.16661,
    "category": "Mountain",
    "subcategory": "Mountain",
    "featured": false,
    "priority": 50
  },
  {
    "geonameId": 62975,
    "name": "Car Harari",
    "latitude": 9.7,
    "longitude": 49.06667,
    "category": "Mountain",
    "subcategory": "Mountain",
    "featured": false,
    "priority": 50
  },
  {
    "geonameId": 62983,
    "name": "Cardix",
    "latitude": 9.98565,
    "longitude": 46.04688,
    "category": "Mountain",
    "subcategory": "Mountain",
    "featured": false,
    "priority": 50
  },
  {
    "geonameId": 64413,
    "name": "Carin Bereda",
    "latitude": 11.83333,
    "longitude": 51.05,
    "category": "Mountain",
    "subcategory": "Mountain Pass",
    "featured": false,
    "priority": 50
  },
  {
    "geonameId": 59221,
    "name": "Carin Gambadofle",
    "latitude": 11.3,
    "longitude": 51,
    "category": "Mountain",
    "subcategory": "Mountain Pass",
    "featured": false,
    "priority": 50
  },
  {
    "geonameId": 58606,
    "name": "Carin Ghelca Durduring",
    "latitude": 10.8,
    "longitude": 50.73333,
    "category": "Mountain",
    "subcategory": "Mountain Pass",
    "featured": false,
    "priority": 50
  },
  {
    "geonameId": 62971,
    "name": "Carin Ghes A Cabat",
    "latitude": 10.8,
    "longitude": 49.61667,
    "category": "Mountain",
    "subcategory": "Mountain",
    "featured": false,
    "priority": 50
  },
  {
    "geonameId": 58573,
    "name": "Carin Ghieh",
    "latitude": 11.33333,
    "longitude": 49.8,
    "category": "Mountain",
    "subcategory": "Mountain Pass",
    "featured": false,
    "priority": 50
  },
  {
    "geonameId": 58400,
    "name": "Carin Godgorun",
    "latitude": 11.36667,
    "longitude": 49.8,
    "category": "Mountain",
    "subcategory": "Mountain Pass",
    "featured": false,
    "priority": 50
  },
  {
    "geonameId": 57981,
    "name": "Carin Gubet",
    "latitude": 11.26667,
    "longitude": 49.75,
    "category": "Mountain",
    "subcategory": "Mountain Pass",
    "featured": false,
    "priority": 50
  },
  {
    "geonameId": 54790,
    "name": "Carin Lohi ma Tagto",
    "latitude": 11.63333,
    "longitude": 50.68333,
    "category": "Mountain",
    "subcategory": "Mountain Pass",
    "featured": false,
    "priority": 50
  },
  {
    "geonameId": 53838,
    "name": "Carin Mohorro",
    "latitude": 10.13333,
    "longitude": 49.85,
    "category": "Mountain",
    "subcategory": "Mountain Pass",
    "featured": false,
    "priority": 50
  },
  {
    "geonameId": 62912,
    "name": "Casharaareer",
    "latitude": 10.0476,
    "longitude": 45.9833,
    "category": "Mountain",
    "subcategory": "Mountain",
    "featured": false,
    "priority": 50
  },
  {
    "geonameId": 62911,
    "name": "Casho",
    "latitude": 1.09062,
    "longitude": 43.38103,
    "category": "Lake",
    "subcategory": "Lake",
    "featured": false,
    "priority": 50
  },
  {
    "geonameId": 62888,
    "name": "Cawl",
    "latitude": 10.3,
    "longitude": 43.16667,
    "category": "Mountain",
    "subcategory": "Mountain",
    "featured": false,
    "priority": 50
  },
  {
    "geonameId": 62875,
    "name": "Caws Weyne",
    "latitude": 10.9112,
    "longitude": 48.8478,
    "category": "Mountain",
    "subcategory": "Mountain",
    "featured": false,
    "priority": 50
  },
  {
    "geonameId": 62862,
    "name": "Cedeed Karor",
    "latitude": 10.45405,
    "longitude": 43.13992,
    "category": "Mountain",
    "subcategory": "Mountain",
    "featured": false,
    "priority": 50
  },
  {
    "geonameId": 62861,
    "name": "Ceebaad",
    "latitude": 11.5029,
    "longitude": 43.4569,
    "category": "Island",
    "subcategory": "Island",
    "featured": false,
    "priority": 50
  },
  {
    "geonameId": 62821,
    "name": "Ceelbuur",
    "latitude": 4.68501,
    "longitude": 46.6176,
    "category": "City",
    "subcategory": "City",
    "featured": false,
    "priority": 50
  },
  {
    "geonameId": 62788,
    "name": "Ceeldheer",
    "latitude": 3.84878,
    "longitude": 47.18064,
    "category": "City",
    "subcategory": "City",
    "featured": false,
    "priority": 50
  },
  {
    "geonameId": 62691,
    "name": "Ceerigaabo",
    "latitude": 10.61616,
    "longitude": 47.36795,
    "category": "City",
    "subcategory": "Regional Capital",
    "featured": false,
    "priority": 50
  },
  {
    "geonameId": 62685,
    "name": "Ceg",
    "latitude": 10.0141,
    "longitude": 46.2013,
    "category": "Mountain",
    "subcategory": "Mountain Pass",
    "featured": false,
    "priority": 50
  },
  {
    "geonameId": 62675,
    "name": "Ceridhuweyn",
    "latitude": 11.0659,
    "longitude": 48.9384,
    "category": "Mountain",
    "subcategory": "Mountain",
    "featured": false,
    "priority": 50
  },
  {
    "geonameId": 62664,
    "name": "Chaukar",
    "latitude": 10.01667,
    "longitude": 46.2,
    "category": "Mountain",
    "subcategory": "Mountain",
    "featured": false,
    "priority": 50
  },
  {
    "geonameId": 62653,
    "name": "Chianguva",
    "latitude": -0.51667,
    "longitude": 42.43333,
    "category": "Island",
    "subcategory": "Island",
    "featured": false,
    "priority": 50
  },
  {
    "geonameId": 62645,
    "name": "Ciddi Dheere",
    "latitude": 11.6479,
    "longitude": 50.939,
    "category": "Mountain",
    "subcategory": "Mountain",
    "featured": false,
    "priority": 50
  },
  {
    "geonameId": 62642,
    "name": "Cidiye",
    "latitude": 10.9355,
    "longitude": 47.1679,
    "category": "Mountain",
    "subcategory": "Mountain",
    "featured": false,
    "priority": 50
  },
  {
    "geonameId": 62599,
    "name": "Cinjir",
    "latitude": 9.71744,
    "longitude": 50.68474,
    "category": "Mountain",
    "subcategory": "Mountain",
    "featured": false,
    "priority": 50
  },
  {
    "geonameId": 62585,
    "name": "Cirtoole",
    "latitude": 10.6323,
    "longitude": 47.0425,
    "category": "Mountain",
    "subcategory": "Mountain",
    "featured": false,
    "priority": 50
  },
  {
    "geonameId": 62562,
    "name": "Colkoonbe",
    "latitude": 11.01185,
    "longitude": 47.83867,
    "category": "Mountain",
    "subcategory": "Mountain",
    "featured": false,
    "priority": 50
  },
  {
    "geonameId": 65701,
    "name": "Collina Aggherar",
    "latitude": 4,
    "longitude": 42.68333,
    "category": "Mountain",
    "subcategory": "Mountain",
    "featured": false,
    "priority": 50
  },
  {
    "geonameId": 58255,
    "name": "Combashale",
    "latitude": 10.8824,
    "longitude": 48.9514,
    "category": "Mountain",
    "subcategory": "Mountain",
    "featured": false,
    "priority": 50
  },
  {
    "geonameId": 62554,
    "name": "Confine",
    "latitude": 9.33333,
    "longitude": 43.75,
    "category": "Mountain",
    "subcategory": "Mountain",
    "featured": false,
    "priority": 50
  },
  {
    "geonameId": 62539,
    "name": "Corancur",
    "latitude": 4.1,
    "longitude": 42.35,
    "category": "Mountain",
    "subcategory": "Mountain",
    "featured": false,
    "priority": 50
  },
  {
    "geonameId": 58133,
    "name": "Coray Yar",
    "latitude": 10.376,
    "longitude": 45.7851,
    "category": "Mountain",
    "subcategory": "Mountain",
    "featured": false,
    "priority": 50
  },
  {
    "geonameId": 62527,
    "name": "Cormaghimbi",
    "latitude": 4.16667,
    "longitude": 42.63333,
    "category": "Mountain",
    "subcategory": "Mountain",
    "featured": false,
    "priority": 50
  },
  {
    "geonameId": 62511,
    "name": "Cubeero",
    "latitude": 11.2717,
    "longitude": 50.9986,
    "category": "Mountain",
    "subcategory": "Mountain",
    "featured": false,
    "priority": 50
  },
  {
    "geonameId": 62447,
    "name": "Cusbaale",
    "latitude": 10.0902,
    "longitude": 44.6654,
    "category": "Mountain",
    "subcategory": "Mountain",
    "featured": false,
    "priority": 50
  },
  {
    "geonameId": 62372,
    "name": "Da’aro",
    "latitude": 10.6,
    "longitude": 47.13333,
    "category": "Mountain",
    "subcategory": "Mountain",
    "featured": false,
    "priority": 50
  },
  {
    "geonameId": 13494284,
    "name": "Daalo Mountain Forest",
    "latitude": 10.79493,
    "longitude": 47.3196,
    "category": "Park",
    "subcategory": "Nature Reserve",
    "featured": false,
    "priority": 50
  },
  {
    "geonameId": 61962,
    "name": "Daba Damas",
    "latitude": 10.55,
    "longitude": 45.71667,
    "category": "Mountain",
    "subcategory": "Mountain",
    "featured": false,
    "priority": 50
  },
  {
    "geonameId": 61167,
    "name": "Daba Dheryood",
    "latitude": 9.16839,
    "longitude": 46.32083,
    "category": "Mountain",
    "subcategory": "Mountain",
    "featured": false,
    "priority": 50
  },
  {
    "geonameId": 61140,
    "name": "Daba Dhiddin",
    "latitude": 9.53555,
    "longitude": 46.41918,
    "category": "Mountain",
    "subcategory": "Mountain",
    "featured": false,
    "priority": 50
  },
  {
    "geonameId": 55902,
    "name": "Daba Kalharereh",
    "latitude": 9.3,
    "longitude": 46.53333,
    "category": "Mountain",
    "subcategory": "Mountain",
    "featured": false,
    "priority": 50
  },
  {
    "geonameId": 62309,
    "name": "Daba Karimot Pass",
    "latitude": 9.16667,
    "longitude": 46.05,
    "category": "Mountain",
    "subcategory": "Mountain Pass",
    "featured": false,
    "priority": 50
  },
  {
    "geonameId": 51960,
    "name": "Daba Shabeellee",
    "latitude": 10.14281,
    "longitude": 45.42216,
    "category": "Mountain",
    "subcategory": "Mountain",
    "featured": false,
    "priority": 50
  },
  {
    "geonameId": 62304,
    "name": "Dabalaydhshe",
    "latitude": 10.3253,
    "longitude": 43.1312,
    "category": "Mountain",
    "subcategory": "Mountain",
    "featured": false,
    "priority": 50
  },
  {
    "geonameId": 62275,
    "name": "Dabataag",
    "latitude": 10.34982,
    "longitude": 45.43761,
    "category": "Mountain",
    "subcategory": "Mountain",
    "featured": false,
    "priority": 50
  },
  {
    "geonameId": 62265,
    "name": "Dabayshin",
    "latitude": 11.21403,
    "longitude": 48.36865,
    "category": "Mountain",
    "subcategory": "Mountain",
    "featured": false,
    "priority": 50
  },
  {
    "geonameId": 62256,
    "name": "Dabdheer",
    "latitude": 11.0639,
    "longitude": 49.3333,
    "category": "Mountain",
    "subcategory": "Mountain",
    "featured": false,
    "priority": 50
  },
  {
    "geonameId": 62238,
    "name": "Dabeyloy",
    "latitude": 10.1479,
    "longitude": 44.4261,
    "category": "Mountain",
    "subcategory": "Mountain",
    "featured": false,
    "priority": 50
  },
  {
    "geonameId": 62237,
    "name": "Dabeylweyn",
    "latitude": 11.2164,
    "longitude": 49.6662,
    "category": "Mountain",
    "subcategory": "Mountain",
    "featured": false,
    "priority": 50
  },
  {
    "geonameId": 62215,
    "name": "Daboeh",
    "latitude": 10.1163,
    "longitude": 44.67909,
    "category": "Mountain",
    "subcategory": "Mountain",
    "featured": false,
    "priority": 50
  },
  {
    "geonameId": 62202,
    "name": "Dabrawein",
    "latitude": 10.15,
    "longitude": 45.06667,
    "category": "Mountain",
    "subcategory": "Mountain",
    "featured": false,
    "priority": 50
  },
  {
    "geonameId": 62156,
    "name": "Dadbin",
    "latitude": 10.53288,
    "longitude": 43.14003,
    "category": "Mountain",
    "subcategory": "Mountain",
    "featured": false,
    "priority": 50
  },
  {
    "geonameId": 62145,
    "name": "Dadin Weil",
    "latitude": 9.18333,
    "longitude": 46.53333,
    "category": "Mountain",
    "subcategory": "Mountain",
    "featured": false,
    "priority": 50
  },
  {
    "geonameId": 64330,
    "name": "Daga Bildaale",
    "latitude": 10.3375,
    "longitude": 46.0543,
    "category": "Mountain",
    "subcategory": "Mountain",
    "featured": false,
    "priority": 50
  },
  {
    "geonameId": 55856,
    "name": "Dagah Kamasur",
    "latitude": 9.71667,
    "longitude": 43.66667,
    "category": "Mountain",
    "subcategory": "Mountain",
    "featured": false,
    "priority": 50
  },
  {
    "geonameId": 62108,
    "name": "Dagahrid",
    "latitude": 10.95,
    "longitude": 43.08333,
    "category": "Mountain",
    "subcategory": "Mountain",
    "featured": false,
    "priority": 50
  },
  {
    "geonameId": 62104,
    "name": "Daganyo Da’arti",
    "latitude": 10.18333,
    "longitude": 48.85,
    "category": "Mountain",
    "subcategory": "Mountain",
    "featured": false,
    "priority": 50
  },
  {
    "geonameId": 62076,
    "name": "Daha",
    "latitude": 11.0233,
    "longitude": 49.4216,
    "category": "Mountain",
    "subcategory": "Mountain",
    "featured": false,
    "priority": 50
  },
  {
    "geonameId": 62070,
    "name": "Dahan",
    "latitude": 9.31667,
    "longitude": 48.36667,
    "category": "Mountain",
    "subcategory": "Mountain Pass",
    "featured": false,
    "priority": 50
  },
  {
    "geonameId": 62067,
    "name": "Dahan Uen",
    "latitude": 11.26667,
    "longitude": 49.85,
    "category": "Mountain",
    "subcategory": "Mountain Pass",
    "featured": false,
    "priority": 50
  },
  {
    "geonameId": 62044,
    "name": "Dala Ad",
    "latitude": 9.71667,
    "longitude": 46.55,
    "category": "Mountain",
    "subcategory": "Mountain",
    "featured": false,
    "priority": 50
  },
  {
    "geonameId": 62032,
    "name": "Dalal Axmar",
    "latitude": 11.2459,
    "longitude": 49.4296,
    "category": "Mountain",
    "subcategory": "Mountain",
    "featured": false,
    "priority": 50
  },
  {
    "geonameId": 61996,
    "name": "Daloba",
    "latitude": 9.66667,
    "longitude": 44.08333,
    "category": "Mountain",
    "subcategory": "Mountain",
    "featured": false,
    "priority": 50
  },
  {
    "geonameId": 61974,
    "name": "Damalas",
    "latitude": 10.93,
    "longitude": 47.4225,
    "category": "Mountain",
    "subcategory": "Mountain",
    "featured": false,
    "priority": 50
  },
  {
    "geonameId": 61948,
    "name": "Dambe",
    "latitude": 11.318,
    "longitude": 50.5907,
    "category": "Mountain",
    "subcategory": "Mountain",
    "featured": false,
    "priority": 50
  },
  {
    "geonameId": 61932,
    "name": "Dameerjoog",
    "latitude": 10.48942,
    "longitude": 43.09218,
    "category": "Mountain",
    "subcategory": "Mountain",
    "featured": false,
    "priority": 50
  },
  {
    "geonameId": 61931,
    "name": "Dameerka Eela",
    "latitude": 10.53378,
    "longitude": 43.46117,
    "category": "Mountain",
    "subcategory": "Mountain",
    "featured": false,
    "priority": 50
  },
  {
    "geonameId": 61879,
    "name": "Dan Joogto",
    "latitude": 11.6894,
    "longitude": 50.6859,
    "category": "Mountain",
    "subcategory": "Mountain",
    "featured": false,
    "priority": 50
  },
  {
    "geonameId": 61863,
    "name": "Daqah Likisan",
    "latitude": 10.104,
    "longitude": 44.53287,
    "category": "Mountain",
    "subcategory": "Mountain",
    "featured": false,
    "priority": 50
  },
  {
    "geonameId": 61856,
    "name": "Dar Ad",
    "latitude": 9.31667,
    "longitude": 48.51667,
    "category": "Mountain",
    "subcategory": "Mountain Pass",
    "featured": false,
    "priority": 50
  },
  {
    "geonameId": 61842,
    "name": "Dara Madoh",
    "latitude": 10.55,
    "longitude": 47.21667,
    "category": "Mountain",
    "subcategory": "Mountain",
    "featured": false,
    "priority": 50
  },
  {
    "geonameId": 61848,
    "name": "Daraile",
    "latitude": 10.51667,
    "longitude": 43.65,
    "category": "Mountain",
    "subcategory": "Mountain",
    "featured": false,
    "priority": 50
  },
  {
    "geonameId": 61844,
    "name": "Daralehe",
    "latitude": 11.7578,
    "longitude": 51.1619,
    "category": "Mountain",
    "subcategory": "Mountain",
    "featured": false,
    "priority": 50
  },
  {
    "geonameId": 61843,
    "name": "Darali",
    "latitude": 9.2,
    "longitude": 48.78333,
    "category": "Mountain",
    "subcategory": "Mountain Pass",
    "featured": false,
    "priority": 50
  },
  {
    "geonameId": 61841,
    "name": "Daran",
    "latitude": 11.3675,
    "longitude": 49.5192,
    "category": "Mountain",
    "subcategory": "Mountain",
    "featured": false,
    "priority": 50
  },
  {
    "geonameId": 61829,
    "name": "Darata Odan",
    "latitude": 9.9,
    "longitude": 44.9,
    "category": "Mountain",
    "subcategory": "Mountain",
    "featured": false,
    "priority": 50
  },
  {
    "geonameId": 61799,
    "name": "Dargaas",
    "latitude": -1.0827,
    "longitude": 41.98568,
    "category": "Island",
    "subcategory": "Island",
    "featured": false,
    "priority": 50
  },
  {
    "geonameId": 61789,
    "name": "Darimo",
    "latitude": 10.73333,
    "longitude": 50.03333,
    "category": "Mountain",
    "subcategory": "Mountain",
    "featured": false,
    "priority": 50
  },
  {
    "geonameId": 61768,
    "name": "Darka Qoton",
    "latitude": 10.47304,
    "longitude": 43.17998,
    "category": "Mountain",
    "subcategory": "Mountain",
    "featured": false,
    "priority": 50
  },
  {
    "geonameId": 61762,
    "name": "Darod",
    "latitude": 10.91667,
    "longitude": 47.65,
    "category": "Mountain",
    "subcategory": "Mountain",
    "featured": false,
    "priority": 50
  },
  {
    "geonameId": 61742,
    "name": "Daruud",
    "latitude": 10.9077,
    "longitude": 47.6221,
    "category": "Mountain",
    "subcategory": "Mountain Pass",
    "featured": false,
    "priority": 50
  },
  {
    "geonameId": 9538014,
    "name": "Dawa River",
    "latitude": 4.1774,
    "longitude": 42.0796,
    "category": "Lake",
    "subcategory": "Lake",
    "featured": false,
    "priority": 50
  },
  {
    "geonameId": 61719,
    "name": "Dawaad",
    "latitude": 10.9845,
    "longitude": 49.0893,
    "category": "Mountain",
    "subcategory": "Mountain",
    "featured": false,
    "priority": 50
  },
  {
    "geonameId": 61715,
    "name": "Dawacaale",
    "latitude": 10.3871,
    "longitude": 47.3965,
    "category": "Mountain",
    "subcategory": "Mountain",
    "featured": false,
    "priority": 50
  },
  {
    "geonameId": 61681,
    "name": "Daylaal",
    "latitude": 10.084,
    "longitude": 45.6663,
    "category": "Mountain",
    "subcategory": "Mountain",
    "featured": false,
    "priority": 50
  },
  {
    "geonameId": 61677,
    "name": "Daylaan",
    "latitude": 10.7575,
    "longitude": 50.0716,
    "category": "Mountain",
    "subcategory": "Mountain",
    "featured": false,
    "priority": 50
  },
  {
    "geonameId": 61603,
    "name": "Deg Garas",
    "latitude": 2.34873,
    "longitude": 42.98391,
    "category": "Mountain",
    "subcategory": "Mountain",
    "featured": false,
    "priority": 50
  },
  {
    "geonameId": 61601,
    "name": "Deg Golol",
    "latitude": 2.36667,
    "longitude": 42.95,
    "category": "Mountain",
    "subcategory": "Mountain",
    "featured": false,
    "priority": 50
  },
  {
    "geonameId": 61580,
    "name": "Dehfo",
    "latitude": 11.38333,
    "longitude": 50.98333,
    "category": "Mountain",
    "subcategory": "Mountain",
    "featured": false,
    "priority": 50
  },
  {
    "geonameId": 61576,
    "name": "Deisso",
    "latitude": 3.93333,
    "longitude": 44.28333,
    "category": "Mountain",
    "subcategory": "Mountain",
    "featured": false,
    "priority": 50
  },
  {
    "geonameId": 8069987,
    "name": "Dering-Galol",
    "latitude": 10.073,
    "longitude": 44.6901,
    "category": "Mountain",
    "subcategory": "Mountain",
    "featured": false,
    "priority": 50
  },
  {
    "geonameId": 61531,
    "name": "Deylaanjiic",
    "latitude": 10.9526,
    "longitude": 49.364,
    "category": "Mountain",
    "subcategory": "Mountain",
    "featured": false,
    "priority": 50
  },
  {
    "geonameId": 6311126,
    "name": "Dhabad",
    "latitude": 6.43167,
    "longitude": 46.46194,
    "category": "City",
    "subcategory": "City",
    "featured": false,
    "priority": 50
  },
  {
    "geonameId": 61498,
    "name": "Dhabaoqa",
    "latitude": 11.5771,
    "longitude": 50.33,
    "category": "Mountain",
    "subcategory": "Mountain Pass",
    "featured": false,
    "priority": 50
  },
  {
    "geonameId": 61479,
    "name": "Dhabi Feedhacad",
    "latitude": 10.0052,
    "longitude": 43.1405,
    "category": "Mountain",
    "subcategory": "Mountain",
    "featured": false,
    "priority": 50
  },
  {
    "geonameId": 61463,
    "name": "Dhadhab Doyaw",
    "latitude": 2.34979,
    "longitude": 42.97444,
    "category": "Mountain",
    "subcategory": "Mountain",
    "featured": false,
    "priority": 50
  },
  {
    "geonameId": 61416,
    "name": "Dhagaxtuur",
    "latitude": 8.25862,
    "longitude": 47.85085,
    "category": "Mountain",
    "subcategory": "Mountain Pass",
    "featured": false,
    "priority": 50
  },
  {
    "geonameId": 61412,
    "name": "Dhagaxye Cad",
    "latitude": 10.17094,
    "longitude": 48.85214,
    "category": "Mountain",
    "subcategory": "Mountain",
    "featured": false,
    "priority": 50
  },
  {
    "geonameId": 6610123,
    "name": "Dhalacad",
    "latitude": 9.74899,
    "longitude": 46.50955,
    "category": "Mountain",
    "subcategory": "Mountain",
    "featured": false,
    "priority": 50
  },
  {
    "geonameId": 61387,
    "name": "Dhaldhalaal",
    "latitude": 10.36207,
    "longitude": 42.84628,
    "category": "Mountain",
    "subcategory": "Mountain",
    "featured": false,
    "priority": 50
  },
  {
    "geonameId": 61384,
    "name": "Dhaleeco",
    "latitude": 11.8521,
    "longitude": 50.9866,
    "category": "Mountain",
    "subcategory": "Mountain",
    "featured": false,
    "priority": 50
  },
  {
    "geonameId": 61360,
    "name": "Dhamas",
    "latitude": 3.15296,
    "longitude": 41.33565,
    "category": "City",
    "subcategory": "City",
    "featured": false,
    "priority": 50
  },
  {
    "geonameId": 61351,
    "name": "Dhamuug",
    "latitude": 9.94929,
    "longitude": 43.20943,
    "category": "Lake",
    "subcategory": "Reservoir",
    "featured": false,
    "priority": 50
  },
  {
    "geonameId": 61302,
    "name": "Dhariyo",
    "latitude": 9.89176,
    "longitude": 44.71807,
    "category": "Mountain",
    "subcategory": "Mountain",
    "featured": false,
    "priority": 50
  },
  {
    "geonameId": 61270,
    "name": "Dhasax Daayeer",
    "latitude": 10.18656,
    "longitude": 45.06817,
    "category": "Mountain",
    "subcategory": "Mountain",
    "featured": false,
    "priority": 50
  },
  {
    "geonameId": 61257,
    "name": "Dhaxan Karin",
    "latitude": 9.60259,
    "longitude": 49.08328,
    "category": "Mountain",
    "subcategory": "Mountain Pass",
    "featured": false,
    "priority": 50
  },
  {
    "geonameId": 61250,
    "name": "Dhaymoole",
    "latitude": 10.1101,
    "longitude": 45.0518,
    "category": "Mountain",
    "subcategory": "Mountain",
    "featured": false,
    "priority": 50
  },
  {
    "geonameId": 61249,
    "name": "Dhaymoole Yare",
    "latitude": 10.072,
    "longitude": 45.07039,
    "category": "Mountain",
    "subcategory": "Mountain",
    "featured": false,
    "priority": 50
  },
  {
    "geonameId": 61194,
    "name": "Dhegati",
    "latitude": 9.87463,
    "longitude": 46.58387,
    "category": "Mountain",
    "subcategory": "Mountain",
    "featured": false,
    "priority": 50
  },
  {
    "geonameId": 61164,
    "name": "Dhex Roor",
    "latitude": 9.75488,
    "longitude": 44.97904,
    "category": "Mountain",
    "subcategory": "Mountain",
    "featured": false,
    "priority": 50
  },
  {
    "geonameId": 6610147,
    "name": "Dhibo",
    "latitude": 9.83806,
    "longitude": 46.80111,
    "category": "Mountain",
    "subcategory": "Mountain",
    "featured": false,
    "priority": 50
  },
  {
    "geonameId": 61147,
    "name": "Dhiciro",
    "latitude": 9.78382,
    "longitude": 44.99949,
    "category": "Mountain",
    "subcategory": "Mountain",
    "featured": false,
    "priority": 50
  },
  {
    "geonameId": 61117,
    "name": "Dhiinsoor",
    "latitude": 2.36667,
    "longitude": 42.96667,
    "category": "Mountain",
    "subcategory": "Mountain",
    "featured": false,
    "priority": 50
  },
  {
    "geonameId": 61110,
    "name": "Dhijis",
    "latitude": 2.9998,
    "longitude": 44.1661,
    "category": "Mountain",
    "subcategory": "Mountain",
    "featured": false,
    "priority": 50
  },
  {
    "geonameId": 10228788,
    "name": "Dhobley",
    "latitude": 0.40997,
    "longitude": 41.00995,
    "category": "City",
    "subcategory": "City",
    "featured": false,
    "priority": 50
  },
  {
    "geonameId": 6610138,
    "name": "Dhoobo",
    "latitude": 9.84345,
    "longitude": 46.50512,
    "category": "Mountain",
    "subcategory": "Mountain",
    "featured": false,
    "priority": 50
  },
  {
    "geonameId": 61035,
    "name": "Dhubbato",
    "latitude": 9.73333,
    "longitude": 43.45,
    "category": "Mountain",
    "subcategory": "Mountain",
    "featured": false,
    "priority": 50
  },
  {
    "geonameId": 60506,
    "name": "Dhudhub",
    "latitude": 9.77545,
    "longitude": 44.87579,
    "category": "Mountain",
    "subcategory": "Mountain",
    "featured": false,
    "priority": 50
  },
  {
    "geonameId": 6422877,
    "name": "Dhudhub ka Dhexeeye",
    "latitude": 9.78511,
    "longitude": 44.90408,
    "category": "Mountain",
    "subcategory": "Mountain",
    "featured": false,
    "priority": 50
  },
  {
    "geonameId": 61009,
    "name": "Dhulagugub",
    "latitude": 10.3828,
    "longitude": 47.2154,
    "category": "Mountain",
    "subcategory": "Mountain",
    "featured": false,
    "priority": 50
  },
  {
    "geonameId": 60960,
    "name": "Dhuubo",
    "latitude": 10.03284,
    "longitude": 44.8182,
    "category": "Mountain",
    "subcategory": "Mountain",
    "featured": false,
    "priority": 50
  },
  {
    "geonameId": 60928,
    "name": "Dhuusamarreeb",
    "latitude": 5.53597,
    "longitude": 46.38666,
    "category": "City",
    "subcategory": "Regional Capital",
    "featured": false,
    "priority": 50
  },
  {
    "geonameId": 8309031,
    "name": "Dhuwi",
    "latitude": 10.01862,
    "longitude": 44.18542,
    "category": "Mountain",
    "subcategory": "Mountain Pass",
    "featured": false,
    "priority": 50
  },
  {
    "geonameId": 60888,
    "name": "Dibis",
    "latitude": 2.48721,
    "longitude": 43.31978,
    "category": "Mountain",
    "subcategory": "Mountain",
    "featured": false,
    "priority": 50
  },
  {
    "geonameId": 8346540,
    "name": "Dibra-Ueyn",
    "latitude": 10.44528,
    "longitude": 42.82162,
    "category": "Mountain",
    "subcategory": "Mountain",
    "featured": false,
    "priority": 50
  },
  {
    "geonameId": 60867,
    "name": "Didibdexaad",
    "latitude": 10.35184,
    "longitude": 45.35929,
    "category": "Mountain",
    "subcategory": "Mountain",
    "featured": false,
    "priority": 50
  },
  {
    "geonameId": 60809,
    "name": "Diinsoor",
    "latitude": 2.4085,
    "longitude": 42.9771,
    "category": "City",
    "subcategory": "City",
    "featured": false,
    "priority": 50
  },
  {
    "geonameId": 60635,
    "name": "Do’oleh",
    "latitude": 8.28556,
    "longitude": 46.40611,
    "category": "Lake",
    "subcategory": "Reservoir",
    "featured": false,
    "priority": 50
  },
  {
    "geonameId": 60724,
    "name": "Dodoballa",
    "latitude": 9.93472,
    "longitude": 44.74278,
    "category": "Mountain",
    "subcategory": "Mountain",
    "featured": false,
    "priority": 50
  },
  {
    "geonameId": 60548,
    "name": "Duberi",
    "latitude": 9.98892,
    "longitude": 46.03682,
    "category": "Mountain",
    "subcategory": "Mountain Pass",
    "featured": false,
    "priority": 50
  },
  {
    "geonameId": 60546,
    "name": "Dubeyrin",
    "latitude": 10.0118,
    "longitude": 46.0811,
    "category": "Mountain",
    "subcategory": "Mountain",
    "featured": false,
    "priority": 50
  },
  {
    "geonameId": 60537,
    "name": "Dubriyaad",
    "latitude": 10.3701,
    "longitude": 45.1628,
    "category": "Mountain",
    "subcategory": "Mountain",
    "featured": false,
    "priority": 50
  },
  {
    "geonameId": 60533,
    "name": "Dubur",
    "latitude": 9.88741,
    "longitude": 45.19856,
    "category": "Mountain",
    "subcategory": "Mountain",
    "featured": false,
    "priority": 50
  },
  {
    "geonameId": 60446,
    "name": "Dulbiciid",
    "latitude": 8.98679,
    "longitude": 47.77836,
    "category": "Mountain",
    "subcategory": "Mountain",
    "featured": false,
    "priority": 50
  },
  {
    "geonameId": 60430,
    "name": "Dullaal",
    "latitude": 10.9426,
    "longitude": 49.0551,
    "category": "Mountain",
    "subcategory": "Mountain",
    "featured": false,
    "priority": 50
  },
  {
    "geonameId": 60400,
    "name": "Dummai",
    "latitude": 11.45,
    "longitude": 50.16667,
    "category": "Mountain",
    "subcategory": "Mountain",
    "featured": false,
    "priority": 50
  },
  {
    "geonameId": 60327,
    "name": "Dus",
    "latitude": 10.05,
    "longitude": 46.3,
    "category": "Mountain",
    "subcategory": "Mountain Pass",
    "featured": false,
    "priority": 50
  },
  {
    "geonameId": 60297,
    "name": "Duulay",
    "latitude": 10.8005,
    "longitude": 48.1397,
    "category": "Mountain",
    "subcategory": "Mountain",
    "featured": false,
    "priority": 50
  },
  {
    "geonameId": 8346221,
    "name": "Dzhufi",
    "latitude": 10.12661,
    "longitude": 42.98315,
    "category": "Mountain",
    "subcategory": "Mountain",
    "featured": false,
    "priority": 50
  },
  {
    "geonameId": 60219,
    "name": "Eila El Gadir",
    "latitude": 10.5,
    "longitude": 45.95,
    "category": "Mountain",
    "subcategory": "Mountain",
    "featured": false,
    "priority": 50
  },
  {
    "geonameId": 60189,
    "name": "El Anod",
    "latitude": 10.05,
    "longitude": 44.5,
    "category": "Mountain",
    "subcategory": "Mountain",
    "featured": false,
    "priority": 50
  },
  {
    "geonameId": 60149,
    "name": "El Dibir",
    "latitude": 11.76667,
    "longitude": 51.21667,
    "category": "City",
    "subcategory": "City",
    "featured": false,
    "priority": 50
  },
  {
    "geonameId": 60059,
    "name": "El Usbale",
    "latitude": 10.88333,
    "longitude": 46.93333,
    "category": "Mountain",
    "subcategory": "Mountain",
    "featured": false,
    "priority": 50
  },
  {
    "geonameId": 60192,
    "name": "Elambidol Pass",
    "latitude": 9.93333,
    "longitude": 45.95,
    "category": "Mountain",
    "subcategory": "Mountain Pass",
    "featured": false,
    "priority": 50
  },
  {
    "geonameId": 60031,
    "name": "Ertale",
    "latitude": 10.66667,
    "longitude": 47.03333,
    "category": "Mountain",
    "subcategory": "Mountain",
    "featured": false,
    "priority": 50
  },
  {
    "geonameId": 60019,
    "name": "Eyl",
    "latitude": 7.9803,
    "longitude": 49.8164,
    "category": "City",
    "subcategory": "City",
    "featured": false,
    "priority": 50
  },
  {
    "geonameId": 13494285,
    "name": "Eyl Garad Marine Protected Area",
    "latitude": 7.00978,
    "longitude": 49.44646,
    "category": "Park",
    "subcategory": "Nature Reserve",
    "featured": false,
    "priority": 50
  },
  {
    "geonameId": 8045901,
    "name": "Faarax Liiban",
    "latitude": 10.3294,
    "longitude": 43.0648,
    "category": "Mountain",
    "subcategory": "Mountain",
    "featured": false,
    "priority": 50
  },
  {
    "geonameId": 59948,
    "name": "Fadi Wein",
    "latitude": 9.95,
    "longitude": 45.08333,
    "category": "Mountain",
    "subcategory": "Mountain",
    "featured": false,
    "priority": 50
  },
  {
    "geonameId": 59947,
    "name": "Fafaatu",
    "latitude": -0.39399,
    "longitude": 42.54355,
    "category": "Island",
    "subcategory": "Island",
    "featured": false,
    "priority": 50
  },
  {
    "geonameId": 59929,
    "name": "Falfule",
    "latitude": 10.56667,
    "longitude": 45.68333,
    "category": "Mountain",
    "subcategory": "Mountain",
    "featured": false,
    "priority": 50
  },
  {
    "geonameId": 59922,
    "name": "Famauwaali",
    "latitude": -1.61105,
    "longitude": 41.61179,
    "category": "Island",
    "subcategory": "Island",
    "featured": false,
    "priority": 50
  },
  {
    "geonameId": 59919,
    "name": "Fanda Dhondi",
    "latitude": -1.17889,
    "longitude": 41.82612,
    "category": "Island",
    "subcategory": "Island",
    "featured": false,
    "priority": 50
  },
  {
    "geonameId": 59795,
    "name": "Far Shabeel",
    "latitude": 10.09728,
    "longitude": 44.50316,
    "category": "Mountain",
    "subcategory": "Mountain",
    "featured": false,
    "priority": 50
  },
  {
    "geonameId": 8346131,
    "name": "Farakh-Bul’de",
    "latitude": 10.19557,
    "longitude": 42.94071,
    "category": "Mountain",
    "subcategory": "Mountain",
    "featured": false,
    "priority": 50
  },
  {
    "geonameId": 59869,
    "name": "Farbilcil",
    "latitude": 8.22056,
    "longitude": 47.85529,
    "category": "Mountain",
    "subcategory": "Mountain",
    "featured": false,
    "priority": 50
  },
  {
    "geonameId": 59861,
    "name": "Fardaandeg",
    "latitude": 10.8369,
    "longitude": 48.1876,
    "category": "Mountain",
    "subcategory": "Mountain",
    "featured": false,
    "priority": 50
  },
  {
    "geonameId": 59842,
    "name": "Fardood",
    "latitude": 11.0747,
    "longitude": 50.2673,
    "category": "Mountain",
    "subcategory": "Mountain",
    "featured": false,
    "priority": 50
  },
  {
    "geonameId": 59807,
    "name": "Farqaanso",
    "latitude": 10.1264,
    "longitude": 44.4735,
    "category": "Mountain",
    "subcategory": "Mountain",
    "featured": false,
    "priority": 50
  },
  {
    "geonameId": 59801,
    "name": "Farsaxidh",
    "latitude": 10.39603,
    "longitude": 43.47605,
    "category": "Mountain",
    "subcategory": "Mountain",
    "featured": false,
    "priority": 50
  },
  {
    "geonameId": 59793,
    "name": "Farshabeelo",
    "latitude": 10.11212,
    "longitude": 44.48806,
    "category": "Mountain",
    "subcategory": "Mountain",
    "featured": false,
    "priority": 50
  },
  {
    "geonameId": 59762,
    "name": "Feedho Qabad",
    "latitude": 10.3427,
    "longitude": 43.0568,
    "category": "Mountain",
    "subcategory": "Mountain",
    "featured": false,
    "priority": 50
  },
  {
    "geonameId": 59732,
    "name": "Fignale",
    "latitude": 10.7,
    "longitude": 49.85,
    "category": "Mountain",
    "subcategory": "Mountain",
    "featured": false,
    "priority": 50
  },
  {
    "geonameId": 59719,
    "name": "Filigol",
    "latitude": 8.83333,
    "longitude": 46.1,
    "category": "Mountain",
    "subcategory": "Mountain",
    "featured": false,
    "priority": 50
  },
  {
    "geonameId": 59716,
    "name": "Fin",
    "latitude": 11.0325,
    "longitude": 49.5329,
    "category": "Mountain",
    "subcategory": "Mountain",
    "featured": false,
    "priority": 50
  },
  {
    "geonameId": 59713,
    "name": "Finger Pig",
    "latitude": 10.7404,
    "longitude": 46.7783,
    "category": "Mountain",
    "subcategory": "Mountain",
    "featured": false,
    "priority": 50
  },
  {
    "geonameId": 59710,
    "name": "Finyo",
    "latitude": 11.4303,
    "longitude": 50.6067,
    "category": "Mountain",
    "subcategory": "Mountain",
    "featured": false,
    "priority": 50
  },
  {
    "geonameId": 59683,
    "name": "Fua Daua",
    "latitude": -1.16667,
    "longitude": 41.81667,
    "category": "Island",
    "subcategory": "Island",
    "featured": false,
    "priority": 50
  },
  {
    "geonameId": 59662,
    "name": "Furro",
    "latitude": -0.5347,
    "longitude": 42.4252,
    "category": "Island",
    "subcategory": "Island Group",
    "featured": false,
    "priority": 50
  },
  {
    "geonameId": 59646,
    "name": "Fuuriye",
    "latitude": 11.591,
    "longitude": 50.413,
    "category": "Mountain",
    "subcategory": "Mountain",
    "featured": false,
    "priority": 50
  },
  {
    "geonameId": 59643,
    "name": "Fuyuuma",
    "latitude": -0.5576,
    "longitude": 42.4026,
    "category": "Island",
    "subcategory": "Island Group",
    "featured": false,
    "priority": 50
  },
  {
    "geonameId": 59611,
    "name": "Gaalkacyo",
    "latitude": 6.76972,
    "longitude": 47.43083,
    "category": "City",
    "subcategory": "Regional Capital",
    "featured": false,
    "priority": 50
  },
  {
    "geonameId": 59584,
    "name": "Gaar Weyn",
    "latitude": 11.6755,
    "longitude": 50.6298,
    "category": "Mountain",
    "subcategory": "Mountain",
    "featured": false,
    "priority": 50
  },
  {
    "geonameId": 59554,
    "name": "Gabarsaar",
    "latitude": 10.9505,
    "longitude": 48.2128,
    "category": "Mountain",
    "subcategory": "Peak",
    "featured": false,
    "priority": 50
  },
  {
    "geonameId": 8346219,
    "name": "Gabdon",
    "latitude": 10.15511,
    "longitude": 42.98011,
    "category": "Mountain",
    "subcategory": "Mountain",
    "featured": false,
    "priority": 50
  },
  {
    "geonameId": 59523,
    "name": "Gacaan",
    "latitude": 11.2183,
    "longitude": 48.3439,
    "category": "Mountain",
    "subcategory": "Mountain",
    "featured": false,
    "priority": 50
  },
  {
    "geonameId": 59521,
    "name": "Gacalgule",
    "latitude": 9.31329,
    "longitude": 48.73526,
    "category": "Mountain",
    "subcategory": "Mountain Pass",
    "featured": false,
    "priority": 50
  },
  {
    "geonameId": 59512,
    "name": "Gacan Libaax",
    "latitude": 9.97161,
    "longitude": 45.02035,
    "category": "Mountain",
    "subcategory": "Mountain",
    "featured": false,
    "priority": 50
  },
  {
    "geonameId": 59509,
    "name": "Gacanteb",
    "latitude": 11.004,
    "longitude": 48.3151,
    "category": "Mountain",
    "subcategory": "Mountain",
    "featured": false,
    "priority": 50
  },
  {
    "geonameId": 59494,
    "name": "Gadh Gumareed",
    "latitude": 9.22422,
    "longitude": 46.4158,
    "category": "Mountain",
    "subcategory": "Mountain",
    "featured": false,
    "priority": 50
  },
  {
    "geonameId": 59491,
    "name": "Gadhka Warsame Xaad",
    "latitude": 9.62253,
    "longitude": 44.55944,
    "category": "Mountain",
    "subcategory": "Mountain",
    "featured": false,
    "priority": 50
  },
  {
    "geonameId": 59486,
    "name": "Gadki Gobli",
    "latitude": 10.63333,
    "longitude": 45.71667,
    "category": "Mountain",
    "subcategory": "Mountain",
    "featured": false,
    "priority": 50
  },
  {
    "geonameId": 59483,
    "name": "Gadob Madani",
    "latitude": 10.33333,
    "longitude": 44.71667,
    "category": "Mountain",
    "subcategory": "Mountain",
    "featured": false,
    "priority": 50
  },
  {
    "geonameId": 59381,
    "name": "Gal Gali",
    "latitude": 3.73388,
    "longitude": 41.85756,
    "category": "Mountain",
    "subcategory": "Mountain",
    "featured": false,
    "priority": 50
  },
  {
    "geonameId": 59345,
    "name": "Gal Kal Shiikh",
    "latitude": 9.80291,
    "longitude": 46.48519,
    "category": "Mountain",
    "subcategory": "Mountain",
    "featured": false,
    "priority": 50
  },
  {
    "geonameId": 59400,
    "name": "Galdays",
    "latitude": 11.1218,
    "longitude": 50.9218,
    "category": "Mountain",
    "subcategory": "Mountain",
    "featured": false,
    "priority": 50
  },
  {
    "geonameId": 59370,
    "name": "Galgodan",
    "latitude": 9.88948,
    "longitude": 45.29495,
    "category": "Mountain",
    "subcategory": "Mountain",
    "featured": false,
    "priority": 50
  },
  {
    "geonameId": 59353,
    "name": "Galiiliye",
    "latitude": 11.5623,
    "longitude": 50.9101,
    "category": "Mountain",
    "subcategory": "Mountain",
    "featured": false,
    "priority": 50
  },
  {
    "geonameId": 59269,
    "name": "Galool Weydle",
    "latitude": 9.58253,
    "longitude": 49.22933,
    "category": "Mountain",
    "subcategory": "Mountain",
    "featured": false,
    "priority": 50
  },
  {
    "geonameId": 59193,
    "name": "Gandur",
    "latitude": 8.3,
    "longitude": 47.36667,
    "category": "Mountain",
    "subcategory": "Mountain",
    "featured": false,
    "priority": 50
  },
  {
    "geonameId": 59179,
    "name": "Gar",
    "latitude": 9.91943,
    "longitude": 45.38163,
    "category": "Mountain",
    "subcategory": "Mountain",
    "featured": false,
    "priority": 50
  },
  {
    "geonameId": 59963,
    "name": "Gar Facanyo",
    "latitude": 11.3973,
    "longitude": 49.5561,
    "category": "Mountain",
    "subcategory": "Mountain",
    "featured": false,
    "priority": 50
  },
  {
    "geonameId": 59176,
    "name": "Garaad",
    "latitude": 10.89811,
    "longitude": 47.7467,
    "category": "Mountain",
    "subcategory": "Mountain Pass",
    "featured": false,
    "priority": 50
  },
  {
    "geonameId": 59175,
    "name": "Garaamuge",
    "latitude": 11.0886,
    "longitude": 48.3691,
    "category": "Mountain",
    "subcategory": "Mountain",
    "featured": false,
    "priority": 50
  },
  {
    "geonameId": 8055329,
    "name": "Garab",
    "latitude": 10.65728,
    "longitude": 46.85509,
    "category": "Mountain",
    "subcategory": "Mountain",
    "featured": false,
    "priority": 50
  },
  {
    "geonameId": 59166,
    "name": "Garab Akoobe",
    "latitude": 2.50315,
    "longitude": 41.72551,
    "category": "Mountain",
    "subcategory": "Mountain",
    "featured": false,
    "priority": 50
  },
  {
    "geonameId": 59149,
    "name": "Garab Qaari",
    "latitude": 10.42959,
    "longitude": 47.38818,
    "category": "Mountain",
    "subcategory": "Mountain",
    "featured": false,
    "priority": 50
  },
  {
    "geonameId": 59140,
    "name": "Garadag",
    "latitude": 9.48828,
    "longitude": 46.8674,
    "category": "City",
    "subcategory": "City",
    "featured": false,
    "priority": 50
  },
  {
    "geonameId": 62992,
    "name": "Garbacaso",
    "latitude": 10.41498,
    "longitude": 43.05808,
    "category": "Mountain",
    "subcategory": "Mountain",
    "featured": false,
    "priority": 50
  },
  {
    "geonameId": 58994,
    "name": "Garbahaarrey",
    "latitude": 3.32892,
    "longitude": 42.22091,
    "category": "City",
    "subcategory": "Regional Capital",
    "featured": false,
    "priority": 50
  },
  {
    "geonameId": 58944,
    "name": "Garile",
    "latitude": 3.24325,
    "longitude": 41.61926,
    "category": "Mountain",
    "subcategory": "Mountain",
    "featured": false,
    "priority": 50
  },
  {
    "geonameId": 54398,
    "name": "Garka Malgoeh",
    "latitude": 10.23333,
    "longitude": 44.68333,
    "category": "Mountain",
    "subcategory": "Mountain",
    "featured": false,
    "priority": 50
  },
  {
    "geonameId": 58933,
    "name": "Garoowe",
    "latitude": 8.40207,
    "longitude": 48.48284,
    "category": "City",
    "subcategory": "Regional Capital",
    "featured": false,
    "priority": 50
  },
  {
    "geonameId": 58858,
    "name": "Gawir",
    "latitude": 10.9479,
    "longitude": 48.2608,
    "category": "Mountain",
    "subcategory": "Peak",
    "featured": false,
    "priority": 50
  },
  {
    "geonameId": 58840,
    "name": "Geba Geba",
    "latitude": 9.73333,
    "longitude": 45.88333,
    "category": "Mountain",
    "subcategory": "Mountain",
    "featured": false,
    "priority": 50
  },
  {
    "geonameId": 58831,
    "name": "Gebiley",
    "latitude": 9.70028,
    "longitude": 43.62444,
    "category": "City",
    "subcategory": "City",
    "featured": false,
    "priority": 50
  },
  {
    "geonameId": 58826,
    "name": "Gedariyu",
    "latitude": 10.63333,
    "longitude": 48.45,
    "category": "Mountain",
    "subcategory": "Mountain",
    "featured": false,
    "priority": 50
  },
  {
    "geonameId": 58816,
    "name": "Gedeis",
    "latitude": 9.91667,
    "longitude": 45.38333,
    "category": "Mountain",
    "subcategory": "Mountain",
    "featured": false,
    "priority": 50
  },
  {
    "geonameId": 8042709,
    "name": "Geed Galdiiley",
    "latitude": 10.351,
    "longitude": 43.07912,
    "category": "Mountain",
    "subcategory": "Mountain",
    "featured": false,
    "priority": 50
  },
  {
    "geonameId": 58767,
    "name": "Geedkulanle",
    "latitude": 10.46445,
    "longitude": 43.27965,
    "category": "Mountain",
    "subcategory": "Mountain",
    "featured": false,
    "priority": 50
  },
  {
    "geonameId": 58741,
    "name": "Geel Fadhi",
    "latitude": 11.2202,
    "longitude": 50.9644,
    "category": "Mountain",
    "subcategory": "Mountain",
    "featured": false,
    "priority": 50
  },
  {
    "geonameId": 58729,
    "name": "Geeljoogo",
    "latitude": 11.10052,
    "longitude": 48.86408,
    "category": "Mountain",
    "subcategory": "Mountain",
    "featured": false,
    "priority": 50
  },
  {
    "geonameId": 8056588,
    "name": "Geellaaye",
    "latitude": 10.0388,
    "longitude": 44.1852,
    "category": "Mountain",
    "subcategory": "Mountain",
    "featured": false,
    "priority": 50
  },
  {
    "geonameId": 58724,
    "name": "Geelloofuul",
    "latitude": 10.4611,
    "longitude": 43.4834,
    "category": "Mountain",
    "subcategory": "Mountain",
    "featured": false,
    "priority": 50
  },
  {
    "geonameId": 58718,
    "name": "Geelwanaaje",
    "latitude": 10.56106,
    "longitude": 43.02953,
    "category": "Mountain",
    "subcategory": "Mountain",
    "featured": false,
    "priority": 50
  },
  {
    "geonameId": 58642,
    "name": "Geerigo’an",
    "latitude": 10.1836,
    "longitude": 44.4517,
    "category": "Mountain",
    "subcategory": "Mountain",
    "featured": false,
    "priority": 50
  },
  {
    "geonameId": 58641,
    "name": "Geerigo’an Yar",
    "latitude": 10.04113,
    "longitude": 44.31696,
    "category": "Mountain",
    "subcategory": "Mountain",
    "featured": false,
    "priority": 50
  },
  {
    "geonameId": 58709,
    "name": "Geerigoan",
    "latitude": 10.38407,
    "longitude": 43.14513,
    "category": "Mountain",
    "subcategory": "Mountain",
    "featured": false,
    "priority": 50
  },
  {
    "geonameId": 58694,
    "name": "Gegabodle",
    "latitude": 10.5,
    "longitude": 43.2,
    "category": "Mountain",
    "subcategory": "Mountain",
    "featured": false,
    "priority": 50
  },
  {
    "geonameId": 58653,
    "name": "Gerigoaan",
    "latitude": 9.66116,
    "longitude": 46.47251,
    "category": "Mountain",
    "subcategory": "Mountain",
    "featured": false,
    "priority": 50
  },
  {
    "geonameId": 58635,
    "name": "Geshalaal",
    "latitude": 11.0309,
    "longitude": 48.4267,
    "category": "Mountain",
    "subcategory": "Mountain",
    "featured": false,
    "priority": 50
  },
  {
    "geonameId": 58592,
    "name": "Gherbo",
    "latitude": 4.81667,
    "longitude": 45.43333,
    "category": "Mountain",
    "subcategory": "Mountain",
    "featured": false,
    "priority": 50
  },
  {
    "geonameId": 58546,
    "name": "Gidil",
    "latitude": 9.95899,
    "longitude": 45.23774,
    "category": "Mountain",
    "subcategory": "Mountain",
    "featured": false,
    "priority": 50
  },
  {
    "geonameId": 58516,
    "name": "Girigoyan",
    "latitude": 10.30237,
    "longitude": 45.01673,
    "category": "Mountain",
    "subcategory": "Mountain",
    "featured": false,
    "priority": 50
  },
  {
    "geonameId": 58482,
    "name": "Gob Dheere",
    "latitude": 10.07636,
    "longitude": 45.20318,
    "category": "Mountain",
    "subcategory": "Mountain",
    "featured": false,
    "priority": 50
  },
  {
    "geonameId": 58436,
    "name": "Godad Minanle",
    "latitude": 11.1324,
    "longitude": 48.3584,
    "category": "Mountain",
    "subcategory": "Mountain",
    "featured": false,
    "priority": 50
  },
  {
    "geonameId": 58430,
    "name": "Godani",
    "latitude": 10.0141,
    "longitude": 45.7133,
    "category": "Mountain",
    "subcategory": "Mountain",
    "featured": false,
    "priority": 50
  },
  {
    "geonameId": 58385,
    "name": "Godlebile",
    "latitude": 9.11667,
    "longitude": 46.73333,
    "category": "Mountain",
    "subcategory": "Mountain",
    "featured": false,
    "priority": 50
  },
  {
    "geonameId": 58329,
    "name": "Gogolmadoone",
    "latitude": 9.01674,
    "longitude": 46.1788,
    "category": "Mountain",
    "subcategory": "Mountain",
    "featured": false,
    "priority": 50
  },
  {
    "geonameId": 58302,
    "name": "Goldoth Pass",
    "latitude": 9.88333,
    "longitude": 45.08333,
    "category": "Mountain",
    "subcategory": "Mountain Pass",
    "featured": false,
    "priority": 50
  },
  {
    "geonameId": 58217,
    "name": "Goodiray",
    "latitude": 10.39152,
    "longitude": 42.95144,
    "category": "Mountain",
    "subcategory": "Mountain",
    "featured": false,
    "priority": 50
  },
  {
    "geonameId": 58216,
    "name": "Goodire",
    "latitude": 10.1575,
    "longitude": 43.0894,
    "category": "Mountain",
    "subcategory": "Mountain",
    "featured": false,
    "priority": 50
  },
  {
    "geonameId": 58194,
    "name": "Goohle",
    "latitude": 10.47539,
    "longitude": 43.0524,
    "category": "Mountain",
    "subcategory": "Mountain",
    "featured": false,
    "priority": 50
  },
  {
    "geonameId": 58163,
    "name": "Gora Dega",
    "latitude": 9.8,
    "longitude": 47,
    "category": "Mountain",
    "subcategory": "Mountain",
    "featured": false,
    "priority": 50
  },
  {
    "geonameId": 58165,
    "name": "Gora’ale",
    "latitude": 10.91667,
    "longitude": 43.05,
    "category": "Mountain",
    "subcategory": "Mountain",
    "featured": false,
    "priority": 50
  },
  {
    "geonameId": 58147,
    "name": "Goray",
    "latitude": 9.00997,
    "longitude": 47.84865,
    "category": "Mountain",
    "subcategory": "Mountain",
    "featured": false,
    "priority": 50
  },
  {
    "geonameId": 58116,
    "name": "Gorgor",
    "latitude": 10.9349,
    "longitude": 47.4757,
    "category": "Mountain",
    "subcategory": "Mountain",
    "featured": false,
    "priority": 50
  },
  {
    "geonameId": 58051,
    "name": "Great Gap",
    "latitude": 10.36667,
    "longitude": 45.11667,
    "category": "Mountain",
    "subcategory": "Mountain Pass",
    "featured": false,
    "priority": 50
  },
  {
    "geonameId": 58007,
    "name": "Gubane",
    "latitude": 10.4123,
    "longitude": 46.0958,
    "category": "Mountain",
    "subcategory": "Mountain",
    "featured": false,
    "priority": 50
  },
  {
    "geonameId": 57955,
    "name": "Gud Gabobe",
    "latitude": 9.36667,
    "longitude": 47.3,
    "category": "Mountain",
    "subcategory": "Mountain",
    "featured": false,
    "priority": 50
  },
  {
    "geonameId": 57960,
    "name": "Gudaneh",
    "latitude": 10.06667,
    "longitude": 44.06667,
    "category": "Mountain",
    "subcategory": "Mountain",
    "featured": false,
    "priority": 50
  },
  {
    "geonameId": 57942,
    "name": "Gudmahaadle",
    "latitude": 10.1854,
    "longitude": 46.9254,
    "category": "Mountain",
    "subcategory": "Mountain",
    "featured": false,
    "priority": 50
  },
  {
    "geonameId": 57923,
    "name": "Gududu",
    "latitude": 10.27866,
    "longitude": 44.72977,
    "category": "Mountain",
    "subcategory": "Mountain",
    "featured": false,
    "priority": 50
  },
  {
    "geonameId": 57909,
    "name": "Guduud",
    "latitude": 11.124,
    "longitude": 49.2255,
    "category": "Mountain",
    "subcategory": "Mountain",
    "featured": false,
    "priority": 50
  },
  {
    "geonameId": 57843,
    "name": "Gumaani",
    "latitude": -1.1267,
    "longitude": 41.78145,
    "category": "Island",
    "subcategory": "Island",
    "featured": false,
    "priority": 50
  },
  {
    "geonameId": 57837,
    "name": "Gumar",
    "latitude": 11.0518,
    "longitude": 50.9051,
    "category": "Mountain",
    "subcategory": "Mountain",
    "featured": false,
    "priority": 50
  },
  {
    "geonameId": 61872,
    "name": "Gumbur Danop",
    "latitude": 10.23333,
    "longitude": 43.18333,
    "category": "Mountain",
    "subcategory": "Mountain",
    "featured": false,
    "priority": 50
  },
  {
    "geonameId": 61063,
    "name": "Gumbur Dhooble",
    "latitude": 9.86682,
    "longitude": 47.06332,
    "category": "Mountain",
    "subcategory": "Mountain",
    "featured": false,
    "priority": 50
  },
  {
    "geonameId": 57774,
    "name": "Guraan",
    "latitude": 3.87451,
    "longitude": 42.81437,
    "category": "Mountain",
    "subcategory": "Mountain",
    "featured": false,
    "priority": 50
  },
  {
    "geonameId": 57702,
    "name": "Gut Liibon",
    "latitude": 1.07698,
    "longitude": 43.40917,
    "category": "Lake",
    "subcategory": "Lake",
    "featured": false,
    "priority": 50
  },
  {
    "geonameId": 57689,
    "name": "Guud Morooro",
    "latitude": 11.0406,
    "longitude": 48.308,
    "category": "Mountain",
    "subcategory": "Mountain",
    "featured": false,
    "priority": 50
  },
  {
    "geonameId": 57674,
    "name": "Guumme",
    "latitude": -0.72569,
    "longitude": 42.28537,
    "category": "Island",
    "subcategory": "Island",
    "featured": false,
    "priority": 50
  },
  {
    "geonameId": 57664,
    "name": "Guuwa",
    "latitude": -0.78642,
    "longitude": 42.23623,
    "category": "Island",
    "subcategory": "Island",
    "featured": false,
    "priority": 50
  },
  {
    "geonameId": 57633,
    "name": "Habaarso",
    "latitude": 10.38662,
    "longitude": 47.42623,
    "category": "Mountain",
    "subcategory": "Mountain",
    "featured": false,
    "priority": 50
  },
  {
    "geonameId": 57604,
    "name": "Habaryaale",
    "latitude": 11.0175,
    "longitude": 48.9573,
    "category": "Mountain",
    "subcategory": "Mountain",
    "featured": false,
    "priority": 50
  },
  {
    "geonameId": 57590,
    "name": "Habkola",
    "latitude": 9.93333,
    "longitude": 43.71667,
    "category": "Mountain",
    "subcategory": "Mountain",
    "featured": false,
    "priority": 50
  },
  {
    "geonameId": 57575,
    "name": "Had",
    "latitude": 11.66667,
    "longitude": 50.65,
    "category": "Mountain",
    "subcategory": "Mountain",
    "featured": false,
    "priority": 50
  },
  {
    "geonameId": 57521,
    "name": "Hagarer",
    "latitude": 8.41667,
    "longitude": 47.16667,
    "category": "Mountain",
    "subcategory": "Mountain",
    "featured": false,
    "priority": 50
  },
  {
    "geonameId": 57465,
    "name": "Hal Madow",
    "latitude": 11.704,
    "longitude": 51.1808,
    "category": "Mountain",
    "subcategory": "Mountain",
    "featured": false,
    "priority": 50
  },
  {
    "geonameId": 57461,
    "name": "Halolai",
    "latitude": 10.18333,
    "longitude": 47.45,
    "category": "Mountain",
    "subcategory": "Mountain",
    "featured": false,
    "priority": 50
  },
  {
    "geonameId": 57447,
    "name": "Hama Kadurduris",
    "latitude": 10.35186,
    "longitude": 47.31086,
    "category": "Mountain",
    "subcategory": "Mountain",
    "featured": false,
    "priority": 50
  },
  {
    "geonameId": 57434,
    "name": "Hambôs",
    "latitude": 11.13333,
    "longitude": 43.18333,
    "category": "Mountain",
    "subcategory": "Mountain",
    "featured": false,
    "priority": 50
  },
  {
    "geonameId": 57431,
    "name": "Hamham",
    "latitude": 10.25,
    "longitude": 47,
    "category": "Mountain",
    "subcategory": "Mountain",
    "featured": false,
    "priority": 50
  },
  {
    "geonameId": 57380,
    "name": "Har",
    "latitude": 11.1084,
    "longitude": 49.372,
    "category": "Mountain",
    "subcategory": "Mountain",
    "featured": false,
    "priority": 50
  },
  {
    "geonameId": 57326,
    "name": "Hareeri",
    "latitude": 11.0332,
    "longitude": 50.3725,
    "category": "Mountain",
    "subcategory": "Mountain",
    "featured": false,
    "priority": 50
  },
  {
    "geonameId": 57289,
    "name": "Hargeysa",
    "latitude": 9.56,
    "longitude": 44.065,
    "category": "City",
    "subcategory": "Regional Capital",
    "featured": false,
    "priority": 50
  },
  {
    "geonameId": 8042706,
    "name": "Haro",
    "latitude": 10.40402,
    "longitude": 43.07788,
    "category": "Mountain",
    "subcategory": "Mountain",
    "featured": false,
    "priority": 50
  },
  {
    "geonameId": 57156,
    "name": "Hel Maraale",
    "latitude": 8.65944,
    "longitude": 46.37915,
    "category": "Mountain",
    "subcategory": "Mountain Pass",
    "featured": false,
    "priority": 50
  },
  {
    "geonameId": 57155,
    "name": "Hel Marale Pass",
    "latitude": 8.7,
    "longitude": 46.41667,
    "category": "Mountain",
    "subcategory": "Mountain Pass",
    "featured": false,
    "priority": 50
  },
  {
    "geonameId": 57121,
    "name": "Her Mudo",
    "latitude": 11.25,
    "longitude": 49.75,
    "category": "Mountain",
    "subcategory": "Mountain",
    "featured": false,
    "priority": 50
  },
  {
    "geonameId": 57118,
    "name": "Herolagouderire",
    "latitude": 10.18078,
    "longitude": 42.9574,
    "category": "Mountain",
    "subcategory": "Mountain",
    "featured": false,
    "priority": 50
  },
  {
    "geonameId": 57111,
    "name": "Heybo",
    "latitude": 2.9978,
    "longitude": 44.2996,
    "category": "Mountain",
    "subcategory": "Mountain",
    "featured": false,
    "priority": 50
  },
  {
    "geonameId": 57072,
    "name": "Higlomaroodi",
    "latitude": 8.20266,
    "longitude": 47.93476,
    "category": "Mountain",
    "subcategory": "Mountain",
    "featured": false,
    "priority": 50
  },
  {
    "geonameId": 8073688,
    "name": "Hiniile",
    "latitude": 10.15752,
    "longitude": 45.48852,
    "category": "Mountain",
    "subcategory": "Mountain",
    "featured": false,
    "priority": 50
  },
  {
    "geonameId": 57018,
    "name": "Hirad Giire",
    "latitude": 10.33144,
    "longitude": 42.97986,
    "category": "Mountain",
    "subcategory": "Mountain",
    "featured": false,
    "priority": 50
  },
  {
    "geonameId": 57016,
    "name": "Hirido",
    "latitude": 10.9552,
    "longitude": 48.8278,
    "category": "Mountain",
    "subcategory": "Mountain",
    "featured": false,
    "priority": 50
  },
  {
    "geonameId": 57000,
    "name": "Hobyo",
    "latitude": 5.3505,
    "longitude": 48.5268,
    "category": "City",
    "subcategory": "County Seat",
    "featured": false,
    "priority": 50
  },
  {
    "geonameId": 13494275,
    "name": "Hobyo Marine Protected Area",
    "latitude": 5.13166,
    "longitude": 48.47445,
    "category": "Park",
    "subcategory": "Nature Reserve",
    "featured": false,
    "priority": 50
  },
  {
    "geonameId": 56996,
    "name": "Hodda",
    "latitude": 11.58333,
    "longitude": 50.58333,
    "category": "Mountain",
    "subcategory": "Mountain",
    "featured": false,
    "priority": 50
  },
  {
    "geonameId": 56983,
    "name": "Hog Canjeel",
    "latitude": 11.8656,
    "longitude": 50.9565,
    "category": "Mountain",
    "subcategory": "Mountain",
    "featured": false,
    "priority": 50
  },
  {
    "geonameId": 56973,
    "name": "Hohrma Yera",
    "latitude": 10.08333,
    "longitude": 44.25,
    "category": "Mountain",
    "subcategory": "Mountain",
    "featured": false,
    "priority": 50
  },
  {
    "geonameId": 56999,
    "name": "Hokoba",
    "latitude": 2.46574,
    "longitude": 41.80802,
    "category": "Mountain",
    "subcategory": "Mountain",
    "featured": false,
    "priority": 50
  },
  {
    "geonameId": 56935,
    "name": "Hool",
    "latitude": 3.55766,
    "longitude": 41.94524,
    "category": "Mountain",
    "subcategory": "Mountain",
    "featured": false,
    "priority": 50
  },
  {
    "geonameId": 56932,
    "name": "Hoolif",
    "latitude": 11.11247,
    "longitude": 48.81217,
    "category": "Mountain",
    "subcategory": "Mountain",
    "featured": false,
    "priority": 50
  },
  {
    "geonameId": 56905,
    "name": "Hormayare",
    "latitude": 10.38468,
    "longitude": 43.31943,
    "category": "Mountain",
    "subcategory": "Mountain",
    "featured": false,
    "priority": 50
  },
  {
    "geonameId": 56899,
    "name": "Horsasamma",
    "latitude": 8.95,
    "longitude": 47.88333,
    "category": "Mountain",
    "subcategory": "Mountain",
    "featured": false,
    "priority": 50
  },
  {
    "geonameId": 56870,
    "name": "Hugfa",
    "latitude": 11.4333,
    "longitude": 49.5922,
    "category": "Mountain",
    "subcategory": "Mountain",
    "featured": false,
    "priority": 50
  },
  {
    "geonameId": 56813,
    "name": "Hurarka",
    "latitude": 10.66667,
    "longitude": 47.1,
    "category": "Mountain",
    "subcategory": "Mountain",
    "featured": false,
    "priority": 50
  },
  {
    "geonameId": 56770,
    "name": "Ibaney",
    "latitude": 11.1103,
    "longitude": 49.2912,
    "category": "Mountain",
    "subcategory": "Mountain",
    "featured": false,
    "priority": 50
  },
  {
    "geonameId": 8308828,
    "name": "Idoore",
    "latitude": 10.43614,
    "longitude": 43.07952,
    "category": "Mountain",
    "subcategory": "Mountain",
    "featured": false,
    "priority": 50
  },
  {
    "geonameId": 56703,
    "name": "Iidle Afxiid",
    "latitude": 10.22633,
    "longitude": 43.12048,
    "category": "Mountain",
    "subcategory": "Mountain",
    "featured": false,
    "priority": 50
  },