[
  {
    "geonameId": 3384844,
    "name": "Adadien Soela",
    "latitude": 3.73333,
    "longitude": -55.8,
    "category": "Waterfall",
    "subcategory": "Waterfall",
    "featured": false,
    "priority": 50
  },
  {
    "geonameId": 3384837,
    "name": "Adelaarstop",
    "latitude": 5.05739,
    "longitude": -54.73739,
    "category": "Mountain",
    "subcategory": "Mountain",
    "featured": false,
    "priority": 50
  },
  {
    "geonameId": 3384835,
    "name": "Adidon Vallen",
    "latitude": 3.71667,
    "longitude": -55.83333,
    "category": "Waterfall",
    "subcategory": "Waterfall",
    "featured": false,
    "priority": 50
  },
  {
    "geonameId": 3384828,
    "name": "Adoemansingie Soela",
    "latitude": 3.65,
    "longitude": -54.93333,
    "category": "Waterfall",
    "subcategory": "Waterfall",
    "featured": false,
    "priority": 50
  },
  {
    "geonameId": 3384801,
    "name": "Akredibotto Prati",
    "latitude": 4.43333,
    "longitude": -55.76667,
    "category": "Island",
    "subcategory": "Island",
    "featured": false,
    "priority": 50
  },
  {
    "geonameId": 3384792,
    "name": "Albina",
    "latitude": 5.49788,
    "longitude": -54.05522,
    "category": "City",
    "subcategory": "Regional Capital",
    "featured": false,
    "priority": 50
  },
  {
    "geonameId": 3384788,
    "name": "Alkmaar",
    "latitude": 5.84905,
    "longitude": -55.01773,
    "category": "City",
    "subcategory": "City",
    "featured": false,
    "priority": 50
  },
  {
    "geonameId": 3384787,
    "name": "Allemandidon Val",
    "latitude": 3.48333,
    "longitude": -55.3,
    "category": "Waterfall",
    "subcategory": "Waterfall",
    "featured": false,
    "priority": 50
  },
  {
    "geonameId": 3384783,
    "name": "Alobbienni Prati",
    "latitude": 4.51667,
    "longitude": -55.73333,
    "category": "Island",
    "subcategory": "Island",
    "featured": false,
    "priority": 50
  },
  {
    "geonameId": 3384768,
    "name": "Ananas Berg",
    "latitude": 3.56667,
    "longitude": -55.65,
    "category": "Mountain",
    "subcategory": "Mountain",
    "featured": false,
    "priority": 50
  },
  {
    "geonameId": 3384724,
    "name": "Araparisie Eiland",
    "latitude": 5.00681,
    "longitude": -57.50203,
    "category": "Island",
    "subcategory": "Island",
    "featured": false,
    "priority": 50
  },
  {
    "geonameId": 3384714,
    "name": "Aroeaba Tabbetje",
    "latitude": 5.58128,
    "longitude": -54.02291,
    "category": "Island",
    "subcategory": "Island",
    "featured": false,
    "priority": 50
  },
  {
    "geonameId": 3384712,
    "name": "Arouaba Eilanden",
    "latitude": 5.58318,
    "longitude": -54.01773,
    "category": "Island",
    "subcategory": "Island Group",
    "featured": false,
    "priority": 50
  },
  {
    "geonameId": 3384711,
    "name": "Arouaba Noord",
    "latitude": 5.60883,
    "longitude": -54.01408,
    "category": "Island",
    "subcategory": "Island",
    "featured": false,
    "priority": 50
  },
  {
    "geonameId": 3384710,
    "name": "Arouaba Oost",
    "latitude": 5.57504,
    "longitude": -54.01073,
    "category": "Island",
    "subcategory": "Island",
    "featured": false,
    "priority": 50
  },
  {
    "geonameId": 3384709,
    "name": "Arouaba Tabbetje",
    "latitude": 5.58333,
    "longitude": -54.03333,
    "category": "Island",
    "subcategory": "Island",
    "featured": false,
    "priority": 50
  },
  {
    "geonameId": 3384708,
    "name": "Arouaba Zuid",
    "latitude": 5.55933,
    "longitude": -54.01537,
    "category": "Island",
    "subcategory": "Island",
    "featured": false,
    "priority": 50
  },
  {
    "geonameId": 3384704,
    "name": "Asalobi Tabbetje",
    "latitude": 5.04931,
    "longitude": -54.4258,
    "category": "Island",
    "subcategory": "Island",
    "featured": false,
    "priority": 50
  },
  {
    "geonameId": 3384697,
    "name": "Assadam Tabriki",
    "latitude": 3.57903,
    "longitude": -53.99233,
    "category": "Island",
    "subcategory": "Island",
    "featured": false,
    "priority": 50
  },
  {
    "geonameId": 3384695,
    "name": "Assipoya Eiland",
    "latitude": 4.91667,
    "longitude": -57.76667,
    "category": "Island",
    "subcategory": "Island",
    "featured": false,
    "priority": 50
  },
  {
    "geonameId": 3384693,
    "name": "Assirikamo Eiland",
    "latitude": 5.25983,
    "longitude": -57.24742,
    "category": "Island",
    "subcategory": "Island",
    "featured": false,
    "priority": 50
  },
  {
    "geonameId": 3384679,
    "name": "Avanavero Falls",
    "latitude": 4.82522,
    "longitude": -57.36203,
    "category": "Waterfall",
    "subcategory": "Waterfall",
    "featured": false,
    "priority": 50
  },
  {
    "geonameId": 3384675,
    "name": "Awallatabriki",
    "latitude": 4.98487,
    "longitude": -55.54223,
    "category": "Island",
    "subcategory": "Island",
    "featured": false,
    "priority": 50
  },
  {
    "geonameId": 3384668,
    "name": "Baas Bari Val",
    "latitude": 5.06667,
    "longitude": -56.68333,
    "category": "Waterfall",
    "subcategory": "Waterfall",
    "featured": false,
    "priority": 50
  },
  {
    "geonameId": 3384666,
    "name": "Baboen Eiland",
    "latitude": 4.1,
    "longitude": -54.68333,
    "category": "Island",
    "subcategory": "Island",
    "featured": false,
    "priority": 50
  },
  {
    "geonameId": 3382484,
    "name": "Bada Tabiki",
    "latitude": 4.8891,
    "longitude": -54.47239,
    "category": "Island",
    "subcategory": "Island",
    "featured": false,
    "priority": 50
  },
  {
    "geonameId": 3384659,
    "name": "Bakama Prati",
    "latitude": 4.66667,
    "longitude": -55.6,
    "category": "Island",
    "subcategory": "Island",
    "featured": false,
    "priority": 50
  },
  {
    "geonameId": 3384649,
    "name": "Ballingsoela",
    "latitude": 5.02246,
    "longitude": -54.98797,
    "category": "Waterfall",
    "subcategory": "Waterfall",
    "featured": false,
    "priority": 50
  },
  {
    "geonameId": 3384626,
    "name": "Baviaan Eilanden",
    "latitude": 5.54387,
    "longitude": -57.15263,
    "category": "Island",
    "subcategory": "Island Group",
    "featured": false,
    "priority": 50
  },
  {
    "geonameId": 3384614,
    "name": "Bemau Top",
    "latitude": 4.89967,
    "longitude": -55.62741,
    "category": "Mountain",
    "subcategory": "Mountain",
    "featured": false,
    "priority": 50
  },
  {
    "geonameId": 3384587,
    "name": "Bigi Pan",
    "latitude": 5.9474,
    "longitude": -56.83584,
    "category": "Lake",
    "subcategory": "Lake",
    "featured": false,
    "priority": 50
  },
  {
    "geonameId": 3384579,
    "name": "Bisschop Eilanden",
    "latitude": 5.47272,
    "longitude": -57.25761,
    "category": "Island",
    "subcategory": "Island Group",
    "featured": false,
    "priority": 50
  },
  {
    "geonameId": 3384564,
    "name": "Blanche Marie Vallen",
    "latitude": 4.74899,
    "longitude": -56.8513,
    "category": "Waterfall",
    "subcategory": "Waterfall",
    "featured": false,
    "priority": 50
  },
  {
    "geonameId": 3384539,
    "name": "Bolletrie Val",
    "latitude": 4.26362,
    "longitude": -56.40304,
    "category": "Waterfall",
    "subcategory": "Waterfall",
    "featured": false,
    "priority": 50
  },
  {
    "geonameId": 3384535,
    "name": "Bonaparte Eiland",
    "latitude": 5.73963,
    "longitude": -57.14535,
    "category": "Island",
    "subcategory": "Island",
    "featured": false,
    "priority": 50
  },
  {
    "geonameId": 3384482,
    "name": "Brokopondo",
    "latitude": 5.05594,
    "longitude": -54.98043,
    "category": "City",
    "subcategory": "Regional Capital",
    "featured": false,
    "priority": 50
  },
  {
    "geonameId": 10350918,
    "name": "Capasie Eiland",
    "latitude": 4.88239,
    "longitude": -55.08626,
    "category": "Island",
    "subcategory": "Island",
    "featured": false,
    "priority": 50
  },
  {
    "geonameId": 3384439,
    "name": "Champion Vallen",
    "latitude": 4.78754,
    "longitude": -57.3758,
    "category": "Waterfall",
    "subcategory": "Waterfall",
    "featured": false,
    "priority": 50
  },
  {
    "geonameId": 3384435,
    "name": "Christmas Val",
    "latitude": 4.01667,
    "longitude": -57.51667,
    "category": "Waterfall",
    "subcategory": "Waterfall",
    "featured": false,
    "priority": 50
  },
  {
    "geonameId": 3384402,
    "name": "Corantijn Projekt",
    "latitude": 4.83333,
    "longitude": -57.83333,
    "category": "Lake",
    "subcategory": "Reservoir",
    "featured": false,
    "priority": 50
  },
  {
    "geonameId": 3384379,
    "name": "Cremer Val",
    "latitude": 4.26667,
    "longitude": -56.41667,
    "category": "Waterfall",
    "subcategory": "Waterfall",
    "featured": false,
    "priority": 50
  },
  {
    "geonameId": 3384369,
    "name": "Daboesagara Tabbetje",
    "latitude": 5.28333,
    "longitude": -54.26667,
    "category": "Island",
    "subcategory": "Island",
    "featured": false,
    "priority": 50
  },
  {
    "geonameId": 3384350,
    "name": "De Drie Zusters Eilanden",
    "latitude": 5.66667,
    "longitude": -57.15,
    "category": "Island",
    "subcategory": "Island Group",
    "featured": false,
    "priority": 50
  },
  {
    "geonameId": 3384351,
    "name": "De Driezusters Eiland",
    "latitude": 5.67002,
    "longitude": -57.12781,
    "category": "Island",
    "subcategory": "Island",
    "featured": false,
    "priority": 50
  },
  {
    "geonameId": 3384337,
    "name": "De Kock Berg",
    "latitude": 3.78333,
    "longitude": -56.08333,
    "category": "Mountain",
    "subcategory": "Mountain",
    "featured": false,
    "priority": 50
  },
  {
    "geonameId": 3384288,
    "name": "Dreefoetoe Soela",
    "latitude": 4.59768,
    "longitude": -56.50261,
    "category": "Waterfall",
    "subcategory": "Waterfall",
    "featured": false,
    "priority": 50
  },
  {
    "geonameId": 3384283,
    "name": "Drie Zusters Val",
    "latitude": 5.01493,
    "longitude": -56.73449,
    "category": "Waterfall",
    "subcategory": "Waterfall",
    "featured": false,
    "priority": 50
  },
  {
    "geonameId": 3384280,
    "name": "Duiven Eiland",
    "latitude": 5.54623,
    "longitude": -54.01317,
    "category": "Island",
    "subcategory": "Island",
    "featured": false,
    "priority": 50
  },
  {
    "geonameId": 3384278,
    "name": "Ebba Top",
    "latitude": 4.35725,
    "longitude": -55.67464,
    "category": "Mountain",
    "subcategory": "Peak",
    "featured": false,
    "priority": 50
  },
  {
    "geonameId": 3384273,
    "name": "Eilanti",
    "latitude": 5.82116,
    "longitude": -54.02188,
    "category": "Park",
    "subcategory": "Nature Reserve",
    "featured": false,
    "priority": 50
  },
  {
    "geonameId": 3384261,
    "name": "Eponoe Tabriki",
    "latitude": 3.52012,
    "longitude": -54.00411,
    "category": "Island",
    "subcategory": "Island",
    "featured": false,
    "priority": 50
  },
  {
    "geonameId": 3384254,
    "name": "Fatoeswietie Gebergte",
    "latitude": 3.63333,
    "longitude": -54.16667,
    "category": "Mountain",
    "subcategory": "Mountain",
    "featured": false,
    "priority": 50
  },
  {
    "geonameId": 3384250,
    "name": "Feroelasie Val",
    "latitude": 4.39,
    "longitude": -55.38899,
    "category": "Waterfall",
    "subcategory": "Waterfall",
    "featured": false,
    "priority": 50
  },
  {
    "geonameId": 3384246,
    "name": "Fijikkoe Prati",
    "latitude": 4.06667,
    "longitude": -55.88333,
    "category": "Island",
    "subcategory": "Island",
    "featured": false,
    "priority": 50
  },
  {
    "geonameId": 3384239,
    "name": "Foengoe Eiland",
    "latitude": 4.72449,
    "longitude": -56.20015,
    "category": "Island",
    "subcategory": "Island",
    "featured": false,
    "priority": 50
  },
  {
    "geonameId": 3384237,
    "name": "Foengoe Tabbetje",
    "latitude": 4.58333,
    "longitude": -56.18333,
    "category": "Island",
    "subcategory": "Island",
    "featured": false,
    "priority": 50
  },
  {
    "geonameId": 3384230,
    "name": "Franssen Herderschee Piek",
    "latitude": 3.43333,
    "longitude": -55.96667,
    "category": "Mountain",
    "subcategory": "Peak",
    "featured": false,
    "priority": 50
  },
  {
    "geonameId": 3384227,
    "name": "Frederik Willem IV Vallen",
    "latitude": 3.46667,
    "longitude": -57.61667,
    "category": "Waterfall",
    "subcategory": "Waterfall",
    "featured": false,
    "priority": 50
  },
  {
    "geonameId": 10631406,
    "name": "Gaa Kaba Tabiki",
    "latitude": 4.46786,
    "longitude": -54.44072,
    "category": "Island",
    "subcategory": "Island",
    "featured": false,
    "priority": 50
  },
  {
    "geonameId": 3382307,
    "name": "Gaan Tabiki",
    "latitude": 4.70246,
    "longitude": -54.42457,
    "category": "Island",
    "subcategory": "Island",
    "featured": false,
    "priority": 50
  },
  {
    "geonameId": 3384217,
    "name": "Gado Prati",
    "latitude": 4.53333,
    "longitude": -55.71667,
    "category": "Island",
    "subcategory": "Island",
    "featured": false,
    "priority": 50
  },
  {
    "geonameId": 3384218,
    "name": "Gadokriki Prati",
    "latitude": 4.68333,
    "longitude": -55.56667,
    "category": "Island",
    "subcategory": "Island",
    "featured": false,
    "priority": 50
  },
  {
    "geonameId": 3384200,
    "name": "Geyskes Val",
    "latitude": 3.93333,
    "longitude": -56.18333,
    "category": "Waterfall",
    "subcategory": "Waterfall",
    "featured": false,
    "priority": 50
  },
  {
    "geonameId": 3384182,
    "name": "Goliath Berg",
    "latitude": 5.14261,
    "longitude": -55.63087,
    "category": "Mountain",
    "subcategory": "Mountain",
    "featured": false,
    "priority": 50
  },
  {
    "geonameId": 3384175,
    "name": "Goodalls Val",
    "latitude": 3.35,
    "longitude": -57.48333,
    "category": "Waterfall",
    "subcategory": "Waterfall",
    "featured": false,
    "priority": 50
  },
  {
    "geonameId": 3384163,
    "name": "Gran Dam",
    "latitude": 3.96667,
    "longitude": -55.58333,
    "category": "Waterfall",
    "subcategory": "Waterfall",
    "featured": false,
    "priority": 50
  },
  {
    "geonameId": 3384137,
    "name": "Gran Soela",
    "latitude": 4,
    "longitude": -54.83333,
    "category": "Waterfall",
    "subcategory": "Waterfall",
    "featured": false,
    "priority": 50
  },
  {
    "geonameId": 3384134,
    "name": "Gran Tabbetje",
    "latitude": 4.11667,
    "longitude": -54.73333,
    "category": "Island",
    "subcategory": "Island",
    "featured": false,
    "priority": 50
  },
  {
    "geonameId": 3384161,
    "name": "Grandasingi Soela",
    "latitude": 3.8,
    "longitude": -54.88333,
    "category": "Waterfall",
    "subcategory": "Waterfall",
    "featured": false,
    "priority": 50
  },
  {
    "geonameId": 3384159,
    "name": "Grangron Tabbetje",
    "latitude": 4.16667,
    "longitude": -54.6,
    "category": "Island",
    "subcategory": "Island",
    "featured": false,
    "priority": 50
  },
  {
    "geonameId": 3384157,
    "name": "Granholo Vallen",
    "latitude": 4.1258,
    "longitude": -54.63956,
    "category": "Waterfall",
    "subcategory": "Waterfall",
    "featured": false,
    "priority": 50
  },
  {
    "geonameId": 3384125,
    "name": "Groningen",
    "latitude": 5.8,
    "longitude": -55.46667,
    "category": "City",
    "subcategory": "Regional Capital",
    "featured": false,
    "priority": 50
  },
  {
    "geonameId": 3384124,
    "name": "Groot Baviaan Eiland",
    "latitude": 5.53333,
    "longitude": -57.16667,
    "category": "Island",
    "subcategory": "Island",
    "featured": false,
    "priority": 50
  },
  {
    "geonameId": 3384095,
    "name": "Gwafoe Eiland",
    "latitude": 4.2544,
    "longitude": -55.43881,
    "category": "Island",
    "subcategory": "Island",
    "featured": false,
    "priority": 50
  },
  {
    "geonameId": 3384093,
    "name": "Gwetapoe Val",
    "latitude": 4.32304,
    "longitude": -54.46899,
    "category": "Waterfall",
    "subcategory": "Waterfall",
    "featured": false,
    "priority": 50
  },
  {
    "geonameId": 3384077,
    "name": "Hebiwerie",
    "latitude": 4.41913,
    "longitude": -56.54551,
    "category": "Mountain",
    "subcategory": "Mountain",
    "featured": false,
    "priority": 50
  },
  {
    "geonameId": 3384068,
    "name": "Hendriktop",
    "latitude": 4.19362,
    "longitude": -56.19362,
    "category": "Mountain",
    "subcategory": "Peak",
    "featured": false,
    "priority": 50
  },
  {
    "geonameId": 3384058,
    "name": "Hok-A-Hing Gebergte",
    "latitude": 4.96721,
    "longitude": -54.77067,
    "category": "Mountain",
    "subcategory": "Mountain",
    "featured": false,
    "priority": 50
  },
  {
    "geonameId": 3384051,
    "name": "Idenburg Val",
    "latitude": 3,
    "longitude": -55.86667,
    "category": "Waterfall",
    "subcategory": "Waterfall",
    "featured": false,
    "priority": 50
  },
  {
    "geonameId": 10372248,
    "name": "Île Akinou Gadou",
    "latitude": 5.19724,
    "longitude": -54.32773,
    "category": "Island",
    "subcategory": "Island",
    "featured": false,
    "priority": 50
  },
  {
    "geonameId": 10372249,
    "name": "Île Ponta",
    "latitude": 5.21588,
    "longitude": -54.3153,
    "category": "Island",
    "subcategory": "Island",
    "featured": false,
    "priority": 50
  },
  {
    "geonameId": 10631405,
    "name": "Îlet Langa",
    "latitude": 4.2968,
    "longitude": -54.39595,
    "category": "Island",
    "subcategory": "Island",
    "featured": false,
    "priority": 50
  },
  {
    "geonameId": 3384045,
    "name": "Ingipikin Soela",
    "latitude": 3.48333,
    "longitude": -55.31667,
    "category": "Waterfall",
    "subcategory": "Waterfall",
    "featured": false,
    "priority": 50
  },
  {
    "geonameId": 3384040,
    "name": "Iokepi Tabriki",
    "latitude": 3.56667,
    "longitude": -54,
    "category": "Island",
    "subcategory": "Island",
    "featured": false,
    "priority": 50
  },
  {
    "geonameId": 3384038,
    "name": "Iribaribatoe Eiland",
    "latitude": 5.33333,
    "longitude": -54.18333,
    "category": "Island",
    "subcategory": "Island",
    "featured": false,
    "priority": 50
  },
  {
    "geonameId": 3384020,
    "name": "Jan Bassi Gado",
    "latitude": 4.69739,
    "longitude": -55.65131,
    "category": "Mountain",
    "subcategory": "Mountain",
    "featured": false,
    "priority": 50
  },
  {
    "geonameId": 3384019,
    "name": "Janbasigado Soela",
    "latitude": 4.65,
    "longitude": -55.66667,
    "category": "Waterfall",
    "subcategory": "Waterfall",
    "featured": false,
    "priority": 50
  },
  {
    "geonameId": 13607834,
    "name": "Jarikaba",
    "latitude": 5.80784,
    "longitude": -55.32703,
    "category": "City",
    "subcategory": "City",
    "featured": false,
    "priority": 50
  },
  {
    "geonameId": 3383983,
    "name": "Juda Eiland",
    "latitude": 4.18798,
    "longitude": -55.43444,
    "category": "Island",
    "subcategory": "Island",
    "featured": false,
    "priority": 50
  },
  {
    "geonameId": 3383982,
    "name": "Juliana Top",
    "latitude": 3.68333,
    "longitude": -56.53333,
    "category": "Mountain",
    "subcategory": "Peak",
    "featured": false,
    "priority": 50
  },
  {
    "geonameId": 3383973,
    "name": "Kabalebo Projekt",
    "latitude": 4.74406,
    "longitude": -57.37797,
    "category": "Lake",
    "subcategory": "Reservoir",
    "featured": false,
    "priority": 50
  },
  {
    "geonameId": 3383949,
    "name": "Kamaloea Pratie",
    "latitude": 4.61667,
    "longitude": -55.68333,
    "category": "Island",
    "subcategory": "Island",
    "featured": false,
    "priority": 50
  },
  {
    "geonameId": 3383943,
    "name": "Kampong Baroe",
    "latitude": 5.75,
    "longitude": -55.4,
    "category": "City",
    "subcategory": "County Seat",
    "featured": false,
    "priority": 50
  },
  {
    "geonameId": 3384457,
    "name": "Kapasie Eiland",
    "latitude": 4.44841,
    "longitude": -54.44073,
    "category": "Island",
    "subcategory": "Island",
    "featured": false,
    "priority": 50
  },
  {
    "geonameId": 3383928,
    "name": "Kapoea Tabbetje",
    "latitude": 4.75836,
    "longitude": -54.4709,
    "category": "Island",
    "subcategory": "Island",
    "featured": false,
    "priority": 50
  },
  {
    "geonameId": 3383918,
    "name": "Karmoekel Eiland",
    "latitude": 4.70203,
    "longitude": -57.79623,
    "category": "Island",
    "subcategory": "Island",
    "featured": false,
    "priority": 50
  },
  {
    "geonameId": 3383915,
    "name": "Kasikasima Top",
    "latitude": 2.98333,
    "longitude": -55.41667,
    "category": "Mountain",
    "subcategory": "Mountain",
    "featured": false,
    "priority": 50
  },
  {
    "geonameId": 10645935,
    "name": "Katouko Tabiki",
    "latitude": 4.93394,
    "longitude": -54.45254,
    "category": "Island",
    "subcategory": "Island",
    "featured": false,
    "priority": 50
  },
  {
    "geonameId": 10350978,
    "name": "Kentoegom Eiland",
    "latitude": 4.81354,
    "longitude": -55.11033,
    "category": "Island",
    "subcategory": "Island",
    "featured": false,
    "priority": 50
  },
  {
    "geonameId": 3383899,
    "name": "Kentoetow Val",
    "latitude": 3.48333,
    "longitude": -55.25,
    "category": "Waterfall",
    "subcategory": "Waterfall",
    "featured": false,
    "priority": 50
  },
  {
    "geonameId": 3383893,
    "name": "Kirikagé Eiland",
    "latitude": 5.31696,
    "longitude": -57.27139,
    "category": "Island",
    "subcategory": "Island",
    "featured": false,
    "priority": 50
  },
  {
    "geonameId": 3383892,
    "name": "Kisai",
    "latitude": 4.11667,
    "longitude": -54.7,
    "category": "Island",
    "subcategory": "Island",
    "featured": false,
    "priority": 50
  },
  {
    "geonameId": 3383886,
    "name": "Klein Baviaan Eiland",
    "latitude": 5.53333,
    "longitude": -57.2,
    "category": "Island",
    "subcategory": "Island",
    "featured": false,
    "priority": 50
  },
  {
    "geonameId": 3383868,
    "name": "Klein Saramacca Projekt",
    "latitude": 4.7,
    "longitude": -55.38333,
    "category": "Lake",
    "subcategory": "Reservoir",
    "featured": false,
    "priority": 50
  },
  {
    "geonameId": 3383882,
    "name": "Kleine Hendrik Top",
    "latitude": 4.18333,
    "longitude": -56.16667,
    "category": "Mountain",
    "subcategory": "Peak",
    "featured": false,
    "priority": 50
  },
  {
    "geonameId": 3383864,
    "name": "Knopaiamoi",
    "latitude": 2.46667,
    "longitude": -54.5,
    "category": "Mountain",
    "subcategory": "Mountain",
    "featured": false,
    "priority": 50
  },
  {
    "geonameId": 3383862,
    "name": "Kodebakoe Soela",
    "latitude": 3.48333,
    "longitude": -55.33333,
    "category": "Waterfall",
    "subcategory": "Waterfall",
    "featured": false,
    "priority": 50
  },
  {
    "geonameId": 3383859,
    "name": "Koe en Kalf Eiland",
    "latitude": 5.33333,
    "longitude": -56.05,
    "category": "Island",
    "subcategory": "Island",
    "featured": false,
    "priority": 50
  },
  {
    "geonameId": 3383857,
    "name": "Koekri Eiland",
    "latitude": 5.11567,
    "longitude": -57.27343,
    "category": "Island",
    "subcategory": "Island",
    "featured": false,
    "priority": 50
  },
  {
    "geonameId": 3383850,
    "name": "Koemba Val",
    "latitude": 3.86667,
    "longitude": -55.45,
    "category": "Waterfall",
    "subcategory": "Waterfall",
    "featured": false,
    "priority": 50
  },
  {
    "geonameId": 3383844,
    "name": "Koenaihede Soela",
    "latitude": 4,
    "longitude": -54.81667,
    "category": "Waterfall",
    "subcategory": "Waterfall",
    "featured": false,
    "priority": 50
  },
  {
    "geonameId": 3383831,
    "name": "Koffie Tabbetje",
    "latitude": 4.55,
    "longitude": -56.11667,
    "category": "Island",
    "subcategory": "Island",
    "featured": false,
    "priority": 50
  },
  {
    "geonameId": 3383818,
    "name": "Kordansanti Eiland",
    "latitude": 4.5,
    "longitude": -55.35,
    "category": "Island",
    "subcategory": "Island",
    "featured": false,
    "priority": 50
  },
  {
    "geonameId": 3383807,
    "name": "Krabbe Eiland",
    "latitude": 5.58333,
    "longitude": -57.16667,
    "category": "Island",
    "subcategory": "Island",
    "featured": false,
    "priority": 50
  },
  {
    "geonameId": 3383806,
    "name": "Kraboe-Doin Gebergte",
    "latitude": 4.95739,
    "longitude": -55.33101,
    "category": "Mountain",
    "subcategory": "Mountain",
    "featured": false,
    "priority": 50
  },
  {
    "geonameId": 3383790,
    "name": "Kroetoeberg",
    "latitude": 4.43406,
    "longitude": -56.40073,
    "category": "Mountain",
    "subcategory": "Mountain",
    "featured": false,
    "priority": 50
  },
  {
    "geonameId": 3383765,
    "name": "Kweriman Eiland",
    "latitude": 5.76667,
    "longitude": -57.16667,
    "category": "Island",
    "subcategory": "Island",
    "featured": false,
    "priority": 50
  },
  {
    "geonameId": 3383744,
    "name": "Langa Soela",
    "latitude": 4.68667,
    "longitude": -56.44522,
    "category": "Waterfall",
    "subcategory": "Waterfall",
    "featured": false,
    "priority": 50
  },
  {
    "geonameId": 3383740,
    "name": "Langa Tabbetje",
    "latitude": 5.01444,
    "longitude": -54.44077,
    "category": "Island",
    "subcategory": "Island",
    "featured": false,
    "priority": 50
  },
  {
    "geonameId": 10645930,
    "name": "Langa Tibiki",
    "latitude": 4.26996,
    "longitude": -54.38768,
    "category": "Island",
    "subcategory": "Island",
    "featured": false,
    "priority": 50
  },
  {
    "geonameId": 3383738,
    "name": "Langatetei Gebergte",
    "latitude": 3.9,
    "longitude": -54.3,
    "category": "Mountain",
    "subcategory": "Mountain",
    "featured": false,
    "priority": 50
  },
  {
    "geonameId": 3383736,
    "name": "Lange Eiland",
    "latitude": 5.72343,
    "longitude": -57.16324,
    "category": "Island",
    "subcategory": "Island",
    "featured": false,
    "priority": 50
  },
  {
    "geonameId": 3383733,
    "name": "Lapé Tabriki",
    "latitude": 3.82721,
    "longitude": -54.19941,
    "category": "Island",
    "subcategory": "Island",
    "featured": false,
    "priority": 50
  },
  {
    "geonameId": 10412991,
    "name": "Lawa Tabiki",
    "latitude": 3.67856,
    "longitude": -54.08565,
    "category": "Island",
    "subcategory": "Island",
    "featured": false,
    "priority": 50
  },
  {
    "geonameId": 3383718,
    "name": "Legoeama Tabbetje",
    "latitude": 4.65,
    "longitude": -56.26667,
    "category": "Island",
    "subcategory": "Island",
    "featured": false,
    "priority": 50
  },
  {
    "geonameId": 3383714,
    "name": "Lelydorp",
    "latitude": 5.7,
    "longitude": -55.23333,
    "category": "City",
    "subcategory": "Regional Capital",
    "featured": false,
    "priority": 50
  },
  {
    "geonameId": 3383710,
    "name": "Lemmetjeboom Tabbetje",
    "latitude": 5.35044,
    "longitude": -54.15536,
    "category": "Island",
    "subcategory": "Island",
    "featured": false,
    "priority": 50
  },
  {
    "geonameId": 3383708,
    "name": "Lemtji Tabbetje",
    "latitude": 4.7,
    "longitude": -56.21667,
    "category": "Island",
    "subcategory": "Island",
    "featured": false,
    "priority": 50
  },
  {
    "geonameId": 10410078,
    "name": "Lensiedede Val",
    "latitude": 4.03449,
    "longitude": -54.36841,
    "category": "Waterfall",
    "subcategory": "Waterfall",
    "featured": false,
    "priority": 50
  },
  {
    "geonameId": 10645949,
    "name": "Lessé Dédé Tabiki",
    "latitude": 4.03558,
    "longitude": -54.35408,
    "category": "Island",
    "subcategory": "Island",
    "featured": false,
    "priority": 50
  },
  {
    "geonameId": 3383692,
    "name": "Loabie",
    "latitude": 4.11667,
    "longitude": -54.66667,
    "category": "Island",
    "subcategory": "Island",
    "featured": false,
    "priority": 50
  },
  {
    "geonameId": 3383675,
    "name": "Loth Vallen",
    "latitude": 3.1,
    "longitude": -55.83333,
    "category": "Waterfall",
    "subcategory": "Waterfall",
    "featured": false,
    "priority": 50
  },
  {
    "geonameId": 3383662,
    "name": "Maboga Val",
    "latitude": 3.46667,
    "longitude": -55.38333,
    "category": "Waterfall",
    "subcategory": "Waterfall",
    "featured": false,
    "priority": 50
  },
  {
    "geonameId": 3383658,
    "name": "Mac Lennans Eiland",
    "latitude": 5.58394,
    "longitude": -57.14039,
    "category": "Island",
    "subcategory": "Island",
    "featured": false,
    "priority": 50
  },
  {
    "geonameId": 3383656,
    "name": "Mafoengoe Prati",
    "latitude": 4.53333,
    "longitude": -55.71667,
    "category": "Island",
    "subcategory": "Island",
    "featured": false,
    "priority": 50
  },
  {
    "geonameId": 3383651,
    "name": "Maipoeri Eiland",
    "latitude": 4.96667,
    "longitude": -57.75,
    "category": "Island",
    "subcategory": "Island",
    "featured": false,
    "priority": 50
  },
  {
    "geonameId": 3383647,
    "name": "Majordam Gebergte",
    "latitude": 4.88333,
    "longitude": -55.37406,
    "category": "Mountain",
    "subcategory": "Mountain",
    "featured": false,
    "priority": 50
  },
  {
    "geonameId": 3383640,
    "name": "Makilikakroe Eiland",
    "latitude": 5.38333,
    "longitude": -57.26667,
    "category": "Island",
    "subcategory": "Island",
    "featured": false,
    "priority": 50
  },
  {
    "geonameId": 3383613,
    "name": "Manbarie Val",
    "latitude": 4.4087,
    "longitude": -54.43333,
    "category": "Waterfall",
    "subcategory": "Waterfall",
    "featured": false,
    "priority": 50
  },
  {
    "geonameId": 3383587,
    "name": "Mapenna Island",
    "latitude": 5.35,
    "longitude": -57.33333,
    "category": "Island",
    "subcategory": "Island",
    "featured": false,
    "priority": 50
  },
  {
    "geonameId": 3383554,
    "name": "Marwati Eiland",
    "latitude": 5.00058,
    "longitude": -57.5313,
    "category": "Island",
    "subcategory": "Island",
    "featured": false,
    "priority": 50
  },
  {
    "geonameId": 3383530,
    "name": "Mazaroni Top",
    "latitude": 4.93218,
    "longitude": -55.22331,
    "category": "Mountain",
    "subcategory": "Mountain",
    "featured": false,
    "priority": 50
  },
  {
    "geonameId": 3383527,
    "name": "Meerzorg",
    "latitude": 5.80789,
    "longitude": -55.1408,
    "category": "City",
    "subcategory": "City",
    "featured": false,
    "priority": 50
  },
  {
    "geonameId": 3383518,
    "name": "Michelbaka Top",
    "latitude": 3.76667,
    "longitude": -54.13333,
    "category": "Mountain",
    "subcategory": "Mountain",
    "featured": false,
    "priority": 50
  },
  {
    "geonameId": 3383494,
    "name": "Moengo",
    "latitude": 5.61411,
    "longitude": -54.40121,
    "category": "City",
    "subcategory": "City",
    "featured": false,
    "priority": 50
  },
  {
    "geonameId": 10350972,
    "name": "Moengo Top",
    "latitude": 4.93562,
    "longitude": -54.98172,
    "category": "Mountain",
    "subcategory": "Mountain",
    "featured": false,
    "priority": 50
  },
  {
    "geonameId": 3383489,
    "name": "Moesoengoe Prati",
    "latitude": 4.66667,
    "longitude": -55.63333,
    "category": "Island",
    "subcategory": "Island",
    "featured": false,
    "priority": 50
  },
  {
    "geonameId": 3383481,
    "name": "Mompoesoe Tabbetje",
    "latitude": 4.18333,
    "longitude": -54.56667,
    "category": "Island",
    "subcategory": "Island",
    "featured": false,
    "priority": 50
  },
  {
    "geonameId": 3383454,
    "name": "Nanni Meer",
    "latitude": 5.40482,
    "longitude": -56.99754,
    "category": "Lake",
    "subcategory": "Lake",
    "featured": false,
    "priority": 50
  },
  {
    "geonameId": 10630901,
    "name": "Nasson Tabiki",
    "latitude": 4.82154,
    "longitude": -54.46945,
    "category": "Island",
    "subcategory": "Island",
    "featured": false,
    "priority": 50
  },
  {
    "geonameId": 3383434,
    "name": "Nieuw Amsterdam",
    "latitude": 5.88573,
    "longitude": -55.08871,
    "category": "City",
    "subcategory": "Regional Capital",
    "featured": false,
    "priority": 50
  },
  {
    "geonameId": 3383427,
    "name": "Nieuw Nickerie",
    "latitude": 5.92606,
    "longitude": -56.97297,
    "category": "City",
    "subcategory": "Regional Capital",
    "featured": false,
    "priority": 50
  },
  {
    "geonameId": 3383425,
    "name": "Nieuw Star Eiland",
    "latitude": 4.99869,
    "longitude": -54.98741,
    "category": "Island",
    "subcategory": "Island",
    "featured": false,
    "priority": 50
  },
  {
    "geonameId": 3383422,
    "name": "Nikie",
    "latitude": 4.28333,
    "longitude": -54.48333,
    "category": "Island",
    "subcategory": "Island",
    "featured": false,
    "priority": 50
  },
  {
    "geonameId": 3383395,
    "name": "Oeman Tabriki",
    "latitude": 3.81667,
    "longitude": -54.2,
    "category": "Island",
    "subcategory": "Island",
    "featured": false,
    "priority": 50
  },
  {
    "geonameId": 3383394,
    "name": "Oemaroe Vallen",
    "latitude": 3.65,
    "longitude": -57.8,
    "category": "Waterfall",
    "subcategory": "Waterfall",
    "featured": false,
    "priority": 50
  },
  {
    "geonameId": 3383384,
    "name": "Onverwacht",
    "latitude": 5.58983,
    "longitude": -55.19462,
    "category": "City",
    "subcategory": "Regional Capital",
    "featured": false,
    "priority": 50
  },
  {
    "geonameId": 3383367,
    "name": "Ouroewossoe Pratie",
    "latitude": 4.5,
    "longitude": -55.75,
    "category": "Island",
    "subcategory": "Island",
    "featured": false,
    "priority": 50
  },
  {
    "geonameId": 3383361,
    "name": "Paka-Apekepoeroe Of Baicacai Eiland",
    "latitude": 4.99378,
    "longitude": -57.58804,
    "category": "Island",
    "subcategory": "Island",
    "featured": false,
    "priority": 50
  },
  {
    "geonameId": 3383355,
    "name": "Pakira of Kodo Tabbetje",
    "latitude": 4.77028,
    "longitude": -54.46574,
    "category": "Island",
    "subcategory": "Island",
    "featured": false,
    "priority": 50
  },
  {
    "geonameId": 3383350,
    "name": "Palang Tabbetje",
    "latitude": 4.5,
    "longitude": -56.08333,
    "category": "Island",
    "subcategory": "Island",
    "featured": false,
    "priority": 50
  },
  {
    "geonameId": 8220942,
    "name": "Palmentuin",
    "latitude": 5.82823,
    "longitude": -55.15123,
    "category": "Park",
    "subcategory": "Park",
    "featured": false,
    "priority": 50
  },
  {
    "geonameId": 3383342,
    "name": "Papadron Soela",
    "latitude": 2.93333,
    "longitude": -55.38333,
    "category": "Waterfall",
    "subcategory": "Waterfall",
    "featured": false,
    "priority": 50
  },
  {
    "geonameId": 3383340,
    "name": "Papegaaien Eiland",
    "latitude": 5.85443,
    "longitude": -57.1047,
    "category": "Island",
    "subcategory": "Island",
    "featured": false,
    "priority": 50
  },
  {
    "geonameId": 3383330,
    "name": "Paramaribo",
    "latitude": 5.86638,
    "longitude": -55.16682,
    "category": "City",
    "subcategory": "Capital",
    "featured": false,
    "priority": 50
  },
  {
    "geonameId": 3383308,
    "name": "Pelelepatare",
    "latitude": 3.28333,
    "longitude": -55.4,
    "category": "Waterfall",
    "subcategory": "Waterfall",
    "featured": false,
    "priority": 50
  },
  {
    "geonameId": 10410079,
    "name": "Penabisoengoe Vallen",
    "latitude": 4.03234,
    "longitude": -54.33385,
    "category": "Waterfall",
    "subcategory": "Waterfall",
    "featured": false,
    "priority": 50
  },
  {
    "geonameId": 3384789,
    "name": "Pico da Montanha Alimimune",
    "latitude": 2.43333,
    "longitude": -55.76667,
    "category": "Mountain",
    "subcategory": "Peak",
    "featured": false,
    "priority": 50
  },
  {
    "geonameId": 3383254,
    "name": "Pindagron Prati",
    "latitude": 4.56667,
    "longitude": -55.71667,
    "category": "Island",
    "subcategory": "Island",
    "featured": false,
    "priority": 50
  },
  {
    "geonameId": 3383243,
    "name": "Poeloegoedoe Vallen",
    "latitude": 4.36725,
    "longitude": -54.44145,
    "category": "Waterfall",
    "subcategory": "Waterfall",
    "featured": false,
    "priority": 50
  },
  {
    "geonameId": 3380540,
    "name": "Pouga Tabiki",
    "latitude": 4.86248,
    "longitude": -54.46671,
    "category": "Island",
    "subcategory": "Island",
    "featured": false,
    "priority": 50
  },
  {
    "geonameId": 3383208,
    "name": "Powies Eiland",
    "latitude": 5.44358,
    "longitude": -57.23791,
    "category": "Island",
    "subcategory": "Island",
    "featured": false,
    "priority": 50
  },
  {
    "geonameId": 3383312,
    "name": "Powies Of Alligators Eiland",
    "latitude": 4.74348,
    "longitude": -57.81536,
    "category": "Island",
    "subcategory": "Island",
    "featured": false,
    "priority": 50
  },
  {
    "geonameId": 3383186,
    "name": "Raleigh Vallen",
    "latitude": 4.70507,
    "longitude": -56.21029,
    "category": "Waterfall",
    "subcategory": "Waterfall",
    "featured": false,
    "priority": 50
  },
  {
    "geonameId": 3383162,
    "name": "Robinson Eiland",
    "latitude": 5.8044,
    "longitude": -57.09579,
    "category": "Island",
    "subcategory": "Island",
    "featured": false,
    "priority": 50
  },
  {
    "geonameId": 3383158,
    "name": "Rosevelt Piek",
    "latitude": 3.35,
    "longitude": -55.18333,
    "category": "Mountain",
    "subcategory": "Peak",
    "featured": false,
    "priority": 50
  },
  {
    "geonameId": 3383143,
    "name": "Sakkasakkasamboe Val",
    "latitude": 3.51667,
    "longitude": -55.05,
    "category": "Waterfall",
    "subcategory": "Waterfall",
    "featured": false,
    "priority": 50
  },
  {
    "geonameId": 3383142,
    "name": "Sakora Temirirots Eiland",
    "latitude": 4.88275,
    "longitude": -57.82391,
    "category": "Island",
    "subcategory": "Island",
    "featured": false,
    "priority": 50
  },
  {
    "geonameId": 3383139,
    "name": "Sambo Tabb",
    "latitude": 5.24783,
    "longitude": -54.29638,
    "category": "Island",
    "subcategory": "Island",
    "featured": false,
    "priority": 50
  },
  {
    "geonameId": 3383126,
    "name": "Sannetje Tabbetje",
    "latitude": 5.2,
    "longitude": -55.08333,
    "category": "Island",
    "subcategory": "Island",
    "featured": false,
    "priority": 50
  },
  {
    "geonameId": 3383124,
    "name": "Santi Kasaba Eiland",
    "latitude": 5.15,
    "longitude": -54.35,
    "category": "Island",
    "subcategory": "Island",
    "featured": false,
    "priority": 50
  },
  {
    "geonameId": 3383121,
    "name": "Santi Tabbetje",
    "latitude": 4.16667,
    "longitude": -54.63333,
    "category": "Island",
    "subcategory": "Island",
    "featured": false,
    "priority": 50
  },
  {
    "geonameId": 3383107,
    "name": "Saramacca Projekt III",
    "latitude": 4.79649,
    "longitude": -55.58192,
    "category": "Lake",
    "subcategory": "Reservoir",
    "featured": false,
    "priority": 50
  },
  {
    "geonameId": 3383078,
    "name": "Sidonkroetoe Val",
    "latitude": 4.53652,
    "longitude": -56.50478,
    "category": "Waterfall",
    "subcategory": "Waterfall",
    "featured": false,
    "priority": 50
  },
  {
    "geonameId": 3383075,
    "name": "Siengateté Val",
    "latitude": 4.38304,
    "longitude": -54.43899,
    "category": "Waterfall",
    "subcategory": "Waterfall",
    "featured": false,
    "priority": 50
  },
  {
    "geonameId": 3383073,
    "name": "Sika Eiland",
    "latitude": 5,
    "longitude": -57.43333,
    "category": "Island",
    "subcategory": "Island",
    "featured": false,
    "priority": 50
  },
  {
    "geonameId": 3383049,
    "name": "Sjatoemaripa Pratie",
    "latitude": 4.61667,
    "longitude": -55.68333,
    "category": "Island",
    "subcategory": "Island",
    "featured": false,
    "priority": 50
  },
  {
    "geonameId": 3383048,
    "name": "Slangen Eiland",
    "latitude": 5.71318,
    "longitude": -57.14539,
    "category": "Island",
    "subcategory": "Island",
    "featured": false,
    "priority": 50
  },
  {
    "geonameId": 3383041,
    "name": "Sneki Tabbetje",
    "latitude": 4.2,
    "longitude": -54.6,
    "category": "Island",
    "subcategory": "Island",
    "featured": false,
    "priority": 50
  },
  {
    "geonameId": 3383024,
    "name": "Stoelmans Eiland",
    "latitude": 4.35304,
    "longitude": -54.40551,
    "category": "Island",
    "subcategory": "Island",
    "featured": false,
    "priority": 50
  },
  {
    "geonameId": 3383018,
    "name": "Stondansie Projekt",
    "latitude": 4.95,
    "longitude": -56.78333,
    "category": "Lake",
    "subcategory": "Reservoir",
    "featured": false,
    "priority": 50
  },
  {
    "geonameId": 3383005,
    "name": "Stonpoortoe Val",
    "latitude": 3.5,
    "longitude": -56.11667,
    "category": "Waterfall",
    "subcategory": "Waterfall",
    "featured": false,
    "priority": 50
  },
  {
    "geonameId": 3382992,
    "name": "Tabbetje Hede",
    "latitude": 4.78049,
    "longitude": -54.46474,
    "category": "Island",
    "subcategory": "Island",
    "featured": false,
    "priority": 50
  },
  {
    "geonameId": 3382990,
    "name": "Tabrikie",
    "latitude": 4.3,
    "longitude": -54.5,
    "category": "Island",
    "subcategory": "Island",
    "featured": false,
    "priority": 50
  },
  {
    "geonameId": 3382986,
    "name": "Tafra Eiland",
    "latitude": 5.26667,
    "longitude": -55.03333,
    "category": "Island",
    "subcategory": "Island",
    "featured": false,
    "priority": 50
  },
  {
    "geonameId": 3382978,
    "name": "Tamanredjo",
    "latitude": 5.78621,
    "longitude": -55.02482,
    "category": "City",
    "subcategory": "City",
    "featured": false,
    "priority": 50
  },
  {
    "geonameId": 3382953,
    "name": "Tappewatra Dam",
    "latitude": 4.01667,
    "longitude": -55.48333,
    "category": "Waterfall",
    "subcategory": "Waterfall",
    "featured": false,
    "priority": 50
  },
  {
    "geonameId": 3382950,
    "name": "Taspondie Pratie",
    "latitude": 4.46667,
    "longitude": -55.76667,
    "category": "Island",
    "subcategory": "Island",
    "featured": false,
    "priority": 50
  },
  {
    "geonameId": 3382943,
    "name": "Teiroeroe Eiland",
    "latitude": 5.14912,
    "longitude": -57.26671,
    "category": "Island",
    "subcategory": "Island",
    "featured": false,
    "priority": 50
  },
  {
    "geonameId": 3375646,
    "name": "Tiger Falls",
    "latitude": 3.98333,
    "longitude": -58.03333,
    "category": "Waterfall",
    "subcategory": "Waterfall",
    "featured": false,
    "priority": 50
  },
  {
    "geonameId": 3382920,
    "name": "Tijger Val",
    "latitude": 4.66304,
    "longitude": -57.18565,
    "category": "Waterfall",
    "subcategory": "Waterfall",
    "featured": false,
    "priority": 50
  },
  {
    "geonameId": 3382900,
    "name": "Toehimi Soela",
    "latitude": 4.22985,
    "longitude": -55.8658,
    "category": "Waterfall",
    "subcategory": "Waterfall",
    "featured": false,
    "priority": 50
  },
  {
    "geonameId": 3382872,
    "name": "Tonkens Val",
    "latitude": 4.41942,
    "longitude": -56.51058,
    "category": "Waterfall",
    "subcategory": "Waterfall",
    "featured": false,
    "priority": 50
  },
  {
    "geonameId": 3382870,
    "name": "Torarica Meer",
    "latitude": 5.33333,
    "longitude": -55.03333,
    "category": "Lake",
    "subcategory": "Reservoir",
    "featured": false,
    "priority": 50
  },
  {
    "geonameId": 3382867,
    "name": "Totness",
    "latitude": 5.87618,
    "longitude": -56.32572,
    "category": "City",
    "subcategory": "Regional Capital",
    "featured": false,
    "priority": 50
  },
  {
    "geonameId": 3382853,
    "name": "Trombaka Soela",
    "latitude": 3.05,
    "longitude": -55.4,
    "category": "Waterfall",
    "subcategory": "Waterfall",
    "featured": false,
    "priority": 50
  },
  {
    "geonameId": 3382852,
    "name": "Tromkaba Tabbetje",
    "latitude": 4.3,
    "longitude": -54.48333,
    "category": "Island",
    "subcategory": "Island",
    "featured": false,
    "priority": 50
  },
  {
    "geonameId": 3382824,
    "name": "Van Stockum Berg",
    "latitude": 4.68,
    "longitude": -56.1332,
    "category": "Mountain",
    "subcategory": "Mountain",
    "featured": false,
    "priority": 50
  },
  {
    "geonameId": 3382832,
    "name": "Vander Wijck Top",
    "latitude": 4.52928,
    "longitude": -56.26623,
    "category": "Mountain",
    "subcategory": "Mountain",
    "featured": false,
    "priority": 50
  },
  {
    "geonameId": 3382820,
    "name": "Versteeg Val",
    "latitude": 3.65,
    "longitude": -54.6,
    "category": "Waterfall",
    "subcategory": "Waterfall",
    "featured": false,
    "priority": 50
  },
  {
    "geonameId": 3382795,
    "name": "Vossen Eiland",
    "latitude": 5.7897,
    "longitude": -57.1538,
    "category": "Island",
    "subcategory": "Island",
    "featured": false,
    "priority": 50
  },
  {
    "geonameId": 3383191,
    "name": "W. J. van Blommestein Meer",
    "latitude": 4.75069,
    "longitude": -55.06546,
    "category": "Lake",
    "subcategory": "Reservoir",
    "featured": false,
    "priority": 50
  },
  {
    "geonameId": 3382787,
    "name": "Wacou Tabriki",
    "latitude": 3.83333,
    "longitude": -54.2,
    "category": "Island",
    "subcategory": "Island",
    "featured": false,
    "priority": 50
  },
  {
    "geonameId": 3382758,
    "name": "Wantinga",
    "latitude": 4.28333,
    "longitude": -54.48333,
    "category": "Island",
    "subcategory": "Island",
    "featured": false,
    "priority": 50
  },
  {
    "geonameId": 3382721,
    "name": "Wekoweko Tabbetje",
    "latitude": 4.92656,
    "longitude": -54.45319,
    "category": "Island",
    "subcategory": "Island",
    "featured": false,
    "priority": 50
  },
  {
    "geonameId": 3382695,
    "name": "Willem Tabbetje",
    "latitude": 4.55,
    "longitude": -56.13333,
    "category": "Island",
    "subcategory": "Island",
    "featured": false,
    "priority": 50
  },
  {
    "geonameId": 3382696,
    "name": "Willems Eiland",
    "latitude": 5.28467,
    "longitude": -57.25924,
    "category": "Island",
    "subcategory": "Island",
    "featured": false,
    "priority": 50
  },
  {
    "geonameId": 3382690,
    "name": "Wintiewaai Gebergte",
    "latitude": 4.95146,
    "longitude": -54.87456,
    "category": "Mountain",
    "subcategory": "Mountain",
    "featured": false,
    "priority": 50
  },
  {
    "geonameId": 3382687,
    "name": "Wittieston Soela",
    "latitude": 4.45,
    "longitude": -55.76667,
    "category": "Waterfall",
    "subcategory": "Waterfall",
    "featured": false,
    "priority": 50
  },
  {
    "geonameId": 3382673,
    "name": "Wonotobo Vallen",
    "latitude": 4.36232,
    "longitude": -57.89362,
    "category": "Waterfall",
    "subcategory": "Waterfall",
    "featured": false,
    "priority": 50
  },
  {
    "geonameId": 3382672,
    "name": "Worsteling Jacobs Eiland",
    "latitude": 5.35,
    "longitude": -55.01667,
    "category": "Island",
    "subcategory": "Island",
    "featured": false,
    "priority": 50
  },
  {
    "geonameId": 3382665,
    "name": "Zaoe Tabriki",
    "latitude": 3.38333,
    "longitude": -54.05,
    "category": "Island",
    "subcategory": "Island",
    "featured": false,
    "priority": 50
  }
]