[
  {
    "geonameId": 174659,
    "name": "‘Abd al ‘Azīz",
    "latitude": 36.44053,
    "longitude": 40.49677,
    "category": "Mountain",
    "subcategory": "Peak",
    "featured": false,
    "priority": 50
  },
  {
    "geonameId": 174186,
    "name": "‘Afrīn",
    "latitude": 36.51194,
    "longitude": 36.86954,
    "category": "City",
    "subcategory": "County Seat",
    "featured": false,
    "priority": 50
  },
  {
    "geonameId": 173230,
    "name": "‘Āmūdā",
    "latitude": 37.10417,
    "longitude": 40.93,
    "category": "City",
    "subcategory": "District Seat",
    "featured": false,
    "priority": 50
  },
  {
    "geonameId": 8322872,
    "name": "‘Anzirān",
    "latitude": 36.0236,
    "longitude": 36.50939,
    "category": "Mountain",
    "subcategory": "Mountain",
    "featured": false,
    "priority": 50
  },
  {
    "geonameId": 11261330,
    "name": "‘Aqabat ‘Arjamlah",
    "latitude": 33.96995,
    "longitude": 36.5192,
    "category": "Mountain",
    "subcategory": "Mountain Pass",
    "featured": false,
    "priority": 50
  },
  {
    "geonameId": 8412518,
    "name": "‘Aqabat Abī Farrūḩ",
    "latitude": 33.36378,
    "longitude": 36.33298,
    "category": "Mountain",
    "subcategory": "Mountain Pass",
    "featured": false,
    "priority": 50
  },
  {
    "geonameId": 8412458,
    "name": "‘Aqabat al ‘Ādilīyah",
    "latitude": 33.39278,
    "longitude": 36.34692,
    "category": "Mountain",
    "subcategory": "Mountain Pass",
    "featured": false,
    "priority": 50
  },
  {
    "geonameId": 11431377,
    "name": "‘Aqabat al ‘Akkārīyah",
    "latitude": 34.41523,
    "longitude": 36.70212,
    "category": "Mountain",
    "subcategory": "Mountain Pass",
    "featured": false,
    "priority": 50
  },
  {
    "geonameId": 171664,
    "name": "‘Aqabat al Bayḑā’",
    "latitude": 33.59502,
    "longitude": 36.14264,
    "category": "Mountain",
    "subcategory": "Mountain Pass",
    "featured": false,
    "priority": 50
  },
  {
    "geonameId": 8412262,
    "name": "‘Aqabat al Ḩarjalah",
    "latitude": 33.40033,
    "longitude": 36.30643,
    "category": "Mountain",
    "subcategory": "Mountain Pass",
    "featured": false,
    "priority": 50
  },
  {
    "geonameId": 11261483,
    "name": "‘Aqabat al Kufayr",
    "latitude": 33.98779,
    "longitude": 36.57033,
    "category": "Mountain",
    "subcategory": "Mountain",
    "featured": false,
    "priority": 50
  },
  {
    "geonameId": 11260854,
    "name": "‘Aqabat al Lawzāt",
    "latitude": 33.88371,
    "longitude": 36.38369,
    "category": "Mountain",
    "subcategory": "Peak",
    "featured": false,
    "priority": 50
  },
  {
    "geonameId": 11431343,
    "name": "‘Aqabat al Maqāţir",
    "latitude": 34.35396,
    "longitude": 36.72043,
    "category": "Mountain",
    "subcategory": "Mountain",
    "featured": false,
    "priority": 50
  },
  {
    "geonameId": 11261460,
    "name": "‘Aqabat al Mashārāt",
    "latitude": 33.91778,
    "longitude": 36.56965,
    "category": "Mountain",
    "subcategory": "Mountain",
    "featured": false,
    "priority": 50
  },
  {
    "geonameId": 11260923,
    "name": "‘Aqabat al Miţḩanah",
    "latitude": 33.83421,
    "longitude": 36.41938,
    "category": "Mountain",
    "subcategory": "Mountain Pass",
    "featured": false,
    "priority": 50
  },
  {
    "geonameId": 165155,
    "name": "‘Aqabat aş Şa‘bah",
    "latitude": 33.68333,
    "longitude": 36.18333,
    "category": "Mountain",
    "subcategory": "Mountain Pass",
    "featured": false,
    "priority": 50
  },
  {
    "geonameId": 11430790,
    "name": "‘Aqabat aş Şaghīrah",
    "latitude": 34.08188,
    "longitude": 36.85507,
    "category": "Mountain",
    "subcategory": "Mountain",
    "featured": false,
    "priority": 50
  },
  {
    "geonameId": 11431711,
    "name": "‘Aqabat aş Şīrah",
    "latitude": 34.39966,
    "longitude": 36.90286,
    "category": "Mountain",
    "subcategory": "Mountain Pass",
    "featured": false,
    "priority": 50
  },
  {
    "geonameId": 11261063,
    "name": "‘Aqabat aş Şufayrah",
    "latitude": 33.82097,
    "longitude": 36.49969,
    "category": "Mountain",
    "subcategory": "Mountain Pass",
    "featured": false,
    "priority": 50
  },
  {
    "geonameId": 11430612,
    "name": "‘Aqabat ash Shaykh Ḩarb",
    "latitude": 34.0195,
    "longitude": 36.56775,
    "category": "Mountain",
    "subcategory": "Mountain",
    "featured": false,
    "priority": 50
  },
  {
    "geonameId": 163233,
    "name": "‘Aqabat aţ Ţīn",
    "latitude": 33.6,
    "longitude": 36.03333,
    "category": "Mountain",
    "subcategory": "Mountain Pass",
    "featured": false,
    "priority": 50
  },
  {
    "geonameId": 11261447,
    "name": "‘Aqabat Ḑahr al ‘Uyūn",
    "latitude": 33.87821,
    "longitude": 36.54666,
    "category": "Mountain",
    "subcategory": "Mountain",
    "featured": false,
    "priority": 50
  },
  {
    "geonameId": 11260855,
    "name": "‘Aqabat Jūrat Maḩḑar",
    "latitude": 33.86059,
    "longitude": 36.40236,
    "category": "Mountain",
    "subcategory": "Peak",
    "featured": false,
    "priority": 50
  },
  {
    "geonameId": 8412454,
    "name": "‘Aqabat Najhā",
    "latitude": 33.3959,
    "longitude": 36.3616,
    "category": "Mountain",
    "subcategory": "Mountain Pass",
    "featured": false,
    "priority": 50
  },
  {
    "geonameId": 11430217,
    "name": "‘Aqabat Qārah",
    "latitude": 34.04372,
    "longitude": 36.57421,
    "category": "Mountain",
    "subcategory": "Mountain",
    "featured": false,
    "priority": 50
  },
  {
    "geonameId": 11430279,
    "name": "‘Aqabat Sa‘ārah",
    "latitude": 34.04768,
    "longitude": 36.64682,
    "category": "Mountain",
    "subcategory": "Mountain",
    "featured": false,
    "priority": 50
  },
  {
    "geonameId": 8265992,
    "name": "‘Aqabat Şabāḩ",
    "latitude": 34.86648,
    "longitude": 35.94852,
    "category": "Mountain",
    "subcategory": "Mountain Pass",
    "featured": false,
    "priority": 50
  },
  {
    "geonameId": 11261444,
    "name": "‘Aqabat Sakīk",
    "latitude": 33.86577,
    "longitude": 36.56438,
    "category": "Mountain",
    "subcategory": "Mountain Pass",
    "featured": false,
    "priority": 50
  },
  {
    "geonameId": 11260947,
    "name": "‘Aqabat Umm ar Rakb",
    "latitude": 33.93179,
    "longitude": 36.41994,
    "category": "Mountain",
    "subcategory": "Mountain Pass",
    "featured": false,
    "priority": 50
  },
  {
    "geonameId": 8412958,
    "name": "‘Arīḑ al Khaymah",
    "latitude": 33.49068,
    "longitude": 36.14607,
    "category": "Mountain",
    "subcategory": "Peak",
    "featured": false,
    "priority": 50
  },
  {
    "geonameId": 8411122,
    "name": "‘Arīḑ as Suwayd",
    "latitude": 33.61709,
    "longitude": 36.20488,
    "category": "Mountain",
    "subcategory": "Peak",
    "featured": false,
    "priority": 50
  },
  {
    "geonameId": 5174,
    "name": "‘Arīqah",
    "latitude": 32.88994,
    "longitude": 36.48342,
    "category": "City",
    "subcategory": "District Seat",
    "featured": false,
    "priority": 50
  },
  {
    "geonameId": 421015,
    "name": "‘Arīshah",
    "latitude": 36.23154,
    "longitude": 40.77214,
    "category": "City",
    "subcategory": "District Seat",
    "featured": false,
    "priority": 50
  },
  {
    "geonameId": 172445,
    "name": "‘Āşī al Kabīr",
    "latitude": 33.53024,
    "longitude": 36.02781,
    "category": "Mountain",
    "subcategory": "Mountain",
    "featured": false,
    "priority": 50
  },
  {
    "geonameId": 172487,
    "name": "‘Assāl al Ward",
    "latitude": 33.86453,
    "longitude": 36.4139,
    "category": "City",
    "subcategory": "District Seat",
    "featured": false,
    "priority": 50
  },
  {
    "geonameId": 172308,
    "name": "‘Awaj",
    "latitude": 34.90704,
    "longitude": 36.40444,
    "category": "City",
    "subcategory": "District Seat",
    "featured": false,
    "priority": 50
  },
  {
    "geonameId": 172134,
    "name": "‘Ayn ‘Īsá",
    "latitude": 36.3855,
    "longitude": 38.86228,
    "category": "City",
    "subcategory": "District Seat",
    "featured": false,
    "priority": 50
  },
  {
    "geonameId": 172256,
    "name": "‘Ayn al ‘Arab",
    "latitude": 36.89095,
    "longitude": 38.35347,
    "category": "City",
    "subcategory": "County Seat",
    "featured": false,
    "priority": 50
  },
  {
    "geonameId": 172243,
    "name": "‘Ayn al Bayḑā",
    "latitude": 35.65599,
    "longitude": 35.88871,
    "category": "City",
    "subcategory": "District Seat",
    "featured": false,
    "priority": 50
  },
  {
    "geonameId": 172232,
    "name": "‘Ayn al Fījah",
    "latitude": 33.61529,
    "longitude": 36.18285,
    "category": "City",
    "subcategory": "District Seat",
    "featured": false,
    "priority": 50
  },
  {
    "geonameId": 7891616,
    "name": "‘Ayn an Nasr",
    "latitude": 34.84113,
    "longitude": 36.92837,
    "category": "City",
    "subcategory": "District Seat",
    "featured": false,
    "priority": 50
  },
  {
    "geonameId": 172173,
    "name": "‘Ayn ash Sharqīyah",
    "latitude": 35.33169,
    "longitude": 36.09973,
    "category": "City",
    "subcategory": "District Seat",
    "featured": false,
    "priority": 50
  },
  {
    "geonameId": 172157,
    "name": "‘Ayn at Tīnah",
    "latitude": 35.56445,
    "longitude": 36.10098,
    "category": "City",
    "subcategory": "District Seat",
    "featured": false,
    "priority": 50
  },
  {
    "geonameId": 172172,
    "name": "‘Ayn Shiqāq",
    "latitude": 35.39441,
    "longitude": 36.03012,
    "category": "City",
    "subcategory": "District Seat",
    "featured": false,
    "priority": 50
  },
  {
    "geonameId": 169372,
    "name": "‘Irbīn",
    "latitude": 33.53719,
    "longitude": 36.36635,
    "category": "City",
    "subcategory": "District Seat",
    "featured": false,
    "priority": 50
  },
  {
    "geonameId": 11555740,
    "name": "‘Ubb ad Dāfī",
    "latitude": 35.06412,
    "longitude": 36.99235,
    "category": "Mountain",
    "subcategory": "Mountain Pass",
    "featured": false,
    "priority": 50
  },
  {
    "geonameId": 8346157,
    "name": "‘Ubb al Bayyāḑ",
    "latitude": 33.67555,
    "longitude": 36.52461,
    "category": "Mountain",
    "subcategory": "Mountain",
    "featured": false,
    "priority": 50
  },
  {
    "geonameId": 8411125,
    "name": "‘Umrah",
    "latitude": 33.61519,
    "longitude": 36.21967,
    "category": "Mountain",
    "subcategory": "Peak",
    "featured": false,
    "priority": 50
  },
  {
    "geonameId": 162803,
    "name": "‘Uqayribāt",
    "latitude": 35.0431,
    "longitude": 37.46442,
    "category": "City",
    "subcategory": "District Seat",
    "featured": false,
    "priority": 50
  },
  {
    "geonameId": 11261390,
    "name": "‘Urmat as Salāţīn",
    "latitude": 33.79553,
    "longitude": 36.50388,
    "category": "Mountain",
    "subcategory": "Mountain",
    "featured": false,
    "priority": 50
  },
  {
    "geonameId": 11261387,
    "name": "‘Urmat as Sayḩ",
    "latitude": 33.80154,
    "longitude": 36.51564,
    "category": "Mountain",
    "subcategory": "Mountain",
    "featured": false,
    "priority": 50
  },
  {
    "geonameId": 11261054,
    "name": "‘Urmat az Zuwayn",
    "latitude": 33.7834,
    "longitude": 36.48844,
    "category": "Mountain",
    "subcategory": "Mountain",
    "featured": false,
    "priority": 50
  },
  {
    "geonameId": 11261052,
    "name": "‘Urmat Khabūr",
    "latitude": 33.77912,
    "longitude": 36.48189,
    "category": "Mountain",
    "subcategory": "Mountain",
    "featured": false,
    "priority": 50
  },
  {
    "geonameId": 11261218,
    "name": "‘Ushsh aş Şaqrah",
    "latitude": 33.71046,
    "longitude": 36.82513,
    "category": "Mountain",
    "subcategory": "Peak",
    "featured": false,
    "priority": 50
  },
  {
    "geonameId": 8346262,
    "name": "A‘lá Wādī al Kabīr",
    "latitude": 33.65329,
    "longitude": 36.75039,
    "category": "Mountain",
    "subcategory": "Peak",
    "featured": false,
    "priority": 50
  },
  {
    "geonameId": 174598,
    "name": "Abū al Fāris",
    "latitude": 34.79423,
    "longitude": 35.88248,
    "category": "Island",
    "subcategory": "Island",
    "featured": false,
    "priority": 50
  },
  {
    "geonameId": 174593,
    "name": "Abū al Ḩasnān",
    "latitude": 33.68333,
    "longitude": 36.66667,
    "category": "Mountain",
    "subcategory": "Mountain",
    "featured": false,
    "priority": 50
  },
  {
    "geonameId": 174611,
    "name": "Abū az̧ Z̧uhūr",
    "latitude": 35.74058,
    "longitude": 37.0448,
    "category": "City",
    "subcategory": "District Seat",
    "featured": false,
    "priority": 50
  },
  {
    "geonameId": 8357716,
    "name": "Abū Barūḩ",
    "latitude": 33.96,
    "longitude": 36.42875,
    "category": "Mountain",
    "subcategory": "Peak",
    "featured": false,
    "priority": 50
  },
  {
    "geonameId": 174407,
    "name": "Abū Qalqal",
    "latitude": 36.43806,
    "longitude": 38.11984,
    "category": "City",
    "subcategory": "District Seat",
    "featured": false,
    "priority": 50
  },
  {
    "geonameId": 174390,
    "name": "Abū Raḩbah",
    "latitude": 34.43333,
    "longitude": 37.2,
    "category": "Mountain",
    "subcategory": "Peak",
    "featured": false,
    "priority": 50
  },
  {
    "geonameId": 11430271,
    "name": "Abū Ţanjarah",
    "latitude": 34.03789,
    "longitude": 36.6644,
    "category": "Mountain",
    "subcategory": "Mountain",
    "featured": false,
    "priority": 50
  },
  {
    "geonameId": 174329,
    "name": "Abū Ţāsh",
    "latitude": 32.8,
    "longitude": 36.8,
    "category": "Mountain",
    "subcategory": "Mountain",
    "featured": false,
    "priority": 50
  },
  {
    "geonameId": 11430230,
    "name": "Aḑ Ḑahrah",
    "latitude": 34.04324,
    "longitude": 36.62429,
    "category": "Mountain",
    "subcategory": "Mountain",
    "featured": false,
    "priority": 50
  },
  {
    "geonameId": 11261366,
    "name": "Aḑ Ḑahrah aţ Ţawīlah",
    "latitude": 33.84068,
    "longitude": 36.5216,
    "category": "Mountain",
    "subcategory": "Mountain",
    "featured": false,
    "priority": 50
  },
  {
    "geonameId": 164418,
    "name": "Aḑ Ḑahrat al Ḩamrah",
    "latitude": 33.91667,
    "longitude": 37.9,
    "category": "Mountain",
    "subcategory": "Peak",
    "featured": false,
    "priority": 50
  },
  {
    "geonameId": 174262,
    "name": "Ad Dālīyah",
    "latitude": 35.23605,
    "longitude": 36.14371,
    "category": "City",
    "subcategory": "District Seat",
    "featured": false,
    "priority": 50
  },
  {
    "geonameId": 174259,
    "name": "Ad Dānā",
    "latitude": 36.21254,
    "longitude": 36.76998,
    "category": "City",
    "subcategory": "District Seat",
    "featured": false,
    "priority": 50
  },
  {
    "geonameId": 174254,
    "name": "Ad Daraj",
    "latitude": 34.0332,
    "longitude": 36.44517,
    "category": "Mountain",
    "subcategory": "Peak",
    "featured": false,
    "priority": 50
  },
  {
    "geonameId": 170887,
    "name": "Ad Darbāsīyah",
    "latitude": 37.07279,
    "longitude": 40.65199,
    "category": "City",
    "subcategory": "District Seat",
    "featured": false,
    "priority": 50
  },
  {
    "geonameId": 11430336,
    "name": "Ad Dawrah",
    "latitude": 34.0642,
    "longitude": 36.68103,
    "category": "Mountain",
    "subcategory": "Mountain",
    "featured": false,
    "priority": 50
  },
  {
    "geonameId": 174239,
    "name": "Ad Dīmās",
    "latitude": 33.58739,
    "longitude": 36.09262,
    "category": "City",
    "subcategory": "District Seat",
    "featured": false,
    "priority": 50
  },
  {
    "geonameId": 170589,
    "name": "Aḑ Ḑumayr",
    "latitude": 33.64389,
    "longitude": 36.69376,
    "category": "City",
    "subcategory": "District Seat",
    "featured": false,
    "priority": 50
  },
  {
    "geonameId": 170572,
    "name": "Ad Duraykīsh",
    "latitude": 34.89514,
    "longitude": 36.14303,
    "category": "City",
    "subcategory": "County Seat",
    "featured": false,
    "priority": 50
  },
  {
    "geonameId": 174191,
    "name": "Afis",
    "latitude": 35.9069,
    "longitude": 36.80419,
    "category": "City",
    "subcategory": "City",
    "featured": false,
    "priority": 50
  },
  {
    "geonameId": 174115,
    "name": "Akhtarīn",
    "latitude": 36.51072,
    "longitude": 37.33571,
    "category": "City",
    "subcategory": "District Seat",
    "featured": false,
    "priority": 50
  },
  {
    "geonameId": 174092,
    "name": "Al ‘Abbās",
    "latitude": 34.82337,
    "longitude": 35.87285,
    "category": "Island",
    "subcategory": "Island",
    "featured": false,
    "priority": 50
  },
  {
    "geonameId": 11260699,
    "name": "Al ‘Ablaq",
    "latitude": 33.7621,
    "longitude": 36.29135,
    "category": "Mountain",
    "subcategory": "Mountain",
    "featured": false,
    "priority": 50
  },
  {
    "geonameId": 11261255,
    "name": "Al ‘Alīyah",
    "latitude": 33.70937,
    "longitude": 36.89051,
    "category": "Mountain",
    "subcategory": "Mountain",
    "featured": false,
    "priority": 50
  },
  {
    "geonameId": 174057,
    "name": "Al ‘Annāzah",
    "latitude": 35.19503,
    "longitude": 36.06571,
    "category": "City",
    "subcategory": "District Seat",
    "featured": false,
    "priority": 50
  },
  {
    "geonameId": 11430558,
    "name": "Al ‘Aqabah",
    "latitude": 34.00084,
    "longitude": 36.7036,
    "category": "Mountain",
    "subcategory": "Mountain",
    "featured": false,
    "priority": 50
  },
  {
    "geonameId": 412557,
    "name": "Al ‘Arīḑah",
    "latitude": 33.6708,
    "longitude": 36.7942,
    "category": "Mountain",
    "subcategory": "Mountain",
    "featured": false,
    "priority": 50
  },
  {
    "geonameId": 174043,
    "name": "Al ‘Arīmah",
    "latitude": 36.47296,
    "longitude": 37.72113,
    "category": "City",
    "subcategory": "District Seat",
    "featured": false,
    "priority": 50
  },
  {
    "geonameId": 174036,
    "name": "Al ‘Ashārah",
    "latitude": 34.92133,
    "longitude": 40.56007,
    "category": "City",
    "subcategory": "District Seat",
    "featured": false,
    "priority": 50
  },
  {
    "geonameId": 174030,
    "name": "Al Atārib",
    "latitude": 36.13907,
    "longitude": 36.82504,
    "category": "City",
    "subcategory": "District Seat",
    "featured": false,
    "priority": 50
  },
  {
    "geonameId": 174018,
    "name": "Al Bāb",
    "latitude": 36.37051,
    "longitude": 37.5157,
    "category": "City",
    "subcategory": "County Seat",
    "featured": false,
    "priority": 50
  },
  {
    "geonameId": 174012,
    "name": "Al Bahlūlīyah",
    "latitude": 35.63679,
    "longitude": 35.96022,
    "category": "City",
    "subcategory": "District Seat",
    "featured": false,
    "priority": 50
  },
  {
    "geonameId": 7632182,
    "name": "Al Balābil Park",
    "latitude": 36.50506,
    "longitude": 40.7424,
    "category": "Park",
    "subcategory": "Park",
    "featured": false,
    "priority": 50
  },
  {
    "geonameId": 173991,
    "name": "Al Bāriqīyah",
    "latitude": 34.82924,
    "longitude": 36.22863,
    "category": "City",
    "subcategory": "District Seat",
    "featured": false,
    "priority": 50
  },
  {
    "geonameId": 162318,
    "name": "Al Baţin",
    "latitude": 33.7,
    "longitude": 36.68333,
    "category": "Mountain",
    "subcategory": "Mountain",
    "featured": false,
    "priority": 50
  },
  {
    "geonameId": 11430591,
    "name": "Al Bayāḑāt",
    "latitude": 34.01635,
    "longitude": 36.54434,
    "category": "Mountain",
    "subcategory": "Mountain",
    "featured": false,
    "priority": 50
  },
  {
    "geonameId": 8329215,
    "name": "Al Bayādir",
    "latitude": 36.13243,
    "longitude": 36.66894,
    "category": "Mountain",
    "subcategory": "Mountain",
    "featured": false,
    "priority": 50
  },
  {
    "geonameId": 8384228,
    "name": "Al Birak ath Thalāth",
    "latitude": 32.52224,
    "longitude": 36.47787,
    "category": "Lake",
    "subcategory": "Reservoir",
    "featured": false,
    "priority": 50
  },
  {
    "geonameId": 8384217,
    "name": "Al Birkah ash Sharqīyah",
    "latitude": 32.5204,
    "longitude": 36.49122,
    "category": "Lake",
    "subcategory": "Reservoir",
    "featured": false,
    "priority": 50
  },
  {
    "geonameId": 171364,
    "name": "Al Bishrī",
    "latitude": 35.40482,
    "longitude": 39.48841,
    "category": "Mountain",
    "subcategory": "Mountain",
    "featured": false,
    "priority": 50
  },
  {
    "geonameId": 173935,
    "name": "Al Burj",
    "latitude": 35.92234,
    "longitude": 37.55251,
    "category": "Mountain",
    "subcategory": "Mountain",
    "featured": false,
    "priority": 50
  },
  {
    "geonameId": 173927,
    "name": "Al Buşayrah",
    "latitude": 35.15618,
    "longitude": 40.42716,
    "category": "City",
    "subcategory": "District Seat",
    "featured": false,
    "priority": 50
  },
  {
    "geonameId": 170483,
    "name": "Al Fākhūrah",
    "latitude": 35.49846,
    "longitude": 36.00955,
    "category": "City",
    "subcategory": "District Seat",
    "featured": false,
    "priority": 50
  },
  {
    "geonameId": 173901,
    "name": "Al Fanā’is",
    "latitude": 34.79469,
    "longitude": 35.88202,
    "category": "Island",
    "subcategory": "Island",
    "featured": false,
    "priority": 50
  },
  {
    "geonameId": 170340,
    "name": "Al Furqlus",
    "latitude": 34.60638,
    "longitude": 37.08745,
    "category": "City",
    "subcategory": "District Seat",
    "featured": false,
    "priority": 50
  },
  {
    "geonameId": 168478,
    "name": "Al Ghandūrah",
    "latitude": 36.66945,
    "longitude": 37.73251,
    "category": "City",
    "subcategory": "District Seat",
    "featured": false,
    "priority": 50
  },
  {
    "geonameId": 173311,
    "name": "Al Ghanţū",
    "latitude": 34.82202,
    "longitude": 36.69613,
    "category": "City",
    "subcategory": "City",
    "featured": false,
    "priority": 50
  },
  {
    "geonameId": 173881,
    "name": "Al Ghārah",
    "latitude": 36.44012,
    "longitude": 40.30465,
    "category": "Mountain",
    "subcategory": "Peak",
    "featured": false,
    "priority": 50
  },
  {
    "geonameId": 173880,
    "name": "Al Ghāriyah",
    "latitude": 32.39332,
    "longitude": 36.65067,
    "category": "City",
    "subcategory": "District Seat",
    "featured": false,
    "priority": 50
  },
  {
    "geonameId": 173869,
    "name": "Al Ghizlānīyah",
    "latitude": 33.39671,
    "longitude": 36.45491,
    "category": "City",
    "subcategory": "District Seat",
    "featured": false,
    "priority": 50
  },
  {
    "geonameId": 173865,
    "name": "Al Ḩabīs",
    "latitude": 32.93333,
    "longitude": 36.81667,
    "category": "Mountain",
    "subcategory": "Mountain",
    "featured": false,
    "priority": 50
  },
  {
    "geonameId": 7754631,
    "name": "Al Ḩadīqah al ‘Āmmah",
    "latitude": 36.21044,
    "longitude": 37.14753,
    "category": "Park",
    "subcategory": "Park",
    "featured": false,
    "priority": 50
  },
  {
    "geonameId": 8559112,
    "name": "Al Ḩadīqah al Bayḑā’",
    "latitude": 35.9605,
    "longitude": 38.99776,
    "category": "Park",
    "subcategory": "Park",
    "featured": false,
    "priority": 50
  },
  {
    "geonameId": 170137,
    "name": "Al Ḩāḑir",
    "latitude": 35.99024,
    "longitude": 37.05086,
    "category": "City",
    "subcategory": "District Seat",
    "featured": false,
    "priority": 50
  },
  {
    "geonameId": 173856,
    "name": "Al Ḩaffah",
    "latitude": 35.59824,
    "longitude": 36.03006,
    "category": "City",
    "subcategory": "County Seat",
    "featured": false,
    "priority": 50
  },
  {
    "geonameId": 8419677,
    "name": "Al Ḩajar al Aswad",
    "latitude": 33.45759,
    "longitude": 36.30419,
    "category": "City",
    "subcategory": "District Seat",
    "featured": false,
    "priority": 50
  },
  {
    "geonameId": 173852,
    "name": "Al Ḩājib",
    "latitude": 35.86409,
    "longitude": 37.3968,
    "category": "City",
    "subcategory": "District Seat",
    "featured": false,
    "priority": 50
  },
  {
    "geonameId": 8330301,
    "name": "Al Ḩajīrah",
    "latitude": 36.20955,
    "longitude": 36.54726,
    "category": "Mountain",
    "subcategory": "Mountain",
    "featured": false,
    "priority": 50
  },
  {
    "geonameId": 173842,
    "name": "Al Ḩamīdīyah",
    "latitude": 34.71455,
    "longitude": 35.95163,
    "category": "City",
    "subcategory": "District Seat",
    "featured": false,
    "priority": 50
  },
  {
    "geonameId": 173830,
    "name": "Al Ḩamrā’",
    "latitude": 35.315,
    "longitude": 37.08632,
    "category": "City",
    "subcategory": "District Seat",
    "featured": false,
    "priority": 50
  },
  {
    "geonameId": 173811,
    "name": "Al Ḩasakah",
    "latitude": 36.50237,
    "longitude": 40.74772,
    "category": "City",
    "subcategory": "Regional Capital",
    "featured": false,
    "priority": 50
  },
  {
    "geonameId": 173802,
    "name": "Al Ḩawāsh",
    "latitude": 34.76004,
    "longitude": 36.32127,
    "category": "City",
    "subcategory": "District Seat",
    "featured": false,
    "priority": 50
  },
  {
    "geonameId": 173797,
    "name": "Al Ḩawl",
    "latitude": 36.39042,
    "longitude": 41.14983,
    "category": "City",
    "subcategory": "District Seat",
    "featured": false,
    "priority": 50
  },
  {
    "geonameId": 11431714,
    "name": "Al Ḩazm",
    "latitude": 34.40501,
    "longitude": 36.90543,
    "category": "Mountain",
    "subcategory": "Mountain",
    "featured": false,
    "priority": 50
  },
  {
    "geonameId": 173777,
    "name": "Al Hinādī",
    "latitude": 35.51324,
    "longitude": 35.8744,
    "category": "City",
    "subcategory": "District Seat",
    "featured": false,
    "priority": 50
  },
  {
    "geonameId": 173819,
    "name": "Al Ḩirāk",
    "latitude": 32.74948,
    "longitude": 36.30582,
    "category": "City",
    "subcategory": "District Seat",
    "featured": false,
    "priority": 50
  },
  {
    "geonameId": 11430225,
    "name": "Al Ḩişn",
    "latitude": 34.03559,
    "longitude": 36.58696,
    "category": "Mountain",
    "subcategory": "Mountain",
    "featured": false,
    "priority": 50
  },
  {
    "geonameId": 8411121,
    "name": "Al Ḩişyah",
    "latitude": 33.6199,
    "longitude": 36.20313,
    "category": "Mountain",
    "subcategory": "Peak",
    "featured": false,
    "priority": 50
  },
  {
    "geonameId": 173755,
    "name": "Al Ḩuwayşah",
    "latitude": 35.4,
    "longitude": 37.08333,
    "category": "Mountain",
    "subcategory": "Peak",
    "featured": false,
    "priority": 50
  },
  {
    "geonameId": 9074597,
    "name": "Al Jabal al Kabīr",
    "latitude": 35.67388,
    "longitude": 35.96538,
    "category": "Mountain",
    "subcategory": "Mountain",
    "featured": false,
    "priority": 50
  },
  {
    "geonameId": 166597,
    "name": "Al Jalā’",
    "latitude": 34.63346,
    "longitude": 40.84054,
    "category": "City",
    "subcategory": "District Seat",
    "featured": false,
    "priority": 50
  },
  {
    "geonameId": 173715,
    "name": "Al Jānūdīyah",
    "latitude": 35.88469,
    "longitude": 36.29108,
    "category": "City",
    "subcategory": "District Seat",
    "featured": false,
    "priority": 50
  },
  {
    "geonameId": 169162,
    "name": "Al Jarnīyah",
    "latitude": 36.16054,
    "longitude": 38.23337,
    "category": "City",
    "subcategory": "District Seat",
    "featured": false,
    "priority": 50
  },
  {
    "geonameId": 173711,
    "name": "Al Jawādīyah",
    "latitude": 36.9866,
    "longitude": 41.82015,
    "category": "City",
    "subcategory": "District Seat",
    "featured": false,
    "priority": 50
  },
  {
    "geonameId": 169017,
    "name": "Al Jīzah",
    "latitude": 32.57034,
    "longitude": 36.31544,
    "category": "City",
    "subcategory": "District Seat",
    "featured": false,
    "priority": 50
  },
  {
    "geonameId": 11076307,
    "name": "Al Jubaylī",
    "latitude": 36.72969,
    "longitude": 36.78304,
    "category": "Mountain",
    "subcategory": "Mountain",
    "featured": false,
    "priority": 50
  },
  {
    "geonameId": 11261592,
    "name": "Al Jurd",
    "latitude": 33.89681,
    "longitude": 36.61292,
    "category": "Mountain",
    "subcategory": "Mountain",
    "featured": false,
    "priority": 50
  },
  {
    "geonameId": 4273,
    "name": "Al Karāmah",
    "latitude": 35.86865,
    "longitude": 39.27803,
    "category": "City",
    "subcategory": "District Seat",
    "featured": false,
    "priority": 50
  },
  {
    "geonameId": 7681861,
    "name": "Al Karīm ash Sharqī",
    "latitude": 36.19248,
    "longitude": 36.99589,
    "category": "Mountain",
    "subcategory": "Peak",
    "featured": false,
    "priority": 50
  },
  {
    "geonameId": 168541,
    "name": "Al Karīmah",
    "latitude": 34.66941,
    "longitude": 36.07546,
    "category": "City",
    "subcategory": "District Seat",
    "featured": false,
    "priority": 50
  },
  {
    "geonameId": 8308210,
    "name": "Al Kasrah",
    "latitude": 35.56743,
    "longitude": 39.9202,
    "category": "City",
    "subcategory": "District Seat",
    "featured": false,
    "priority": 50
  },
  {
    "geonameId": 168422,
    "name": "Al Khafsah",
    "latitude": 36.2311,
    "longitude": 38.02172,
    "category": "City",
    "subcategory": "District Seat",
    "featured": false,
    "priority": 50
  },
  {
    "geonameId": 166354,
    "name": "Al Khanzīrah",
    "latitude": 36.23169,
    "longitude": 37.00805,
    "category": "Mountain",
    "subcategory": "Mountain",
    "featured": false,
    "priority": 50
  },
  {
    "geonameId": 8413187,
    "name": "Al Kharshū‘ah",
    "latitude": 33.4892,
    "longitude": 36.17594,
    "category": "Mountain",
    "subcategory": "Mountain",
    "featured": false,
    "priority": 50
  },
  {
    "geonameId": 173607,
    "name": "Al Khuraybah",
    "latitude": 33.98807,
    "longitude": 36.49575,
    "category": "Mountain",
    "subcategory": "Mountain",
    "featured": false,
    "priority": 50
  },
  {
    "geonameId": 173598,
    "name": "Al Kiswah",
    "latitude": 33.3581,
    "longitude": 36.2419,
    "category": "City",
    "subcategory": "District Seat",
    "featured": false,
    "priority": 50
  },
  {
    "geonameId": 167577,
    "name": "Al Ma‘baţlī",
    "latitude": 36.56246,
    "longitude": 36.74292,
    "category": "City",
    "subcategory": "District Seat",
    "featured": false,
    "priority": 50
  },
  {
    "geonameId": 173530,
    "name": "Al Mālikīyah",
    "latitude": 37.17701,
    "longitude": 42.14006,
    "category": "City",
    "subcategory": "County Seat",
    "featured": false,
    "priority": 50
  },
  {
    "geonameId": 173520,
    "name": "Al Manqūrah",
    "latitude": 33.96667,
    "longitude": 37.25,
    "category": "Mountain",
    "subcategory": "Peak",
    "featured": false,
    "priority": 50
  },
  {
    "geonameId": 8559276,
    "name": "Al Manşūrah",
    "latitude": 35.83917,
    "longitude": 38.74288,
    "category": "City",
    "subcategory": "District Seat",
    "featured": false,
    "priority": 50
  },
  {
    "geonameId": 173516,
    "name": "Al Manţarah",
    "latitude": 33.59348,
    "longitude": 36.13747,
    "category": "Mountain",
    "subcategory": "Peak",
    "featured": false,
    "priority": 50
  },
  {
    "geonameId": 11430308,
    "name": "Al Manzilah al Juwwānīyah",
    "latitude": 34.03465,
    "longitude": 36.70229,
    "category": "Mountain",
    "subcategory": "Mountain",
    "featured": false,
    "priority": 50
  },
  {
    "geonameId": 8413191,
    "name": "Al Marāḩ",
    "latitude": 33.48587,
    "longitude": 36.16133,
    "category": "Mountain",
    "subcategory": "Mountain",
    "featured": false,
    "priority": 50
  },
  {
    "geonameId": 8411747,
    "name": "Al Marmalah",
    "latitude": 33.51266,
    "longitude": 36.16442,
    "category": "Mountain",
    "subcategory": "Mountain",
    "featured": false,
    "priority": 50
  },
  {
    "geonameId": 7641914,
    "name": "Al Maşāţib",
    "latitude": 33.49076,
    "longitude": 36.21747,
    "category": "Mountain",
    "subcategory": "Mountain",
    "featured": false,
    "priority": 50
  },
  {
    "geonameId": 11430480,
    "name": "Al Maşţabah",
    "latitude": 34.2431,
    "longitude": 36.67435,
    "category": "Mountain",
    "subcategory": "Mountain",
    "featured": false,
    "priority": 50
  },
  {
    "geonameId": 173480,
    "name": "Al Mayādīn",
    "latitude": 35.01982,
    "longitude": 40.45154,
    "category": "City",
    "subcategory": "County Seat",
    "featured": false,
    "priority": 50
  },
  {
    "geonameId": 172441,
    "name": "Al Mazra‘ah",
    "latitude": 32.78152,
    "longitude": 36.47838,
    "category": "City",
    "subcategory": "District Seat",
    "featured": false,
    "priority": 50
  },
  {
    "geonameId": 11261879,
    "name": "Al Mu‘allaqah",
    "latitude": 33.83615,
    "longitude": 36.69822,
    "category": "Mountain",
    "subcategory": "Peak",
    "featured": false,
    "priority": 50
  },
  {
    "geonameId": 173434,
    "name": "Al Mulayḩah",
    "latitude": 33.48522,
    "longitude": 36.37561,
    "category": "City",
    "subcategory": "District Seat",
    "featured": false,
    "priority": 50
  },
  {
    "geonameId": 173416,
    "name": "Al Musayfirah",
    "latitude": 32.63263,
    "longitude": 36.33977,
    "category": "City",
    "subcategory": "District Seat",
    "featured": false,
    "priority": 50
  },
  {
    "geonameId": 11260880,
    "name": "Al Muşayţibah",
    "latitude": 33.76617,
    "longitude": 36.38623,
    "category": "Mountain",
    "subcategory": "Mountain",
    "featured": false,
    "priority": 50
  },
  {
    "geonameId": 173414,
    "name": "Al Mushannaf",
    "latitude": 32.74379,
    "longitude": 36.77593,
    "category": "City",
    "subcategory": "District Seat",
    "featured": false,
    "priority": 50
  },
  {
    "geonameId": 166507,
    "name": "Al Muzayri‘ah",
    "latitude": 35.5318,
    "longitude": 36.07003,
    "category": "City",
    "subcategory": "District Seat",
    "featured": false,
    "priority": 50
  },
  {
    "geonameId": 166503,
    "name": "Al Muzayrīb",
    "latitude": 32.71084,
    "longitude": 36.02751,
    "category": "City",
    "subcategory": "District Seat",
    "featured": false,
    "priority": 50
  },
  {
    "geonameId": 168098,
    "name": "Al Qabw",
    "latitude": 34.84324,
    "longitude": 36.45493,
    "category": "City",
    "subcategory": "District Seat",
    "featured": false,
    "priority": 50
  },
  {
    "geonameId": 173389,
    "name": "Al Qadmūs",
    "latitude": 35.09855,
    "longitude": 36.15984,
    "category": "City",
    "subcategory": "District Seat",
    "featured": false,
    "priority": 50
  },
  {
    "geonameId": 165757,
    "name": "Al Qaḩţānīyah",
    "latitude": 37.029,
    "longitude": 41.54596,
    "category": "City",
    "subcategory": "District Seat",
    "featured": false,
    "priority": 50
  },
  {
    "geonameId": 11430280,
    "name": "Al Qald",
    "latitude": 34.04672,
    "longitude": 36.62794,
    "category": "Mountain",
    "subcategory": "Mountain",
    "featured": false,
    "priority": 50
  },
  {
    "geonameId": 173377,
    "name": "Al Qāmishlī",
    "latitude": 37.05215,
    "longitude": 41.23142,
    "category": "City",
    "subcategory": "County Seat",
    "featured": false,
    "priority": 50
  },
  {
    "geonameId": 166158,
    "name": "Al Qamşīyah",
    "latitude": 35.03357,
    "longitude": 36.01455,
    "category": "City",
    "subcategory": "District Seat",
    "featured": false,
    "priority": 50
  },
  {
    "geonameId": 173364,
    "name": "Al Qardāḩah",
    "latitude": 35.45644,
    "longitude": 36.05909,
    "category": "City",
    "subcategory": "County Seat",
    "featured": false,
    "priority": 50
  },
  {
    "geonameId": 11261139,
    "name": "Al Qarīn",
    "latitude": 33.65892,
    "longitude": 36.7699,
    "category": "Mountain",
    "subcategory": "Mountain",
    "featured": false,
    "priority": 50
  },
  {
    "geonameId": 8273595,
    "name": "Al Qarn",
    "latitude": 35.75648,
    "longitude": 36.72262,
    "category": "Mountain",
    "subcategory": "Peak",
    "featured": false,
    "priority": 50
  },
  {
    "geonameId": 173361,
    "name": "Al Qaryatayn",
    "latitude": 34.22956,
    "longitude": 37.24066,
    "category": "City",
    "subcategory": "District Seat",
    "featured": false,
    "priority": 50
  },
  {
    "geonameId": 11261535,
    "name": "Al Qidām",
    "latitude": 33.78062,
    "longitude": 36.57428,
    "category": "Mountain",
    "subcategory": "Mountain",
    "featured": false,
    "priority": 50
  },
  {
    "geonameId": 173334,
    "name": "Al Qunayţirah",
    "latitude": 33.12595,
    "longitude": 35.82461,
    "category": "City",
    "subcategory": "Regional Capital",
    "featured": false,
    "priority": 50
  },
  {
    "geonameId": 173331,
    "name": "Al Qurayyā",
    "latitude": 32.54337,
    "longitude": 36.59776,
    "category": "City",
    "subcategory": "District Seat",
    "featured": false,
    "priority": 50
  },
  {
    "geonameId": 173322,
    "name": "Al Quşayr",
    "latitude": 34.5078,
    "longitude": 36.58029,
    "category": "City",
    "subcategory": "County Seat",
    "featured": false,
    "priority": 50
  },
  {
    "geonameId": 173312,
    "name": "Al Quţayfah",
    "latitude": 33.73848,
    "longitude": 36.60071,
    "category": "City",
    "subcategory": "County Seat",
    "featured": false,
    "priority": 50
  },
  {
    "geonameId": 165637,
    "name": "Al Quţaylibīyah",
    "latitude": 35.29203,
    "longitude": 36.01592,
    "category": "City",
    "subcategory": "District Seat",
    "featured": false,
    "priority": 50
  },
  {
    "geonameId": 11431719,
    "name": "Al Rujm al Qiblī",
    "latitude": 34.37951,
    "longitude": 36.88699,
    "category": "Mountain",
    "subcategory": "Mountain",
    "featured": false,
    "priority": 50
  },
  {
    "geonameId": 8413132,
    "name": "Al Wayzah",
    "latitude": 33.45325,
    "longitude": 36.11581,
    "category": "Mountain",
    "subcategory": "Mountain",
    "featured": false,
    "priority": 50
  },
  {
    "geonameId": 383661,
    "name": "Al Ya‘rubīyah",
    "latitude": 36.81138,
    "longitude": 42.06206,
    "category": "City",
    "subcategory": "District Seat",
    "featured": false,
    "priority": 50
  },
  {
    "geonameId": 172374,
    "name": "Al-Tabqa",
    "latitude": 35.83758,
    "longitude": 38.54828,
    "category": "City",
    "subcategory": "County Seat",
    "featured": false,
    "priority": 50
  },
  {
    "geonameId": 166716,
    "name": "al-Yarmūk",
    "latitude": 33.4699,
    "longitude": 36.3018,
    "category": "City",
    "subcategory": "City",
    "featured": false,
    "priority": 50
  },
  {
    "geonameId": 174448,
    "name": "Ālbū Kamāl",
    "latitude": 34.45226,
    "longitude": 40.91854,
    "category": "City",
    "subcategory": "County Seat",
    "featured": false,
    "priority": 50
  },
  {
    "geonameId": 170063,
    "name": "Aleppo",
    "latitude": 36.20124,
    "longitude": 37.16117,
    "category": "City",
    "subcategory": "Regional Capital",
    "featured": false,
    "priority": 50
  },
  {
    "geonameId": 8181940,
    "name": "Almaza Park",
    "latitude": 35.92593,
    "longitude": 36.62399,
    "category": "Park",
    "subcategory": "Park",
    "featured": false,
    "priority": 50
  },
  {
    "geonameId": 10942276,
    "name": "Alzahera garden",
    "latitude": 33.48725,
    "longitude": 36.30608,
    "category": "Park",
    "subcategory": "Park",
    "featured": false,
    "priority": 50
  },
  {
    "geonameId": 173210,
    "name": "An Nabāj",
    "latitude": 35.58333,
    "longitude": 38.35,
    "category": "Mountain",
    "subcategory": "Peak",
    "featured": false,
    "priority": 50
  },
  {
    "geonameId": 173193,
    "name": "An Nabk",
    "latitude": 34.02403,
    "longitude": 36.72848,
    "category": "City",
    "subcategory": "County Seat",
    "featured": false,
    "priority": 50
  },
  {
    "geonameId": 166449,
    "name": "An Naḩlah",
    "latitude": 33.65114,
    "longitude": 36.21132,
    "category": "Mountain",
    "subcategory": "Peak",
    "featured": false,
    "priority": 50
  },
  {
    "geonameId": 166446,
    "name": "An Naqqār",
    "latitude": 33.51979,
    "longitude": 36.19823,
    "category": "Mountain",
    "subcategory": "Mountain",
    "featured": false,
    "priority": 50
  },
  {
    "geonameId": 173178,
    "name": "An Nashābīyah",
    "latitude": 33.51051,
    "longitude": 36.48569,
    "category": "City",
    "subcategory": "District Seat",
    "featured": false,
    "priority": 50
  },
  {
    "geonameId": 173606,
    "name": "An Nāşirah",
    "latitude": 34.78769,
    "longitude": 36.28559,
    "category": "City",
    "subcategory": "District Seat",
    "featured": false,
    "priority": 50
  },
  {
    "geonameId": 169138,
    "name": "Ar Rā‘ī",
    "latitude": 36.61182,
    "longitude": 37.4478,
    "category": "City",
    "subcategory": "District Seat",
    "featured": false,
    "priority": 50
  },
  {
    "geonameId": 11430917,
    "name": "Ar Radm",
    "latitude": 34.08193,
    "longitude": 36.93975,
    "category": "Mountain",
    "subcategory": "Mountain",
    "featured": false,
    "priority": 50
  },
  {
    "geonameId": 172969,
    "name": "Ar Rājūr",
    "latitude": 34.01687,
    "longitude": 36.42517,
    "category": "Mountain",
    "subcategory": "Mountain",
    "featured": false,
    "priority": 50
  },
  {
    "geonameId": 172955,
    "name": "Ar Raqqah",
    "latitude": 35.95283,
    "longitude": 39.00788,
    "category": "City",
    "subcategory": "Regional Capital",
    "featured": false,
    "priority": 50
  },
  {
    "geonameId": 172946,
    "name": "Ar Rastan",
    "latitude": 34.92667,
    "longitude": 36.73241,
    "category": "City",
    "subcategory": "County Seat",
    "featured": false,
    "priority": 50
  },
  {
    "geonameId": 171467,
    "name": "Ar Rawābī al Bīḑ",
    "latitude": 34.19936,
    "longitude": 36.90504,
    "category": "Mountain",
    "subcategory": "Mountain",
    "featured": false,
    "priority": 50
  },
  {
    "geonameId": 171501,
    "name": "Ar Rawḑah",
    "latitude": 35.07204,
    "longitude": 35.91375,
    "category": "City",
    "subcategory": "District Seat",
    "featured": false,
    "priority": 50
  },
  {
    "geonameId": 165303,
    "name": "Ar Riqāmā",
    "latitude": 34.53879,
    "longitude": 36.91909,
    "category": "City",
    "subcategory": "District Seat",
    "featured": false,
    "priority": 50
  },
  {
    "geonameId": 172922,
    "name": "Ar Ruḩaybah",
    "latitude": 33.74424,
    "longitude": 36.70394,
    "category": "City",
    "subcategory": "District Seat",
    "featured": false,
    "priority": 50
  },
  {
    "geonameId": 8316233,
    "name": "Ardāsh Dāgh",
    "latitude": 35.86971,
    "longitude": 36.05528,
    "category": "Mountain",
    "subcategory": "Mountain",
    "featured": false,
    "priority": 50
  },
  {
    "geonameId": 172994,
    "name": "Arīḩā",
    "latitude": 35.81374,
    "longitude": 36.60964,
    "category": "City",
    "subcategory": "County Seat",
    "featured": false,
    "priority": 50
  },
  {
    "geonameId": 172988,
    "name": "Armanāz",
    "latitude": 36.08363,
    "longitude": 36.5031,
    "category": "City",
    "subcategory": "District Seat",
    "featured": false,
    "priority": 50
  },
  {
    "geonameId": 172880,
    "name": "Arwād",
    "latitude": 34.85604,
    "longitude": 35.85854,
    "category": "City",
    "subcategory": "District Seat",
    "featured": false,
    "priority": 50
  },
  {
    "geonameId": 165158,
    "name": "As Sab‘ Biyār",
    "latitude": 33.77974,
    "longitude": 37.68357,
    "category": "City",
    "subcategory": "District Seat",
    "featured": false,
    "priority": 50
  },
  {
    "geonameId": 172511,
    "name": "As Sabkhah",
    "latitude": 35.81182,
    "longitude": 39.26268,
    "category": "City",
    "subcategory": "District Seat",
    "featured": false,
    "priority": 50
  },
  {
    "geonameId": 172503,
    "name": "As Safīrah",
    "latitude": 36.07696,
    "longitude": 37.37251,
    "category": "City",
    "subcategory": "County Seat",
    "featured": false,
    "priority": 50
  },
  {
    "geonameId": 172497,
    "name": "Aş Şafşāfah",
    "latitude": 34.73481,
    "longitude": 36.05318,
    "category": "City",
    "subcategory": "District Seat",
    "featured": false,
    "priority": 50
  },
  {
    "geonameId": 164947,
    "name": "As Salamīyah",
    "latitude": 35.01127,
    "longitude": 37.05324,
    "category": "City",
    "subcategory": "County Seat",
    "featured": false,
    "priority": 50
  },
  {
    "geonameId": 172469,
    "name": "Aş Şanamayn",
    "latitude": 33.07186,
    "longitude": 36.18316,
    "category": "City",
    "subcategory": "County Seat",
    "featured": false,
    "priority": 50
  },
  {
    "geonameId": 172454,
    "name": "As Sawdā",
    "latitude": 34.98151,
    "longitude": 35.94414,
    "category": "City",
    "subcategory": "District Seat",
    "featured": false,
    "priority": 50
  },
  {
    "geonameId": 172515,
    "name": "As Si‘in",
    "latitude": 35.26375,
    "longitude": 37.37402,
    "category": "City",
    "subcategory": "District Seat",
    "featured": false,
    "priority": 50
  },
  {
    "geonameId": 172442,
    "name": "As Sīḩah",
    "latitude": 35.82341,
    "longitude": 36.98931,
    "category": "Lake",
    "subcategory": "Reservoir",
    "featured": false,
    "priority": 50
  },
  {
    "geonameId": 172432,
    "name": "As Sīsnīyah",
    "latitude": 34.78108,
    "longitude": 36.14298,
    "category": "City",
    "subcategory": "District Seat",
    "featured": false,
    "priority": 50
  },
  {
    "geonameId": 172429,
    "name": "Aş Şūfānīyah",
    "latitude": 34.8,
    "longitude": 37.48333,
    "category": "Mountain",
    "subcategory": "Peak",
    "featured": false,
    "priority": 50
  },
  {
    "geonameId": 172425,
    "name": "As Sukhnah",
    "latitude": 34.88533,
    "longitude": 38.8711,
    "category": "City",
    "subcategory": "District Seat",
    "featured": false,
    "priority": 50
  },
  {
    "geonameId": 163921,
    "name": "As Suqaylibīyah",
    "latitude": 35.36674,
    "longitude": 36.39359,
    "category": "City",
    "subcategory": "County Seat",
    "featured": false,
    "priority": 50
  },
  {
    "geonameId": 12795,
    "name": "Aş Şūrah aş Şaghīrah",
    "latitude": 33.03247,
    "longitude": 36.5742,
    "category": "City",
    "subcategory": "District Seat",
    "featured": false,
    "priority": 50
  },
  {
    "geonameId": 172415,
    "name": "As Sūsah",
    "latitude": 34.53366,
    "longitude": 40.95819,
    "category": "City",
    "subcategory": "District Seat",
    "featured": false,
    "priority": 50
  },
  {
    "geonameId": 172408,
    "name": "As-Suwayda",
    "latitude": 32.70896,
    "longitude": 36.56951,
    "category": "City",
    "subcategory": "Regional Capital",
    "featured": false,
    "priority": 50
  },
  {
    "geonameId": 172837,
    "name": "Ash Shaddādah",
    "latitude": 36.05756,
    "longitude": 40.73478,
    "category": "City",
    "subcategory": "District Seat",
    "featured": false,
    "priority": 50
  },
  {
    "geonameId": 172829,
    "name": "Ash Shajarah",
    "latitude": 32.77411,
    "longitude": 35.88202,
    "category": "City",
    "subcategory": "District Seat",
    "featured": false,
    "priority": 50
  },
  {
    "geonameId": 172809,
    "name": "Ash Shawmarīyah",
    "latitude": 34.68396,
    "longitude": 37.19726,
    "category": "Mountain",
    "subcategory": "Peak",
    "featured": false,
    "priority": 50
  },
  {
    "geonameId": 172743,
    "name": "Ash Shaykh Badr",
    "latitude": 34.99174,
    "longitude": 36.0835,
    "category": "City",
    "subcategory": "County Seat",
    "featured": false,
    "priority": 50
  },
  {
    "geonameId": 8321956,
    "name": "Ash Shinānāt",
    "latitude": 34.98797,
    "longitude": 36.8455,
    "category": "Mountain",
    "subcategory": "Peak",
    "featured": false,
    "priority": 50
  },
  {
    "geonameId": 8412952,
    "name": "Ash Shu‘bah",
    "latitude": 33.48813,
    "longitude": 36.14064,
    "category": "Mountain",
    "subcategory": "Peak",
    "featured": false,
    "priority": 50
  },
  {
    "geonameId": 172535,
    "name": "Ash Shubayţ",
    "latitude": 35.81667,
    "longitude": 37.61667,
    "category": "Mountain",
    "subcategory": "Peak",
    "featured": false,
    "priority": 50
  },
  {
    "geonameId": 12872,
    "name": "Ash Shumays",
    "latitude": 33.78552,
    "longitude": 36.44826,
    "category": "Mountain",
    "subcategory": "Mountain",
    "featured": false,
    "priority": 50
  },
  {
    "geonameId": 172349,
    "name": "At Tall",
    "latitude": 33.61033,
    "longitude": 36.3107,
    "category": "City",
    "subcategory": "County Seat",
    "featured": false,
    "priority": 50
  },
  {
    "geonameId": 11430140,
    "name": "At Tallah al Kabīrah",
    "latitude": 34.2161,
    "longitude": 36.75841,
    "category": "Mountain",
    "subcategory": "Mountain",
    "featured": false,
    "priority": 50
  },
  {
    "geonameId": 172347,
    "name": "At Tamāni‘ah",
    "latitude": 35.45846,
    "longitude": 36.74816,
    "category": "City",
    "subcategory": "District Seat",
    "featured": false,
    "priority": 50
  },
  {
    "geonameId": 11431753,
    "name": "Aţ Ţawāfīḩ",
    "latitude": 34.27444,
    "longitude": 36.88241,
    "category": "Mountain",
    "subcategory": "Mountain",
    "featured": false,
    "priority": 50
  },
  {
    "geonameId": 172339,
    "name": "Aţ Ţawāḩīn",
    "latitude": 35.12751,
    "longitude": 36.21444,
    "category": "City",
    "subcategory": "District Seat",
    "featured": false,
    "priority": 50
  },
  {
    "geonameId": 172327,
    "name": "At Tibnī",
    "latitude": 35.6117,
    "longitude": 39.8181,
    "category": "City",
    "subcategory": "District Seat",
    "featured": false,
    "priority": 50
  },
  {
    "geonameId": 9098,
    "name": "Awj Qanā Shamālīyah",
    "latitude": 36.43333,
    "longitude": 38.16667,
    "category": "Mountain",
    "subcategory": "Mountain",
    "featured": false,
    "priority": 50
  },
  {
    "geonameId": 11261016,
    "name": "Awz al Miţḩanah",
    "latitude": 33.8212,
    "longitude": 36.45202,
    "category": "Mountain",
    "subcategory": "Peak",
    "featured": false,
    "priority": 50
  },
  {
    "geonameId": 166228,
    "name": "Āyat al Kursī",
    "latitude": 33.68135,
    "longitude": 36.10564,
    "category": "Mountain",
    "subcategory": "Mountain",
    "featured": false,
    "priority": 50
  },
  {
    "geonameId": 2960,
    "name": "Ayn Halaqim",
    "latitude": 34.93998,
    "longitude": 36.32212,
    "category": "City",
    "subcategory": "District Seat",
    "featured": false,
    "priority": 50
  },
  {
    "geonameId": 172059,
    "name": "Az Zabadānī",
    "latitude": 33.72488,
    "longitude": 36.1005,
    "category": "City",
    "subcategory": "County Seat",
    "featured": false,
    "priority": 50
  },
  {
    "geonameId": 11261045,
    "name": "Az̧ Z̧ahr al Wasţānī",
    "latitude": 33.76134,
    "longitude": 36.49577,
    "category": "Mountain",
    "subcategory": "Mountain",
    "featured": false,
    "priority": 50
  },
  {
    "geonameId": 11261042,
    "name": "Az̧ Z̧alīl",
    "latitude": 33.75172,
    "longitude": 36.48764,
    "category": "Mountain",
    "subcategory": "Mountain",
    "featured": false,
    "priority": 50
  },
  {
    "geonameId": 7674867,
    "name": "Az Zanzalah",
    "latitude": 36.28054,
    "longitude": 37.36622,
    "category": "Mountain",
    "subcategory": "Mountain",
    "featured": false,
    "priority": 50
  },
  {
    "geonameId": 172045,
    "name": "Az Zarbah",
    "latitude": 36.06771,
    "longitude": 36.98012,
    "category": "City",
    "subcategory": "District Seat",
    "featured": false,
    "priority": 50
  },
  {
    "geonameId": 172027,
    "name": "Az Ziyārah",
    "latitude": 35.68482,
    "longitude": 36.33867,
    "category": "City",
    "subcategory": "District Seat",
    "featured": false,
    "priority": 50
  },
  {
    "geonameId": 172025,
    "name": "Az Zubaydīyah",
    "latitude": 33.81667,
    "longitude": 37.05,
    "category": "Mountain",
    "subcategory": "Peak",
    "featured": false,
    "priority": 50
  },
  {
    "geonameId": 8345904,
    "name": "Ba‘lat al Durzī",
    "latitude": 33.71756,
    "longitude": 36.65534,
    "category": "Mountain",
    "subcategory": "Peak",
    "featured": false,
    "priority": 50
  },
  {
    "geonameId": 8411116,
    "name": "Bāb al ‘Aqabah",
    "latitude": 33.60803,
    "longitude": 36.15915,
    "category": "Mountain",
    "subcategory": "Peak",
    "featured": false,
    "priority": 50
  },
  {
    "geonameId": 11261127,
    "name": "Bāb al ‘Ubaybī",
    "latitude": 33.68093,
    "longitude": 36.75636,
    "category": "Mountain",
    "subcategory": "Mountain Pass",
    "featured": false,
    "priority": 50
  },
  {
    "geonameId": 11261124,
    "name": "Bāb al ‘Ubaybī ash Shamālī",
    "latitude": 33.68198,
    "longitude": 36.77735,
    "category": "Mountain",
    "subcategory": "Mountain Pass",
    "featured": false,
    "priority": 50
  },
  {
    "geonameId": 8322564,
    "name": "Bāb al Hawá",
    "latitude": 35.87529,
    "longitude": 36.22822,
    "category": "Mountain",
    "subcategory": "Mountain Pass",
    "featured": false,
    "priority": 50
  },
  {
    "geonameId": 169777,
    "name": "Bāb al Hawā",
    "latitude": 36.23779,
    "longitude": 37.26464,
    "category": "Mountain",
    "subcategory": "Mountain Pass",
    "featured": false,
    "priority": 50
  },
  {
    "geonameId": 11555612,
    "name": "Bāb al Hawā’",
    "latitude": 35.13663,
    "longitude": 36.91965,
    "category": "Mountain",
    "subcategory": "Mountain Pass",
    "featured": false,
    "priority": 50
  },
  {
    "geonameId": 167526,
    "name": "Bāb al Maghār",
    "latitude": 33.58333,
    "longitude": 36.06667,
    "category": "Mountain",
    "subcategory": "Mountain Pass",
    "featured": false,
    "priority": 50
  },
  {
    "geonameId": 166243,
    "name": "Bāb al Qal‘ah",
    "latitude": 33.5017,
    "longitude": 35.99444,
    "category": "Mountain",
    "subcategory": "Mountain Pass",
    "featured": false,
    "priority": 50
  },
  {
    "geonameId": 12745,
    "name": "Bāb aş Şurrah",
    "latitude": 33.71505,
    "longitude": 36.83887,
    "category": "Mountain",
    "subcategory": "Mountain Pass",
    "featured": false,
    "priority": 50
  },
  {
    "geonameId": 11261197,
    "name": "Bāb Lubayyiḑ",
    "latitude": 33.7164,
    "longitude": 36.80485,
    "category": "Mountain",
    "subcategory": "Mountain Pass",
    "featured": false,
    "priority": 50
  },
  {
    "geonameId": 11261193,
    "name": "Bāb Ma‘bad",
    "latitude": 33.69366,
    "longitude": 36.79382,
    "category": "Mountain",
    "subcategory": "Mountain Pass",
    "featured": false,
    "priority": 50
  },
  {
    "geonameId": 11261123,
    "name": "Bāb Şīr al Laban",
    "latitude": 33.68387,
    "longitude": 36.78164,
    "category": "Mountain",
    "subcategory": "Mountain Pass",
    "featured": false,
    "priority": 50
  },
  {
    "geonameId": 11261200,
    "name": "Bāb Şīr Umm Khalīl",
    "latitude": 33.72638,
    "longitude": 36.81173,
    "category": "Mountain",
    "subcategory": "Mountain Pass",
    "featured": false,
    "priority": 50
  },
  {
    "geonameId": 11260748,
    "name": "Bāb Wādī aş Şihrīj",
    "latitude": 33.8945,
    "longitude": 36.34696,
    "category": "Mountain",
    "subcategory": "Mountain Pass",
    "featured": false,
    "priority": 50
  },
  {
    "geonameId": 171998,
    "name": "Babīlā",
    "latitude": 33.47101,
    "longitude": 36.33076,
    "category": "City",
    "subcategory": "District Seat",
    "featured": false,
    "priority": 50
  },
  {
    "geonameId": 8275717,
    "name": "Bādiyat al Kharījah",
    "latitude": 35.34907,
    "longitude": 40.6113,
    "category": "Desert",
    "subcategory": "Desert",
    "featured": false,
    "priority": 50
  },
  {
    "geonameId": 172949,
    "name": "Bādiyat ar Ruşāfah",
    "latitude": 35.5,
    "longitude": 38.75,
    "category": "Desert",
    "subcategory": "Desert",
    "featured": false,
    "priority": 50
  },
  {
    "geonameId": 11257340,
    "name": "Baflûnê mountain",
    "latitude": 36.61952,
    "longitude": 36.98736,
    "category": "Mountain",
    "subcategory": "Mountain",
    "featured": false,
    "priority": 50
  },
  {
    "geonameId": 162309,
    "name": "Baḩrat Ḩimş",
    "latitude": 34.65,
    "longitude": 36.56667,
    "category": "Lake",
    "subcategory": "Reservoir",
    "featured": false,
    "priority": 50
  },
  {
    "geonameId": 171921,
    "name": "Bakkā",
    "latitude": 32.46667,
    "longitude": 36.55,
    "category": "Mountain",
    "subcategory": "Mountain",
    "featured": false,
    "priority": 50
  },
  {
    "geonameId": 420835,
    "name": "Bakkārāt az Zawr",
    "latitude": 36.25278,
    "longitude": 40.40306,
    "category": "Mountain",
    "subcategory": "Mountain",
    "featured": false,
    "priority": 50
  },
  {
    "geonameId": 171851,
    "name": "Banān",
    "latitude": 35.97358,
    "longitude": 37.30234,
    "category": "City",
    "subcategory": "District Seat",
    "featured": false,
    "priority": 50
  },
  {
    "geonameId": 171830,
    "name": "Bāniyās",
    "latitude": 35.18188,
    "longitude": 35.94871,
    "category": "City",
    "subcategory": "County Seat",
    "featured": false,
    "priority": 50
  },
  {
    "geonameId": 171757,
    "name": "Barrī ash Sharqī",
    "latitude": 34.98099,
    "longitude": 37.20096,
    "category": "City",
    "subcategory": "District Seat",
    "featured": false,
    "priority": 50
  },
  {
    "geonameId": 171694,
    "name": "Batabo",
    "latitude": 36.13447,
    "longitude": 36.73979,
    "category": "City",
    "subcategory": "City",
    "featured": false,
    "priority": 50
  },
  {
    "geonameId": 11261530,
    "name": "Bāţin al Burj",
    "latitude": 33.79319,
    "longitude": 36.57632,
    "category": "Mountain",
    "subcategory": "Mountain",
    "featured": false,
    "priority": 50
  },
  {
    "geonameId": 8322953,
    "name": "Bātintah",
    "latitude": 36.00774,
    "longitude": 36.62962,
    "category": "Mountain",
    "subcategory": "Peak",
    "featured": false,
    "priority": 50
  },
  {
    "geonameId": 8609252,
    "name": "Bayt Yāshūţ",
    "latitude": 35.31025,
    "longitude": 36.11523,
    "category": "City",
    "subcategory": "District Seat",
    "featured": false,
    "priority": 50
  },
  {
    "geonameId": 171494,
    "name": "Bdāmā",
    "latitude": 35.81151,
    "longitude": 36.19649,
    "category": "City",
    "subcategory": "District Seat",
    "featured": false,
    "priority": 50
  },
  {
    "geonameId": 11257346,
    "name": "Beshlemun mountain",
    "latitude": 35.80661,
    "longitude": 36.38947,
    "category": "Mountain",
    "subcategory": "Mountain",
    "featured": false,
    "priority": 50
  },
  {
    "geonameId": 171410,
    "name": "Bi’r al Ḩulw al Wardīyah",
    "latitude": 36.69694,
    "longitude": 41.03528,
    "category": "City",
    "subcategory": "District Seat",
    "featured": false,
    "priority": 50
  },
  {
    "geonameId": 171451,
    "name": "Binnish",
    "latitude": 35.95664,
    "longitude": 36.7138,
    "category": "City",
    "subcategory": "District Seat",
    "featured": false,
    "priority": 50
  },
  {
    "geonameId": 7526833,
    "name": "Bint Arwād",
    "latitude": 34.85843,
    "longitude": 35.85597,
    "category": "Island",
    "subcategory": "Island",
    "featured": false,
    "priority": 50
  },
  {
    "geonameId": 8384218,
    "name": "Birkat al Ḩājj",
    "latitude": 32.51695,
    "longitude": 36.48538,
    "category": "Lake",
    "subcategory": "Reservoir",
    "featured": false,
    "priority": 50
  },
  {
    "geonameId": 8330137,
    "name": "Bīyāt",
    "latitude": 36.18264,
    "longitude": 36.65148,
    "category": "Mountain",
    "subcategory": "Mountain",
    "featured": false,
    "priority": 50
  },
  {
    "geonameId": 171295,
    "name": "Brummānat al Mashāyikh",
    "latitude": 35.01883,
    "longitude": 36.17083,
    "category": "City",
    "subcategory": "District Seat",
    "featured": false,
    "priority": 50
  },
  {
    "geonameId": 172869,
    "name": "Buḩayrat al Asad",
    "latitude": 35.99265,
    "longitude": 38.17034,
    "category": "Lake",
    "subcategory": "Reservoir",
    "featured": false,
    "priority": 50
  },
  {
    "geonameId": 8341868,
    "name": "Buḩayrat al Jabūl",
    "latitude": 35.99563,
    "longitude": 37.5716,
    "category": "Lake",
    "subcategory": "Lake",
    "featured": false,
    "priority": 50
  },
  {
    "geonameId": 165904,
    "name": "Buḩayrat Qaţţīnah",
    "latitude": 34.63996,
    "longitude": 36.56724,
    "category": "Lake",
    "subcategory": "Reservoir",
    "featured": false,
    "priority": 50
  },
  {
    "geonameId": 11440755,
    "name": "Buḩayrat Sadd Zaytā",
    "latitude": 34.51153,
    "longitude": 36.46019,
    "category": "Lake",
    "subcategory": "Reservoir",
    "featured": false,
    "priority": 50
  },
  {
    "geonameId": 9094489,
    "name": "Buḩayrat Sittat ‘Ashar Tishrīn",
    "latitude": 35.65538,
    "longitude": 35.94758,
    "category": "Lake",
    "subcategory": "Reservoir",
    "featured": false,
    "priority": 50
  },
  {
    "geonameId": 171212,
    "name": "Bulbul",
    "latitude": 36.76947,
    "longitude": 36.81969,
    "category": "City",
    "subcategory": "District Seat",
    "featured": false,
    "priority": 50
  },
  {
    "geonameId": 171200,
    "name": "Buq‘ātā",
    "latitude": 33.20111,
    "longitude": 35.77917,
    "category": "City",
    "subcategory": "City",
    "featured": false,
    "priority": 50
  },
  {
    "geonameId": 8316180,
    "name": "Būqūrlū Dāghū",
    "latitude": 35.81071,
    "longitude": 36.03916,
    "category": "Mountain",
    "subcategory": "Mountain",
    "featured": false,
    "priority": 50
  },
  {
    "geonameId": 171141,
    "name": "Burj ‘Uyūn al ‘Alaq",
    "latitude": 34.18881,
    "longitude": 36.7698,
    "category": "Mountain",
    "subcategory": "Mountain",
    "featured": false,
    "priority": 50
  },
  {
    "geonameId": 8330284,
    "name": "Burj Gharbī",
    "latitude": 36.16465,
    "longitude": 36.71855,
    "category": "Mountain",
    "subcategory": "Peak",
    "featured": false,
    "priority": 50
  },
  {
    "geonameId": 11430270,
    "name": "Burj Ḩassān",
    "latitude": 34.03532,
    "longitude": 36.66944,
    "category": "Mountain",
    "subcategory": "Mountain",
    "featured": false,
    "priority": 50
  },
  {
    "geonameId": 171147,
    "name": "Burj Islām",
    "latitude": 35.67396,
    "longitude": 35.80259,
    "category": "City",
    "subcategory": "City",
    "featured": false,
    "priority": 50
  },
  {
    "geonameId": 8330458,
    "name": "Burj Mudakhkhan",
    "latitude": 36.21865,
    "longitude": 36.71635,
    "category": "Mountain",
    "subcategory": "Peak",
    "featured": false,
    "priority": 50
  },
  {
    "geonameId": 8330147,
    "name": "Burj Suwayd",
    "latitude": 36.16686,
    "longitude": 36.70668,
    "category": "Mountain",
    "subcategory": "Peak",
    "featured": false,
    "priority": 50
  },
  {
    "geonameId": 171126,
    "name": "Buşrá ash Shām",
    "latitude": 32.5174,
    "longitude": 36.48163,
    "category": "City",
    "subcategory": "District Seat",
    "featured": false,
    "priority": 50
  },
  {
    "geonameId": 11430721,
    "name": "Buţūḩ al Qāq",
    "latitude": 34.03851,
    "longitude": 36.79578,
    "category": "Mountain",
    "subcategory": "Mountain",
    "featured": false,
    "priority": 50
  },
  {
    "geonameId": 4630,
    "name": "Būz Dāgh",
    "latitude": 35.87837,
    "longitude": 36.02122,
    "category": "Mountain",
    "subcategory": "Mountain",
    "featured": false,
    "priority": 50
  },
  {
    "geonameId": 8322025,
    "name": "Būz Ḩarbah",
    "latitude": 35.76272,
    "longitude": 36.17747,
    "category": "Mountain",
    "subcategory": "Mountain",
    "featured": false,
    "priority": 50
  },
  {
    "geonameId": 437203,
    "name": "Ceylan Tepe",
    "latitude": 36.76667,
    "longitude": 36.98667,
    "category": "Mountain",
    "subcategory": "Mountain",
    "featured": false,
    "priority": 50
  },
  {
    "geonameId": 164546,
    "name": "Chambah",
    "latitude": 36.33712,
    "longitude": 41.21602,
    "category": "Mountain",
    "subcategory": "Mountain",
    "featured": false,
    "priority": 50
  },
  {
    "geonameId": 162541,
    "name": "Col de Zamrānī",
    "latitude": 34.13333,
    "longitude": 36.56667,
    "category": "Mountain",
    "subcategory": "Mountain Pass",
    "featured": false,
    "priority": 50
  },
  {
    "geonameId": 170959,
    "name": "Dā‘il",
    "latitude": 32.75355,
    "longitude": 36.13076,
    "category": "City",
    "subcategory": "District Seat",
    "featured": false,
    "priority": 50
  },
  {
    "geonameId": 171023,
    "name": "Ḑabbah",
    "latitude": 35.29121,
    "longitude": 39.19438,
    "category": "Mountain",
    "subcategory": "Peak",
    "featured": false,
    "priority": 50
  },
  {
    "geonameId": 8322957,
    "name": "Dadbah",
    "latitude": 36.05603,
    "longitude": 36.59237,
    "category": "Mountain",
    "subcategory": "Mountain",
    "featured": false,
    "priority": 50
  },
  {
    "geonameId": 11261361,
    "name": "Ḑahr ‘Antarāyā",
    "latitude": 33.85768,
    "longitude": 36.52744,
    "category": "Mountain",
    "subcategory": "Mountain",
    "featured": false,
    "priority": 50
  },
  {
    "geonameId": 11261454,
    "name": "Ḑahr ‘Ayn Ḩusayn",
    "latitude": 33.89798,
    "longitude": 36.54993,
    "category": "Mountain",
    "subcategory": "Mountain",
    "featured": false,
    "priority": 50
  },
  {
    "geonameId": 11261514,
    "name": "Ḑahr ‘Ayn Shamīl",
    "latitude": 33.86373,
    "longitude": 36.57692,
    "category": "Mountain",
    "subcategory": "Mountain",
    "featured": false,
    "priority": 50
  },
  {
    "geonameId": 11261412,
    "name": "Ḑahr ‘Īsá",
    "latitude": 33.75743,
    "longitude": 36.54456,
    "category": "Mountain",
    "subcategory": "Mountain",
    "featured": false,
    "priority": 50
  },
  {
    "geonameId": 170851,
    "name": "Ḑahr ad Darzī",
    "latitude": 34.75,
    "longitude": 36.23333,
    "category": "Mountain",
    "subcategory": "Mountain",
    "featured": false,
    "priority": 50
  },
  {
    "geonameId": 174041,
    "name": "Ḑahr al ‘Arūr",
    "latitude": 33.76117,
    "longitude": 36.56669,
    "category": "Mountain",
    "subcategory": "Mountain",
    "featured": false,
    "priority": 50
  },
  {
    "geonameId": 11261516,
    "name": "Ḑahr al ‘Awqalah",
    "latitude": 33.85854,
    "longitude": 36.59059,
    "category": "Mountain",
    "subcategory": "Mountain",
    "featured": false,
    "priority": 50
  },
  {
    "geonameId": 11261448,
    "name": "Ḑahr al ‘Uyūn",
    "latitude": 33.88341,
    "longitude": 36.53849,
    "category": "Mountain",
    "subcategory": "Mountain",
    "featured": false,
    "priority": 50
  },
  {
    "geonameId": 11261766,
    "name": "Ḑahr al Aswad",
    "latitude": 33.87971,
    "longitude": 36.68275,
    "category": "Mountain",
    "subcategory": "Mountain",
    "featured": false,
    "priority": 50
  },
  {
    "geonameId": 172092,
    "name": "Ḑahr al Ayyāb",
    "latitude": 33.78333,
    "longitude": 36.11667,
    "category": "Mountain",
    "subcategory": "Mountain",
    "featured": false,
    "priority": 50
  },
  {
    "geonameId": 11261442,
    "name": "Ḑahr al Bayl",
    "latitude": 33.86561,
    "longitude": 36.55036,
    "category": "Mountain",
    "subcategory": "Mountain",
    "featured": false,
    "priority": 50
  },
  {
    "geonameId": 11261348,
    "name": "Ḑahr al Birkah",
    "latitude": 33.89383,
    "longitude": 36.51609,
    "category": "Mountain",
    "subcategory": "Mountain",
    "featured": false,
    "priority": 50
  },
  {
    "geonameId": 170216,
    "name": "Ḑahr al Ghirbān",
    "latitude": 33.8,
    "longitude": 36.13333,
    "category": "Mountain",
    "subcategory": "Mountain",
    "featured": false,
    "priority": 50
  },
  {
    "geonameId": 11261513,
    "name": "Ḑahr al Kabīr",
    "latitude": 33.86866,
    "longitude": 36.5993,
    "category": "Mountain",
    "subcategory": "Mountain",
    "featured": false,
    "priority": 50
  },
  {
    "geonameId": 7642441,
    "name": "Ḑahr al Khandaq",
    "latitude": 33.54485,
    "longitude": 36.27132,
    "category": "Mountain",
    "subcategory": "Mountain",
    "featured": false,
    "priority": 50
  },
  {
    "geonameId": 11261784,
    "name": "Ḑahr al Qabbān",
    "latitude": 33.90756,
    "longitude": 36.68221,
    "category": "Mountain",
    "subcategory": "Mountain",
    "featured": false,
    "priority": 50
  },
  {
    "geonameId": 166247,
    "name": "Ḑahr al Qahwāt",
    "latitude": 36.24361,
    "longitude": 37.1115,
    "category": "Mountain",
    "subcategory": "Mountain",
    "featured": false,
    "priority": 50
  },
  {
    "geonameId": 11261956,
    "name": "Ḑahr al Qal‘",
    "latitude": 33.92316,
    "longitude": 36.73738,
    "category": "Mountain",
    "subcategory": "Mountain",
    "featured": false,
    "priority": 50
  },
  {
    "geonameId": 8328960,
    "name": "Ḑahr al Wasţānī",
    "latitude": 36.14839,
    "longitude": 36.56189,
    "category": "Mountain",
    "subcategory": "Mountain",
    "featured": false,
    "priority": 50
  },
  {
    "geonameId": 170891,
    "name": "Ḑahr as Salmānīyāt",
    "latitude": 33.50053,
    "longitude": 36.21297,
    "category": "Mountain",
    "subcategory": "Mountain",
    "featured": false,
    "priority": 50
  },
  {
    "geonameId": 12214970,
    "name": "Ḑahr as Sarī‘ī",
    "latitude": 32.80063,
    "longitude": 36.69091,
    "category": "Mountain",
    "subcategory": "Mountain",
    "featured": false,
    "priority": 50
  },
  {
    "geonameId": 164142,
    "name": "Ḑahr as Sidrah",
    "latitude": 33.83333,
    "longitude": 36.13333,
    "category": "Mountain",
    "subcategory": "Mountain",
    "featured": false,
    "priority": 50
  },
  {
    "geonameId": 11261520,
    "name": "Ḑahr as Sulţān",
    "latitude": 33.8497,
    "longitude": 36.58643,
    "category": "Mountain",
    "subcategory": "Mountain",
    "featured": false,
    "priority": 50
  },
  {
    "geonameId": 12215064,
    "name": "Ḑahr ash Shākūsh",
    "latitude": 32.79094,
    "longitude": 36.69962,
    "category": "Mountain",
    "subcategory": "Mountain",
    "featured": false,
    "priority": 50
  },
  {
    "geonameId": 8505798,
    "name": "Ḑahr Badrān",
    "latitude": 33.16165,
    "longitude": 35.94472,
    "category": "Mountain",
    "subcategory": "Mountain",
    "featured": false,
    "priority": 50
  },
  {
    "geonameId": 11261851,
    "name": "Ḑahr Bayāḑat Jayrū",
    "latitude": 33.91337,
    "longitude": 36.69826,
    "category": "Mountain",
    "subcategory": "Mountain",
    "featured": false,
    "priority": 50
  },
  {
    "geonameId": 171385,
    "name": "Ḑahr Bi’r Quşūr",
    "latitude": 33.75,
    "longitude": 36.06667,
    "category": "Mountain",
    "subcategory": "Mountain",
    "featured": false,
    "priority": 50
  },
  {
    "geonameId": 11261847,
    "name": "Ḑahr Dawwār ash Shāmī",
    "latitude": 33.92442,
    "longitude": 36.71262,
    "category": "Mountain",
    "subcategory": "Mountain",
    "featured": false,
    "priority": 50
  },
  {
    "geonameId": 11261783,
    "name": "Ḑahr Ghurayrīz",
    "latitude": 33.9084,
    "longitude": 36.69313,
    "category": "Mountain",
    "subcategory": "Mountain",
    "featured": false,
    "priority": 50
  },
  {
    "geonameId": 169799,
    "name": "Ḑahr Ḩāşūr",
    "latitude": 34.83333,
    "longitude": 36.36667,
    "category": "Mountain",
    "subcategory": "Mountain",
    "featured": false,
    "priority": 50
  },
  {
    "geonameId": 8322500,
    "name": "Dahr Kufūr ad Dabah",
    "latitude": 35.75016,
    "longitude": 36.20448,
    "category": "Mountain",
    "subcategory": "Mountain",
    "featured": false,
    "priority": 50
  },
  {
    "geonameId": 11261457,
    "name": "Ḑahr Muná",
    "latitude": 33.90888,
    "longitude": 36.56087,
    "category": "Mountain",
    "subcategory": "Mountain",
    "featured": false,
    "priority": 50
  },
  {
    "geonameId": 170964,
    "name": "Ḑahr Muqallid",
    "latitude": 32.78866,
    "longitude": 36.64763,
    "category": "Mountain",
    "subcategory": "Mountain",
    "featured": false,
    "priority": 50
  },
  {
    "geonameId": 166245,
    "name": "Ḑahr Qā’ir",
    "latitude": 34.78333,
    "longitude": 37.85,
    "category": "Mountain",
    "subcategory": "Peak",
    "featured": false,
    "priority": 50
  },
  {
    "geonameId": 165857,
    "name": "Ḑahr Qiblī al Jawz",
    "latitude": 36.14048,
    "longitude": 37.11405,
    "category": "Mountain",
    "subcategory": "Mountain",
    "featured": false,
    "priority": 50
  },
  {
    "geonameId": 11261951,
    "name": "Ḑahr Shu‘bat al Ghadīr",
    "latitude": 33.91307,
    "longitude": 36.72875,
    "category": "Mountain",
    "subcategory": "Mountain",
    "featured": false,
    "priority": 50
  },
  {
    "geonameId": 11261961,
    "name": "Ḑahr Şīr Qarlah",
    "latitude": 33.93062,
    "longitude": 36.74174,
    "category": "Mountain",
    "subcategory": "Mountain",
    "featured": false,
    "priority": 50
  },
  {
    "geonameId": 12215059,
    "name": "Ḑahr Umm Ḑarūkh",
    "latitude": 32.80027,
    "longitude": 36.71957,
    "category": "Mountain",
    "subcategory": "Mountain",
    "featured": false,
    "priority": 50
  },
  {
    "geonameId": 11261855,
    "name": "Ḑahr Wādī al Atūn",
    "latitude": 33.90354,
    "longitude": 36.70054,
    "category": "Mountain",
    "subcategory": "Mountain",
    "featured": false,
    "priority": 50
  },
  {
    "geonameId": 11261441,
    "name": "Ḑahr Zawrīr",
    "latitude": 33.86249,
    "longitude": 36.5433,
    "category": "Mountain",
    "subcategory": "Mountain",
    "featured": false,
    "priority": 50
  },
  {
    "geonameId": 11261808,
    "name": "Ḑahrat ‘Alī Fāris",
    "latitude": 33.97604,
    "longitude": 36.68786,
    "category": "Mountain",
    "subcategory": "Mountain",
    "featured": false,
    "priority": 50
  },
  {
    "geonameId": 11261857,
    "name": "Ḑahrat ‘Antarah",
    "latitude": 33.89827,
    "longitude": 36.71142,
    "category": "Mountain",
    "subcategory": "Mountain",
    "featured": false,
    "priority": 50
  },
  {
    "geonameId": 8411291,
    "name": "Ḑahrat ‘Awrah",
    "latitude": 33.57227,
    "longitude": 36.10545,
    "category": "Mountain",
    "subcategory": "Mountain",
    "featured": false,
    "priority": 50
  },
  {
    "geonameId": 11261822,
    "name": "Ḑahrat Abū Ghannūm",
    "latitude": 33.9883,
    "longitude": 36.70348,
    "category": "Mountain",
    "subcategory": "Mountain",
    "featured": false,
    "priority": 50
  },
  {
    "geonameId": 11261823,
    "name": "Ḑahrat Abū Shiḩādah",
    "latitude": 33.98733,
    "longitude": 36.69987,
    "category": "Mountain",
    "subcategory": "Mountain",
    "featured": false,
    "priority": 50
  },
  {
    "geonameId": 11261958,
    "name": "Ḑahrat ad Daydabah",
    "latitude": 33.92775,
    "longitude": 36.73249,
    "category": "Mountain",
    "subcategory": "Mountain",
    "featured": false,
    "priority": 50
  },
  {
    "geonameId": 11261947,
    "name": "Ḑahrat al ‘Atmah",
    "latitude": 33.89581,
    "longitude": 36.73753,
    "category": "Mountain",
    "subcategory": "Mountain",
    "featured": false,
    "priority": 50
  },
  {
    "geonameId": 11261790,
    "name": "Ḑahrat al Aţrash",
    "latitude": 33.91965,
    "longitude": 36.66436,
    "category": "Mountain",
    "subcategory": "Mountain",
    "featured": false,
    "priority": 50
  },
  {
    "geonameId": 11261795,
    "name": "Ḑahrat al Bābā",
    "latitude": 33.93744,
    "longitude": 36.67168,
    "category": "Mountain",
    "subcategory": "Mountain",
    "featured": false,
    "priority": 50
  },
  {
    "geonameId": 11261770,
    "name": "Ḑahrat al Bayḑah",
    "latitude": 33.8894,
    "longitude": 36.67869,
    "category": "Mountain",
    "subcategory": "Mountain",
    "featured": false,
    "priority": 50
  },
  {
    "geonameId": 11261678,
    "name": "Ḑahrat al Biyārah",
    "latitude": 33.87905,
    "longitude": 36.63921,
    "category": "Mountain",
    "subcategory": "Mountain",
    "featured": false,
    "priority": 50
  },
  {
    "geonameId": 11261371,
    "name": "Ḑahrat al Ghubayrah",
    "latitude": 33.83318,
    "longitude": 36.50401,
    "category": "Mountain",
    "subcategory": "Mountain",
    "featured": false,
    "priority": 50
  },
  {
    "geonameId": 11261672,
    "name": "Ḑahrat al Ḩajj ‘Alī",
    "latitude": 33.88327,
    "longitude": 36.63962,
    "category": "Mountain",
    "subcategory": "Mountain",
    "featured": false,
    "priority": 50
  },
  {
    "geonameId": 11261666,
    "name": "Ḑahrat al Jaḩsh",
    "latitude": 33.89807,
    "longitude": 36.65957,
    "category": "Mountain",
    "subcategory": "Mountain",
    "featured": false,
    "priority": 50
  },
  {
    "geonameId": 12125118,
    "name": "Ḑahrat al Karm al Qiblī",
    "latitude": 36.45066,
    "longitude": 37.29949,
    "category": "Mountain",
    "subcategory": "Peak",
    "featured": false,
    "priority": 50
  },
  {
    "geonameId": 8411294,
    "name": "Ḑahrat al Kharshūm",
    "latitude": 33.55206,
    "longitude": 36.10981,
    "category": "Mountain",
    "subcategory": "Mountain",
    "featured": false,
    "priority": 50
  },
  {
    "geonameId": 8411276,
    "name": "Ḑahrat al Khaymah",
    "latitude": 33.59037,
    "longitude": 36.10703,
    "category": "Mountain",
    "subcategory": "Mountain",
    "featured": false,
    "priority": 50
  },
  {
    "geonameId": 11430688,
    "name": "Ḑahrat al Maksar",
    "latitude": 34.11614,
    "longitude": 36.77714,
    "category": "Mountain",
    "subcategory": "Mountain",
    "featured": false,
    "priority": 50
  },
  {
    "geonameId": 8411296,
    "name": "Ḑahrat al Maţallah",
    "latitude": 33.55753,
    "longitude": 36.11392,
    "category": "Mountain",
    "subcategory": "Mountain",
    "featured": false,
    "priority": 50
  },
  {
    "geonameId": 11261762,
    "name": "Ḑahrat al Māyil",
    "latitude": 33.87424,
    "longitude": 36.67823,
    "category": "Mountain",
    "subcategory": "Mountain",
    "featured": false,
    "priority": 50
  },
  {
    "geonameId": 8411724,
    "name": "Ḑahrat al Mitlāl",
    "latitude": 33.54328,
    "longitude": 36.08178,
    "category": "Mountain",
    "subcategory": "Mountain",
    "featured": false,
    "priority": 50
  },
  {
    "geonameId": 11261819,
    "name": "Ḑahrat al Mu‘tim",
    "latitude": 33.99346,
    "longitude": 36.70028,
    "category": "Mountain",
    "subcategory": "Mountain",
    "featured": false,
    "priority": 50
  },
  {
    "geonameId": 11261862,
    "name": "Ḑahrat al Mughīt",
    "latitude": 33.89169,
    "longitude": 36.72032,
    "category": "Mountain",
    "subcategory": "Mountain",
    "featured": false,
    "priority": 50
  },
  {
    "geonameId": 11261830,
    "name": "Ḑahrat al Qāmū‘",
    "latitude": 33.96503,
    "longitude": 36.69897,
    "category": "Mountain",
    "subcategory": "Mountain",
    "featured": false,
    "priority": 50
  },
  {
    "geonameId": 165990,
    "name": "Dahrat al Qasīs",
    "latitude": 34.09306,
    "longitude": 36.76709,
    "category": "Mountain",
    "subcategory": "Mountain",
    "featured": false,
    "priority": 50
  },
  {
    "geonameId": 165914,
    "name": "Ḑahrat al Qattālah",
    "latitude": 34.07647,
    "longitude": 36.86042,
    "category": "Mountain",
    "subcategory": "Mountain",
    "featured": false,
    "priority": 50
  },
  {
    "geonameId": 11260804,
    "name": "Ḑahrat an Niqāţah",
    "latitude": 33.96286,
    "longitude": 36.37438,
    "category": "Mountain",
    "subcategory": "Mountain",
    "featured": false,
    "priority": 50
  },
  {
    "geonameId": 11261866,
    "name": "Ḑahrat Anjarik",
    "latitude": 33.88401,
    "longitude": 36.69878,
    "category": "Mountain",
    "subcategory": "Mountain",
    "featured": false,
    "priority": 50
  },
  {
    "geonameId": 11261369,
    "name": "Ḑahrat as Sawādah",
    "latitude": 33.84291,
    "longitude": 36.50832,
    "category": "Mountain",
    "subcategory": "Mountain",
    "featured": false,
    "priority": 50
  },
  {
    "geonameId": 8411290,
    "name": "Ḑahrat aş Şawwān",
    "latitude": 33.58234,
    "longitude": 36.10122,
    "category": "Mountain",
    "subcategory": "Mountain",
    "featured": false,
    "priority": 50
  },
  {
    "geonameId": 12215070,
    "name": "Ḑahrat aţ Ţābiyah",
    "latitude": 32.77343,
    "longitude": 36.71614,
    "category": "Mountain",
    "subcategory": "Mountain",
    "featured": false,
    "priority": 50
  },
  {
    "geonameId": 8411293,
    "name": "Ḑahrat Bāb al Qal‘ah",
    "latitude": 33.56485,
    "longitude": 36.12454,
    "category": "Mountain",
    "subcategory": "Mountain",
    "featured": false,
    "priority": 50
  },
  {
    "geonameId": 11261846,
    "name": "Ḑahrat Baţn an Naşb",
    "latitude": 33.91819,
    "longitude": 36.70238,
    "category": "Mountain",
    "subcategory": "Mountain",
    "featured": false,
    "priority": 50
  },
  {
    "geonameId": 11261861,
    "name": "Ḑahrat Bū Naydh Z̧ilār",
    "latitude": 33.89447,
    "longitude": 36.7079,
    "category": "Mountain",
    "subcategory": "Mountain",
    "featured": false,
    "priority": 50
  },
  {
    "geonameId": 11430788,
    "name": "Ḑahrat Dalīl al Madqar",
    "latitude": 34.07913,
    "longitude": 36.84504,
    "category": "Mountain",
    "subcategory": "Mountain",
    "featured": false,
    "priority": 50
  },
  {
    "geonameId": 11261867,
    "name": "Ḑahrat Ḩamādah",
    "latitude": 33.88403,
    "longitude": 36.71618,
    "category": "Mountain",
    "subcategory": "Mountain",
    "featured": false,
    "priority": 50
  },
  {
    "geonameId": 11261805,
    "name": "Ḑahrat Ḩammūdah",
    "latitude": 33.96788,
    "longitude": 36.68698,
    "category": "Mountain",
    "subcategory": "Mountain",
    "featured": false,
    "priority": 50
  },
  {
    "geonameId": 11261653,
    "name": "Ḑahrat Ḩamrūsh",
    "latitude": 33.91356,
    "longitude": 36.65098,
    "category": "Mountain",
    "subcategory": "Mountain",
    "featured": false,
    "priority": 50
  },
  {
    "geonameId": 11261786,
    "name": "Ḑahrat Jūrat al Maşna‘",
    "latitude": 33.91611,
    "longitude": 36.68429,
    "category": "Mountain",
    "subcategory": "Mountain",
    "featured": false,
    "priority": 50
  },
  {
    "geonameId": 11261765,
    "name": "Ḑahrat Karm al Kabīr",
    "latitude": 33.88186,
    "longitude": 36.69318,
    "category": "Mountain",
    "subcategory": "Mountain",
    "featured": false,
    "priority": 50
  },
  {
    "geonameId": 11430744,
    "name": "Ḑahrat Khalīl aş Şayyādah",
    "latitude": 34.0026,
    "longitude": 36.86416,
    "category": "Mountain",
    "subcategory": "Mountain",
    "featured": false,
    "priority": 50
  },
  {
    "geonameId": 11431636,
    "name": "Ḑahrat Majarr Muḩammad Khalīl",
    "latitude": 34.38243,
    "longitude": 36.86621,
    "category": "Mountain",
    "subcategory": "Mountain",
    "featured": false,
    "priority": 50
  },
  {
    "geonameId": 11261676,
    "name": "Ḑahrat Maşna‘ al Hāwī",
    "latitude": 33.8794,
    "longitude": 36.65404,
    "category": "Mountain",
    "subcategory": "Mountain",
    "featured": false,
    "priority": 50
  },
  {
    "geonameId": 11261370,
    "name": "Ḑahrat Mikhāyil",
    "latitude": 33.84498,
    "longitude": 36.51607,
    "category": "Mountain",
    "subcategory": "Mountain",
    "featured": false,
    "priority": 50
  },
  {
    "geonameId": 11430751,
    "name": "Ḑahrat Mughārat al Ajrūdī",
    "latitude": 34.00496,
    "longitude": 36.81866,
    "category": "Mountain",
    "subcategory": "Mountain",
    "featured": false,
    "priority": 50
  },
  {
    "geonameId": 11261426,
    "name": "Ḑahrat Muşţafá",
    "latitude": 33.82305,
    "longitude": 36.54769,
    "category": "Mountain",
    "subcategory": "Mountain",
    "featured": false,
    "priority": 50
  },
  {
    "geonameId": 8411721,
    "name": "Ḑahrat Nuqrat Shāhīn",
    "latitude": 33.54736,
    "longitude": 36.09326,
    "category": "Mountain",
    "subcategory": "Mountain",
    "featured": false,
    "priority": 50
  },
  {
    "geonameId": 8411295,
    "name": "Ḑahrat Ru’ūs ash Shi‘b",
    "latitude": 33.56047,
    "longitude": 36.11832,
    "category": "Mountain",
    "subcategory": "Mountain",
    "featured": false,
    "priority": 50
  },
  {
    "geonameId": 11261803,
    "name": "Ḑahrat Shi‘āb al ‘Arāyish",
    "latitude": 33.95732,
    "longitude": 36.67914,
    "category": "Mountain",
    "subcategory": "Mountain",
    "featured": false,
    "priority": 50
  },
  {
    "geonameId": 8411289,
    "name": "Ḑahrat Shi‘b al Būm",
    "latitude": 33.56654,
    "longitude": 36.09689,
    "category": "Mountain",
    "subcategory": "Peak",
    "featured": false,
    "priority": 50
  },
  {
    "geonameId": 11261832,
    "name": "Ḑahrat Shu‘bat al Qāḑī",
    "latitude": 33.95617,
    "longitude": 36.69441,
    "category": "Mountain",
    "subcategory": "Mountain",
    "featured": false,
    "priority": 50
  },
  {
    "geonameId": 11430801,
    "name": "Ḑahrat Shu‘bat an Najjāş",
    "latitude": 34.10477,
    "longitude": 36.8602,
    "category": "Mountain",
    "subcategory": "Mountain",
    "featured": false,
    "priority": 50
  },
  {
    "geonameId": 11430912,
    "name": "Ḑahrat Shumays al Mişyādah",
    "latitude": 34.00503,
    "longitude": 36.86685,
    "category": "Mountain",
    "subcategory": "Mountain",
    "featured": false,
    "priority": 50
  },
  {
    "geonameId": 12753,
    "name": "Ḑahrat Umm Ḩajar",
    "latitude": 33.78842,
    "longitude": 36.92412,
    "category": "Mountain",
    "subcategory": "Mountain",
    "featured": false,
    "priority": 50
  },
  {
    "geonameId": 8411288,
    "name": "Ḑahrat Wādī al Aḩmar",
    "latitude": 33.5619,
    "longitude": 36.09518,
    "category": "Mountain",
    "subcategory": "Mountain",
    "featured": false,
    "priority": 50
  },
  {
    "geonameId": 11261794,
    "name": "Ḑahrat Wādī al Ḩammām",
    "latitude": 33.93196,
    "longitude": 36.66863,
    "category": "Mountain",
    "subcategory": "Mountain",
    "featured": false,
    "priority": 50
  },
  {
    "geonameId": 170654,
    "name": "Damascus",
    "latitude": 33.5102,
    "longitude": 36.29128,
    "category": "City",
    "subcategory": "Capital",
    "featured": false,
    "priority": 50
  },
  {
    "geonameId": 170897,
    "name": "Dār al Ghazāl",
    "latitude": 33.50071,
    "longitude": 35.95849,
    "category": "Mountain",
    "subcategory": "Mountain",
    "featured": false,
    "priority": 50
  },
  {
    "geonameId": 170905,
    "name": "Dar‘ā",
    "latitude": 32.61889,
    "longitude": 36.10213,
    "category": "City",
    "subcategory": "Regional Capital",
    "featured": false,
    "priority": 50
  },
  {
    "geonameId": 170857,
    "name": "Dārat ‘Izzah",
    "latitude": 36.28247,
    "longitude": 36.85216,
    "category": "City",
    "subcategory": "District Seat",
    "featured": false,
    "priority": 50
  },
  {
    "geonameId": 170892,
    "name": "Dārayyā",
    "latitude": 33.45835,
    "longitude": 36.23256,
    "category": "City",
    "subcategory": "County Seat",
    "featured": false,
    "priority": 50
  },
  {
    "geonameId": 11261221,
    "name": "Darb al Mi‘rāḑ",
    "latitude": 33.69094,
    "longitude": 36.84555,
    "category": "Mountain",
    "subcategory": "Mountain",
    "featured": false,
    "priority": 50
  },
  {
    "geonameId": 170865,
    "name": "Darkūsh",
    "latitude": 35.9918,
    "longitude": 36.39361,
    "category": "City",
    "subcategory": "District Seat",
    "featured": false,
    "priority": 50
  },
  {
    "geonameId": 167719,
    "name": "Dārmiq Dāgh",
    "latitude": 36.79612,
    "longitude": 36.80777,
    "category": "Mountain",
    "subcategory": "Mountain",
    "featured": false,
    "priority": 50
  },
  {
    "geonameId": 11430284,
    "name": "Dawwār ‘Amrīţ",
    "latitude": 34.05358,
    "longitude": 36.63025,
    "category": "Mountain",
    "subcategory": "Mountain",
    "featured": false,
    "priority": 50
  },
  {
    "geonameId": 11430488,
    "name": "Dawwār al ‘Atīq",
    "latitude": 34.2475,
    "longitude": 36.62006,
    "category": "Mountain",
    "subcategory": "Mountain",
    "featured": false,
    "priority": 50
  },
  {
    "geonameId": 11430375,
    "name": "Dawwār al Aḩmar",
    "latitude": 34.06208,
    "longitude": 36.64828,
    "category": "Mountain",
    "subcategory": "Mountain",
    "featured": false,
    "priority": 50
  },
  {
    "geonameId": 11430170,
    "name": "Dawwār al Mawshil",
    "latitude": 34.09075,
    "longitude": 36.57767,
    "category": "Mountain",
    "subcategory": "Mountain",
    "featured": false,
    "priority": 50
  },
  {
    "geonameId": 11430339,
    "name": "Dawwār al Qaşr",
    "latitude": 34.06983,
    "longitude": 36.6494,
    "category": "Mountain",
    "subcategory": "Mountain",
    "featured": false,
    "priority": 50
  },
  {
    "geonameId": 11430460,
    "name": "Dawwār ash Shaqī‘",
    "latitude": 34.21762,
    "longitude": 36.67665,
    "category": "Mountain",
    "subcategory": "Mountain",
    "featured": false,
    "priority": 50
  },
  {
    "geonameId": 11430510,
    "name": "Dawwār Bayt Khiḑr",
    "latitude": 34.22848,
    "longitude": 36.70431,
    "category": "Mountain",
    "subcategory": "Mountain",
    "featured": false,
    "priority": 50
  },
  {
    "geonameId": 11430616,
    "name": "Dawwār Ḩabīb",
    "latitude": 34.0514,
    "longitude": 36.65427,
    "category": "Mountain",
    "subcategory": "Mountain",
    "featured": false,
    "priority": 50
  },
  {
    "geonameId": 170797,
    "name": "Dayr ‘Aţīyah",
    "latitude": 34.09541,
    "longitude": 36.76791,
    "category": "City",
    "subcategory": "District Seat",
    "featured": false,
    "priority": 50
  },
  {
    "geonameId": 8346161,
    "name": "Dayr Abū al ‘Aţā",
    "latitude": 33.67202,
    "longitude": 36.50381,
    "category": "Mountain",
    "subcategory": "Mountain",
    "featured": false,
    "priority": 50
  },
  {
    "geonameId": 170817,
    "name": "Dayr al ‘Aşāfīr",
    "latitude": 33.46585,
    "longitude": 36.42044,
    "category": "City",
    "subcategory": "City",
    "featured": false,
    "priority": 50
  },
  {
    "geonameId": 170785,
    "name": "Dayr Ḩāfir",
    "latitude": 36.15694,
    "longitude": 37.70778,
    "category": "City",
    "subcategory": "District Seat",
    "featured": false,
    "priority": 50
  },
  {
    "geonameId": 8316225,
    "name": "Dayrman Dārū",
    "latitude": 35.8517,
    "longitude": 36.05378,
    "category": "Mountain",
    "subcategory": "Mountain",
    "featured": false,
    "priority": 50
  },
  {
    "geonameId": 437220,
    "name": "Değirmen Geçidi",
    "latitude": 36.70944,
    "longitude": 36.62696,
    "category": "Mountain",
    "subcategory": "Mountain Pass",
    "featured": false,
    "priority": 50
  },
  {
    "geonameId": 170794,
    "name": "Deir ez-Zor",
    "latitude": 35.33588,
    "longitude": 40.14084,
    "category": "City",
    "subcategory": "Regional Capital",
    "featured": false,
    "priority": 50
  },
  {
    "geonameId": 170691,
    "name": "Dhībān",
    "latitude": 35.01498,
    "longitude": 40.51028,
    "category": "City",
    "subcategory": "District Seat",
    "featured": false,
    "priority": 50
  },
  {
    "geonameId": 170689,
    "name": "Dhībbīn",
    "latitude": 32.43691,
    "longitude": 36.56332,
    "category": "City",
    "subcategory": "District Seat",
    "featured": false,
    "priority": 50
  },
  {
    "geonameId": 170682,
    "name": "Dibsī",
    "latitude": 35.93333,
    "longitude": 38.18333,
    "category": "Mountain",
    "subcategory": "Peak",
    "featured": false,
    "priority": 50
  },
  {
    "geonameId": 11261631,
    "name": "Ḑuhūr ‘Abd al Mughnī",
    "latitude": 33.96496,
    "longitude": 36.6325,
    "category": "Mountain",
    "subcategory": "Mountain",
    "featured": false,
    "priority": 50
  },
  {
    "geonameId": 8411104,
    "name": "Ḑuhūr ad Dayr",
    "latitude": 33.61156,
    "longitude": 36.10151,
    "category": "Mountain",
    "subcategory": "Mountain",
    "featured": false,
    "priority": 50
  },
  {
    "geonameId": 8429668,
    "name": "Ḑuhūr al Ghazāl",
    "latitude": 33.24827,
    "longitude": 35.89647,
    "category": "Mountain",
    "subcategory": "Mountain",
    "featured": false,
    "priority": 50
  },
  {
    "geonameId": 11261953,
    "name": "Ḑuhūr al Ḩallūs",
    "latitude": 33.91671,
    "longitude": 36.74195,
    "category": "Mountain",
    "subcategory": "Mountain",
    "featured": false,
    "priority": 50
  },
  {
    "geonameId": 2913,
    "name": "Ḑuhūr al Hawā",
    "latitude": 34.075,
    "longitude": 36.975,
    "category": "Mountain",
    "subcategory": "Mountain",
    "featured": false,
    "priority": 50
  },
  {
    "geonameId": 11261865,
    "name": "Ḑuhūr al Kaḩīl",
    "latitude": 33.89122,
    "longitude": 36.70135,
    "category": "Mountain",
    "subcategory": "Mountain",
    "featured": false,
    "priority": 50
  },
  {
    "geonameId": 11261659,
    "name": "Ḑuhūr al Mudakhkhanah",
    "latitude": 33.90266,
    "longitude": 36.6461,
    "category": "Mountain",
    "subcategory": "Mountain",
    "featured": false,
    "priority": 50
  },
  {
    "geonameId": 11261617,
    "name": "Ḑuhūr ash Sha‘rah",
    "latitude": 33.9924,
    "longitude": 36.63359,
    "category": "Mountain",
    "subcategory": "Mountain",
    "featured": false,
    "priority": 50
  },
  {
    "geonameId": 11261781,
    "name": "Ḑuhūr Dawwār Darwīsh",
    "latitude": 33.91202,
    "longitude": 36.69936,
    "category": "Mountain",
    "subcategory": "Mountain",
    "featured": false,
    "priority": 50
  },
  {
    "geonameId": 8429652,
    "name": "Ḑuhūr Ţurunjah",
    "latitude": 33.2236,
    "longitude": 35.8527,
    "category": "Mountain",
    "subcategory": "Peak",
    "featured": false,
    "priority": 50
  },
  {
    "geonameId": 11430692,
    "name": "Ḑuhūr Wādī ad Daydabī",
    "latitude": 34.10765,
    "longitude": 36.75671,
    "category": "Mountain",
    "subcategory": "Mountain",
    "featured": false,
    "priority": 50
  },
  {
    "geonameId": 8411111,
    "name": "Ḑuhūr Wādī al Laymūn",
    "latitude": 33.60722,
    "longitude": 36.09123,
    "category": "Mountain",
    "subcategory": "Mountain",
    "featured": false,
    "priority": 50
  },
  {
    "geonameId": 11261944,
    "name": "Ḑuhūr Wādī an Naml",
    "latitude": 33.89105,
    "longitude": 36.74281,
    "category": "Mountain",
    "subcategory": "Mountain",
    "featured": false,
    "priority": 50
  },
  {
    "geonameId": 170592,
    "name": "Dūmā",
    "latitude": 33.57175,
    "longitude": 36.4027,
    "category": "City",
    "subcategory": "County Seat",
    "featured": false,
    "priority": 50
  },
  {
    "geonameId": 170517,
    "name": "Duwayr Raslān",
    "latitude": 34.9491,
    "longitude": 36.18179,
    "category": "City",
    "subcategory": "District Seat",
    "featured": false,
    "priority": 50
  },
  {
    "geonameId": 8316176,
    "name": "Dūz Tabah",
    "latitude": 35.80307,
    "longitude": 36.00753,
    "category": "Mountain",
    "subcategory": "Mountain",
    "featured": false,
    "priority": 50
  },
  {
    "geonameId": 8316222,
    "name": "Dūz Wankādī",
    "latitude": 35.83792,
    "longitude": 35.99926,
    "category": "Mountain",
    "subcategory": "Mountain",
    "featured": false,
    "priority": 50
  },
  {
    "geonameId": 412568,
    "name": "Fawq Sabnā",
    "latitude": 33.8074,
    "longitude": 36.27731,
    "category": "Mountain",
    "subcategory": "Mountain",
    "featured": false,
    "priority": 50
  },
  {
    "geonameId": 170325,
    "name": "Ghabāghib",
    "latitude": 33.18235,
    "longitude": 36.22534,
    "category": "City",
    "subcategory": "District Seat",
    "featured": false,
    "priority": 50
  },
  {
    "geonameId": 170149,
    "name": "Hadassé",
    "latitude": 34.33333,
    "longitude": 37.05,
    "category": "Mountain",
    "subcategory": "Peak",
    "featured": false,
    "priority": 50
  },
  {
    "geonameId": 170136,
    "name": "Ḩadīdah",
    "latitude": 34.67337,
    "longitude": 36.39734,
    "category": "City",
    "subcategory": "District Seat",
    "featured": false,
    "priority": 50
  },
  {
    "geonameId": 7642537,
    "name": "Ḩadīqat ‘Abd al Mun‘im Riyāḑ",
    "latitude": 33.51902,
    "longitude": 36.27676,
    "category": "Park",
    "subcategory": "Park",
    "featured": false,
    "priority": 50
  },
  {
    "geonameId": 8444317,
    "name": "Ḩadīqat al Andalus",
    "latitude": 35.54026,
    "longitude": 35.77734,
    "category": "Park",
    "subcategory": "Park",
    "featured": false,
    "priority": 50
  },
  {
    "geonameId": 8381710,
    "name": "Ḩadīqat al Ba‘th",
    "latitude": 32.72192,
    "longitude": 36.57634,
    "category": "Park",
    "subcategory": "Park",
    "featured": false,
    "priority": 50
  },
  {
    "geonameId": 8559110,
    "name": "Ḩadīqat al Bānūrāmā",
    "latitude": 35.93802,
    "longitude": 38.98999,
    "category": "Park",
    "subcategory": "Park",
    "featured": false,
    "priority": 50
  },
  {
    "geonameId": 8559108,
    "name": "Ḩādīqat al Bustān",
    "latitude": 35.9438,
    "longitude": 39.01757,
    "category": "Park",
    "subcategory": "Park",
    "featured": false,
    "priority": 50
  },
  {
    "geonameId": 7635194,
    "name": "Ḩadīqat al Fursān",
    "latitude": 35.52928,
    "longitude": 35.78678,
    "category": "Park",
    "subcategory": "Park",
    "featured": false,
    "priority": 50
  },
  {
    "geonameId": 7642582,
    "name": "Ḩadīqat al Jāḩiz̧",
    "latitude": 33.51767,
    "longitude": 36.27993,
    "category": "Park",
    "subcategory": "Park",
    "featured": false,
    "priority": 50
  },
  {
    "geonameId": 8382328,
    "name": "Ḩadīqat al Jawlān",
    "latitude": 32.71379,
    "longitude": 36.56244,
    "category": "Park",
    "subcategory": "Park",
    "featured": false,
    "priority": 50
  },
  {
    "geonameId": 8382009,
    "name": "Ḩadīqat al Jihād",
    "latitude": 32.70376,
    "longitude": 36.56366,
    "category": "Park",
    "subcategory": "Park",
    "featured": false,
    "priority": 50
  },
  {
    "geonameId": 8469659,
    "name": "Ḩadīqat al Manshīyah",
    "latitude": 35.51814,
    "longitude": 35.77068,
    "category": "Park",
    "subcategory": "Park",
    "featured": false,
    "priority": 50
  },
  {
    "geonameId": 7763720,
    "name": "Ḩadīqat al Maţār",
    "latitude": 32.63064,
    "longitude": 36.09948,
    "category": "Park",
    "subcategory": "Park",
    "featured": false,
    "priority": 50
  },