[
  {
    "geonameId": 162099,
    "name": "Abadan",
    "latitude": 38.05415,
    "longitude": 58.19721,
    "category": "City",
    "subcategory": "City",
    "featured": false,
    "priority": 50
  },
  {
    "geonameId": 162238,
    "name": "Akbogaz Suwhowdany",
    "latitude": 37.63347,
    "longitude": 54.45177,
    "category": "Lake",
    "subcategory": "Reservoir",
    "featured": false,
    "priority": 50
  },
  {
    "geonameId": 12226652,
    "name": "Akdaş",
    "latitude": 40.04222,
    "longitude": 53.12608,
    "category": "City",
    "subcategory": "City",
    "featured": false,
    "priority": 50
  },
  {
    "geonameId": 601551,
    "name": "Akdepe",
    "latitude": 42.05513,
    "longitude": 59.37877,
    "category": "City",
    "subcategory": "County Seat",
    "featured": false,
    "priority": 50
  },
  {
    "geonameId": 13562212,
    "name": "Altyn asyr",
    "latitude": 37.28158,
    "longitude": 60.70432,
    "category": "City",
    "subcategory": "City",
    "featured": false,
    "priority": 50
  },
  {
    "geonameId": 162199,
    "name": "Änew",
    "latitude": 37.88754,
    "longitude": 58.51596,
    "category": "City",
    "subcategory": "Regional Capital",
    "featured": false,
    "priority": 50
  },
  {
    "geonameId": 162192,
    "name": "Arçman",
    "latitude": 38.54346,
    "longitude": 57.15711,
    "category": "City",
    "subcategory": "City",
    "featured": false,
    "priority": 50
  },
  {
    "geonameId": 13526673,
    "name": "Arkadag",
    "latitude": 38.07127,
    "longitude": 58.06562,
    "category": "City",
    "subcategory": "City",
    "featured": false,
    "priority": 50
  },
  {
    "geonameId": 442592,
    "name": "Artykly Dag",
    "latitude": 38.28028,
    "longitude": 54.94806,
    "category": "Mountain",
    "subcategory": "Mountain",
    "featured": false,
    "priority": 50
  },
  {
    "geonameId": 162183,
    "name": "Ashgabat",
    "latitude": 37.95,
    "longitude": 58.38333,
    "category": "City",
    "subcategory": "Capital",
    "featured": false,
    "priority": 50
  },
  {
    "geonameId": 13562325,
    "name": "Aşyr Kakabaýew",
    "latitude": 42.28167,
    "longitude": 58.71935,
    "category": "City",
    "subcategory": "City",
    "featured": false,
    "priority": 50
  },
  {
    "geonameId": 13100245,
    "name": "Aýrybaba",
    "latitude": 37.834,
    "longitude": 66.566,
    "category": "Mountain",
    "subcategory": "Mountain",
    "featured": false,
    "priority": 50
  },
  {
    "geonameId": 162160,
    "name": "Babaarap",
    "latitude": 38.09737,
    "longitude": 58.1083,
    "category": "City",
    "subcategory": "City",
    "featured": false,
    "priority": 50
  },
  {
    "geonameId": 1219812,
    "name": "Babadaýhan",
    "latitude": 37.68887,
    "longitude": 60.39372,
    "category": "City",
    "subcategory": "City",
    "featured": false,
    "priority": 50
  },
  {
    "geonameId": 1219811,
    "name": "Babadaykhan",
    "latitude": 37.68333,
    "longitude": 60.43333,
    "category": "City",
    "subcategory": "City",
    "featured": false,
    "priority": 50
  },
  {
    "geonameId": 13580010,
    "name": "Bagtyýarlyk",
    "latitude": 37.41207,
    "longitude": 60.43535,
    "category": "City",
    "subcategory": "City",
    "featured": false,
    "priority": 50
  },
  {
    "geonameId": 162158,
    "name": "Bäherden",
    "latitude": 38.43624,
    "longitude": 57.43158,
    "category": "City",
    "subcategory": "City",
    "featured": false,
    "priority": 50
  },
  {
    "geonameId": 161616,
    "name": "Balkanabat",
    "latitude": 39.51075,
    "longitude": 54.36713,
    "category": "City",
    "subcategory": "Regional Capital",
    "featured": false,
    "priority": 50
  },
  {
    "geonameId": 1219762,
    "name": "Bayramaly",
    "latitude": 37.61852,
    "longitude": 62.16715,
    "category": "City",
    "subcategory": "City",
    "featured": false,
    "priority": 50
  },
  {
    "geonameId": 162137,
    "name": "Beňňiwan Dag",
    "latitude": 37.90639,
    "longitude": 54.90028,
    "category": "Mountain",
    "subcategory": "Mountain",
    "featured": false,
    "priority": 50
  },
  {
    "geonameId": 161974,
    "name": "Bereket",
    "latitude": 39.24463,
    "longitude": 55.51536,
    "category": "City",
    "subcategory": "City",
    "featured": false,
    "priority": 50
  },
  {
    "geonameId": 162131,
    "name": "Beum-Bash Ozero",
    "latitude": 37.48333,
    "longitude": 54.2,
    "category": "Lake",
    "subcategory": "Lake",
    "featured": false,
    "priority": 50
  },
  {
    "geonameId": 1514801,
    "name": "Birata",
    "latitude": 40.48204,
    "longitude": 62.1586,
    "category": "City",
    "subcategory": "City",
    "featured": false,
    "priority": 50
  },
  {
    "geonameId": 162118,
    "name": "Bokurdak",
    "latitude": 38.76307,
    "longitude": 58.49269,
    "category": "City",
    "subcategory": "City",
    "featured": false,
    "priority": 50
  },
  {
    "geonameId": 601661,
    "name": "Boldumsaz",
    "latitude": 42.12824,
    "longitude": 59.67101,
    "category": "City",
    "subcategory": "City",
    "featured": false,
    "priority": 50
  },
  {
    "geonameId": 7027795,
    "name": "Bugor Daderanly",
    "latitude": 36.22765,
    "longitude": 63.60992,
    "category": "Mountain",
    "subcategory": "Mountain",
    "featured": false,
    "priority": 50
  },
  {
    "geonameId": 7026818,
    "name": "Bugor Derbent",
    "latitude": 35.93807,
    "longitude": 62.89347,
    "category": "Mountain",
    "subcategory": "Mountain",
    "featured": false,
    "priority": 50
  },
  {
    "geonameId": 7027797,
    "name": "Bugor Karadepe",
    "latitude": 36.31253,
    "longitude": 63.57914,
    "category": "Mountain",
    "subcategory": "Mountain",
    "featured": false,
    "priority": 50
  },
  {
    "geonameId": 7026813,
    "name": "Bugor Koshdele",
    "latitude": 35.9507,
    "longitude": 62.82797,
    "category": "Mountain",
    "subcategory": "Mountain",
    "featured": false,
    "priority": 50
  },
  {
    "geonameId": 7027721,
    "name": "Bugor Tauženbek",
    "latitude": 36.04461,
    "longitude": 63.66191,
    "category": "Mountain",
    "subcategory": "Mountain",
    "featured": false,
    "priority": 50
  },
  {
    "geonameId": 7027796,
    "name": "Bugor Uzyndepe",
    "latitude": 36.30361,
    "longitude": 63.53871,
    "category": "Mountain",
    "subcategory": "Mountain",
    "featured": false,
    "priority": 50
  },
  {
    "geonameId": 7027798,
    "name": "Bugor Yannydepe",
    "latitude": 36.27947,
    "longitude": 63.65953,
    "category": "Mountain",
    "subcategory": "Mountain",
    "featured": false,
    "priority": 50
  },
  {
    "geonameId": 601747,
    "name": "Burunel",
    "latitude": 40.02743,
    "longitude": 56.07221,
    "category": "Mountain",
    "subcategory": "Mountain",
    "featured": false,
    "priority": 50
  },
  {
    "geonameId": 1219638,
    "name": "Çaşgyn",
    "latitude": 37.79729,
    "longitude": 61.54905,
    "category": "City",
    "subcategory": "City",
    "featured": false,
    "priority": 50
  },
  {
    "geonameId": 7048870,
    "name": "Çemenebit Çäkli Goraghanasy",
    "latitude": 35.57078,
    "longitude": 62.1998,
    "category": "Park",
    "subcategory": "Nature Reserve",
    "featured": false,
    "priority": 50
  },
  {
    "geonameId": 1161954,
    "name": "Chingurak Kotal",
    "latitude": 35.21667,
    "longitude": 62.61667,
    "category": "Mountain",
    "subcategory": "Mountain Pass",
    "featured": false,
    "priority": 50
  },
  {
    "geonameId": 1218269,
    "name": "Daşköpri Suwhowdany",
    "latitude": 36.25972,
    "longitude": 62.65639,
    "category": "Lake",
    "subcategory": "Reservoir",
    "featured": false,
    "priority": 50
  },
  {
    "geonameId": 601734,
    "name": "Daşoguz",
    "latitude": 41.83625,
    "longitude": 59.96661,
    "category": "City",
    "subcategory": "Regional Capital",
    "featured": false,
    "priority": 50
  },
  {
    "geonameId": 1219513,
    "name": "Dostluk",
    "latitude": 37.74548,
    "longitude": 65.33761,
    "category": "City",
    "subcategory": "City",
    "featured": false,
    "priority": 50
  },
  {
    "geonameId": 7048888,
    "name": "Dostluk Suw Howdany",
    "latitude": 35.8248,
    "longitude": 61.25668,
    "category": "Lake",
    "subcategory": "Reservoir",
    "featured": false,
    "priority": 50
  },
  {
    "geonameId": 410331,
    "name": "Duşagären Dag",
    "latitude": 37.95802,
    "longitude": 57.90386,
    "category": "Mountain",
    "subcategory": "Mountain",
    "featured": false,
    "priority": 50
  },
  {
    "geonameId": 1219501,
    "name": "Duşak",
    "latitude": 37.19518,
    "longitude": 60.02469,
    "category": "City",
    "subcategory": "City",
    "featured": false,
    "priority": 50
  },
  {
    "geonameId": 161371,
    "name": "Esenguly",
    "latitude": 37.4678,
    "longitude": 53.97767,
    "category": "City",
    "subcategory": "City",
    "featured": false,
    "priority": 50
  },
  {
    "geonameId": 161370,
    "name": "Etrek",
    "latitude": 37.66114,
    "longitude": 54.76645,
    "category": "City",
    "subcategory": "City",
    "featured": false,
    "priority": 50
  },
  {
    "geonameId": 9534014,
    "name": "Etrek Suw Howdany",
    "latitude": 37.54891,
    "longitude": 54.78659,
    "category": "Lake",
    "subcategory": "Reservoir",
    "featured": false,
    "priority": 50
  },
  {
    "geonameId": 1219431,
    "name": "Farap",
    "latitude": 39.17037,
    "longitude": 63.61165,
    "category": "City",
    "subcategory": "City",
    "featured": false,
    "priority": 50
  },
  {
    "geonameId": 1219525,
    "name": "Galkynyş",
    "latitude": 39.26284,
    "longitude": 63.18429,
    "category": "City",
    "subcategory": "City",
    "featured": false,
    "priority": 50
  },
  {
    "geonameId": 601758,
    "name": "Garabogaz",
    "latitude": 41.54013,
    "longitude": 52.57344,
    "category": "City",
    "subcategory": "City",
    "featured": false,
    "priority": 50
  },
  {
    "geonameId": 442578,
    "name": "Garadepe",
    "latitude": 38.03222,
    "longitude": 54.03556,
    "category": "City",
    "subcategory": "City",
    "featured": false,
    "priority": 50
  },
  {
    "geonameId": 1219422,
    "name": "Garagum",
    "latitude": 39,
    "longitude": 60,
    "category": "Desert",
    "subcategory": "Desert",
    "featured": false,
    "priority": 50
  },
  {
    "geonameId": 1218853,
    "name": "Garaşsyzlyk",
    "latitude": 37.39188,
    "longitude": 60.4349,
    "category": "City",
    "subcategory": "City",
    "featured": false,
    "priority": 50
  },
  {
    "geonameId": 1219420,
    "name": "Garkent",
    "latitude": 36.44685,
    "longitude": 64.05757,
    "category": "Mountain",
    "subcategory": "Mountain",
    "featured": false,
    "priority": 50
  },
  {
    "geonameId": 1514792,
    "name": "Gazojak",
    "latitude": 41.18746,
    "longitude": 61.4036,
    "category": "City",
    "subcategory": "City",
    "featured": false,
    "priority": 50
  },
  {
    "geonameId": 1219399,
    "name": "Gindukushskoye Vodokhranilishche",
    "latitude": 37.35,
    "longitude": 62.35,
    "category": "Lake",
    "subcategory": "Reservoir",
    "featured": false,
    "priority": 50
  },
  {
    "geonameId": 13590046,
    "name": "Gökçäge",
    "latitude": 42.01702,
    "longitude": 59.85543,
    "category": "City",
    "subcategory": "City",
    "featured": false,
    "priority": 50
  },
  {
    "geonameId": 161950,
    "name": "Gökdepe",
    "latitude": 38.15863,
    "longitude": 57.96072,
    "category": "City",
    "subcategory": "City",
    "featured": false,
    "priority": 50
  },
  {
    "geonameId": 1220007,
    "name": "Gora Abdyn-Yal-Kry",
    "latitude": 36.1548,
    "longitude": 62.8205,
    "category": "Mountain",
    "subcategory": "Mountain",
    "featured": false,
    "priority": 50
  },
  {
    "geonameId": 1220001,
    "name": "Gora Adzhanyn-Kyry",
    "latitude": 38.85,
    "longitude": 63.75,
    "category": "Mountain",
    "subcategory": "Mountain",
    "featured": false,
    "priority": 50
  },
  {
    "geonameId": 1220000,
    "name": "Gora Adzharli",
    "latitude": 36.24627,
    "longitude": 61.73295,
    "category": "Mountain",
    "subcategory": "Mountain",
    "featured": false,
    "priority": 50
  },
  {
    "geonameId": 7044002,
    "name": "Gora Afganskaya",
    "latitude": 35.2437,
    "longitude": 62.36145,
    "category": "Mountain",
    "subcategory": "Mountain",
    "featured": false,
    "priority": 50
  },
  {
    "geonameId": 162243,
    "name": "Gora Agacharvat",
    "latitude": 37.75611,
    "longitude": 54.82139,
    "category": "Mountain",
    "subcategory": "Mountain",
    "featured": false,
    "priority": 50
  },
  {
    "geonameId": 162236,
    "name": "Gora Ak-Bulak",
    "latitude": 38.34698,
    "longitude": 56.84387,
    "category": "Mountain",
    "subcategory": "Mountain",
    "featured": false,
    "priority": 50
  },
  {
    "geonameId": 1219968,
    "name": "Gora Ak-Dzhar",
    "latitude": 37.7,
    "longitude": 65.8,
    "category": "Mountain",
    "subcategory": "Mountain",
    "featured": false,
    "priority": 50
  },
  {
    "geonameId": 1219957,
    "name": "Gora Ak-Kanshar",
    "latitude": 37.81667,
    "longitude": 65.9,
    "category": "Mountain",
    "subcategory": "Mountain",
    "featured": false,
    "priority": 50
  },
  {
    "geonameId": 1219950,
    "name": "Gora Ak-Manakuin",
    "latitude": 37.76667,
    "longitude": 65.88333,
    "category": "Mountain",
    "subcategory": "Mountain",
    "featured": false,
    "priority": 50
  },
  {
    "geonameId": 8738538,
    "name": "Gora Akdag",
    "latitude": 38.85694,
    "longitude": 56.45595,
    "category": "Mountain",
    "subcategory": "Mountain",
    "featured": false,
    "priority": 50
  },
  {
    "geonameId": 162231,
    "name": "Gora Akhcha-Dag",
    "latitude": 38.65751,
    "longitude": 56.68663,
    "category": "Mountain",
    "subcategory": "Mountain",
    "featured": false,
    "priority": 50
  },
  {
    "geonameId": 1219917,
    "name": "Gora Al’-Murad",
    "latitude": 37.61667,
    "longitude": 66.2,
    "category": "Mountain",
    "subcategory": "Mountain",
    "featured": false,
    "priority": 50
  },
  {
    "geonameId": 1219932,
    "name": "Gora Alamli",
    "latitude": 37.99089,
    "longitude": 66.32431,
    "category": "Mountain",
    "subcategory": "Mountain",
    "featured": false,
    "priority": 50
  },
  {
    "geonameId": 8708339,
    "name": "Gora Allyam",
    "latitude": 38.44842,
    "longitude": 56.95243,
    "category": "Mountain",
    "subcategory": "Mountain",
    "featured": false,
    "priority": 50
  },
  {
    "geonameId": 162210,
    "name": "Gora Almadzhin",
    "latitude": 38.24216,
    "longitude": 57.25068,
    "category": "Mountain",
    "subcategory": "Mountain",
    "featured": false,
    "priority": 50
  },
  {
    "geonameId": 162204,
    "name": "Gora Amangel’dy",
    "latitude": 39.95149,
    "longitude": 56.25123,
    "category": "Mountain",
    "subcategory": "Mountain",
    "featured": false,
    "priority": 50
  },
  {
    "geonameId": 1219878,
    "name": "Gora Arabkhana",
    "latitude": 38.94945,
    "longitude": 63.90342,
    "category": "Mountain",
    "subcategory": "Mountain",
    "featured": false,
    "priority": 50
  },
  {
    "geonameId": 7044083,
    "name": "Gora Arabskaya",
    "latitude": 35.25833,
    "longitude": 62.36479,
    "category": "Mountain",
    "subcategory": "Mountain",
    "featured": false,
    "priority": 50
  },
  {
    "geonameId": 410595,
    "name": "Gora Asel’ma",
    "latitude": 37.7623,
    "longitude": 58.39563,
    "category": "Mountain",
    "subcategory": "Mountain",
    "featured": false,
    "priority": 50
  },
  {
    "geonameId": 1219822,
    "name": "Gora Ayman-Eydzhokli",
    "latitude": 35.6,
    "longitude": 62.61667,
    "category": "Mountain",
    "subcategory": "Mountain",
    "featured": false,
    "priority": 50
  },
  {
    "geonameId": 7041967,
    "name": "Gora Aymaneyrazhan",
    "latitude": 35.58115,
    "longitude": 62.5988,
    "category": "Mountain",
    "subcategory": "Mountain",
    "featured": false,
    "priority": 50
  },
  {
    "geonameId": 9533601,
    "name": "Gora Baktaraz",
    "latitude": 38.3971,
    "longitude": 54.77557,
    "category": "Mountain",
    "subcategory": "Mountain",
    "featured": false,
    "priority": 50
  },
  {
    "geonameId": 1219794,
    "name": "Gora Balakhana",
    "latitude": 37.83333,
    "longitude": 65.91667,
    "category": "Mountain",
    "subcategory": "Mountain",
    "featured": false,
    "priority": 50
  },
  {
    "geonameId": 8735170,
    "name": "Gora Balavaz",
    "latitude": 38.69695,
    "longitude": 56.71937,
    "category": "Mountain",
    "subcategory": "Mountain",
    "featured": false,
    "priority": 50
  },
  {
    "geonameId": 1219758,
    "name": "Gora Bazar-Kush",
    "latitude": 37.96667,
    "longitude": 65.7,
    "category": "Mountain",
    "subcategory": "Mountain",
    "featured": false,
    "priority": 50
  },
  {
    "geonameId": 8991378,
    "name": "Gora Bazarli",
    "latitude": 38.252,
    "longitude": 55.06788,
    "category": "Mountain",
    "subcategory": "Mountain",
    "featured": false,
    "priority": 50
  },
  {
    "geonameId": 601760,
    "name": "Gora Begarslan",
    "latitude": 40.21455,
    "longitude": 55.80684,
    "category": "Mountain",
    "subcategory": "Mountain",
    "featured": false,
    "priority": 50
  },
  {
    "geonameId": 601755,
    "name": "Gora Bekmurat",
    "latitude": 41.23333,
    "longitude": 54.7,
    "category": "Mountain",
    "subcategory": "Mountain",
    "featured": false,
    "priority": 50
  },
  {
    "geonameId": 1219724,
    "name": "Gora Besh-Kizyl",
    "latitude": 38.02494,
    "longitude": 63.68767,
    "category": "Mountain",
    "subcategory": "Mountain",
    "featured": false,
    "priority": 50
  },
  {
    "geonameId": 1475461,
    "name": "Gora Biil’",
    "latitude": 37.95751,
    "longitude": 65.78843,
    "category": "Mountain",
    "subcategory": "Mountain",
    "featured": false,
    "priority": 50
  },
  {
    "geonameId": 410289,
    "name": "Gora Biytal-Dagan",
    "latitude": 37.9025,
    "longitude": 57.78611,
    "category": "Mountain",
    "subcategory": "Mountain",
    "featured": false,
    "priority": 50
  },
  {
    "geonameId": 1219709,
    "name": "Gora Bogen-Chigri",
    "latitude": 35.87247,
    "longitude": 62.44664,
    "category": "Mountain",
    "subcategory": "Mountain",
    "featured": false,
    "priority": 50
  },
  {
    "geonameId": 410596,
    "name": "Gora Bol’shaya Khuncha",
    "latitude": 37.75117,
    "longitude": 58.4152,
    "category": "Mountain",
    "subcategory": "Mountain",
    "featured": false,
    "priority": 50
  },
  {
    "geonameId": 410438,
    "name": "Gora Bol’shoye Kare",
    "latitude": 37.77778,
    "longitude": 58.23889,
    "category": "Mountain",
    "subcategory": "Mountain",
    "featured": false,
    "priority": 50
  },
  {
    "geonameId": 1219696,
    "name": "Gora Bova-Chingiz",
    "latitude": 35.65566,
    "longitude": 61.73683,
    "category": "Mountain",
    "subcategory": "Mountain",
    "featured": false,
    "priority": 50
  },
  {
    "geonameId": 162111,
    "name": "Gora Boydag",
    "latitude": 39.12418,
    "longitude": 54.65967,
    "category": "Mountain",
    "subcategory": "Mountain",
    "featured": false,
    "priority": 50
  },
  {
    "geonameId": 410440,
    "name": "Gora Bozyk-Yamo",
    "latitude": 37.77556,
    "longitude": 58.20167,
    "category": "Mountain",
    "subcategory": "Mountain",
    "featured": false,
    "priority": 50
  },
  {
    "geonameId": 1219690,
    "name": "Gora Budzhak",
    "latitude": 38.81667,
    "longitude": 63.8,
    "category": "Mountain",
    "subcategory": "Mountain",
    "featured": false,
    "priority": 50
  },
  {
    "geonameId": 7041910,
    "name": "Gora Chadzhi",
    "latitude": 35.5463,
    "longitude": 62.20817,
    "category": "Mountain",
    "subcategory": "Mountain",
    "featured": false,
    "priority": 50
  },
  {
    "geonameId": 7046441,
    "name": "Gora Chakmakly-Changa",
    "latitude": 35.61171,
    "longitude": 61.43955,
    "category": "Mountain",
    "subcategory": "Mountain",
    "featured": false,
    "priority": 50
  },
  {
    "geonameId": 8992313,
    "name": "Gora Changly-Boshi",
    "latitude": 38.31468,
    "longitude": 55.95374,
    "category": "Mountain",
    "subcategory": "Mountain",
    "featured": false,
    "priority": 50
  },
  {
    "geonameId": 162090,
    "name": "Gora Charkaishan",
    "latitude": 38.53202,
    "longitude": 57.0785,
    "category": "Mountain",
    "subcategory": "Mountain",
    "featured": false,
    "priority": 50
  },
  {
    "geonameId": 9199707,
    "name": "Gora Chashdepe",
    "latitude": 38.13708,
    "longitude": 57.52912,
    "category": "Mountain",
    "subcategory": "Mountain",
    "featured": false,
    "priority": 50
  },
  {
    "geonameId": 1219629,
    "name": "Gora Chatyr-Tepe",
    "latitude": 37.69311,
    "longitude": 66.12512,
    "category": "Mountain",
    "subcategory": "Mountain",
    "featured": false,
    "priority": 50
  },
  {
    "geonameId": 8709884,
    "name": "Gora Chorkhodzha",
    "latitude": 38.53614,
    "longitude": 56.33588,
    "category": "Mountain",
    "subcategory": "Mountain",
    "featured": false,
    "priority": 50
  },
  {
    "geonameId": 1476207,
    "name": "Gora Chuvchanakhi",
    "latitude": 35.4849,
    "longitude": 62.23999,
    "category": "Mountain",
    "subcategory": "Mountain",
    "featured": false,
    "priority": 50
  },
  {
    "geonameId": 1219567,
    "name": "Gora Chuychak-Ata",
    "latitude": 38.23745,
    "longitude": 65.93902,
    "category": "Mountain",
    "subcategory": "Mountain",
    "featured": false,
    "priority": 50
  },
  {
    "geonameId": 1219562,
    "name": "Gora Dadyr",
    "latitude": 37.71987,
    "longitude": 66.22209,
    "category": "Mountain",
    "subcategory": "Mountain",
    "featured": false,
    "priority": 50
  },
  {
    "geonameId": 8599401,
    "name": "Gora Dagmansag",
    "latitude": 36.71047,
    "longitude": 60.32145,
    "category": "Mountain",
    "subcategory": "Mountain",
    "featured": false,
    "priority": 50
  },
  {
    "geonameId": 8599174,
    "name": "Gora Dalibulagi",
    "latitude": 36.73562,
    "longitude": 60.29548,
    "category": "Mountain",
    "subcategory": "Mountain",
    "featured": false,
    "priority": 50
  },
  {
    "geonameId": 410605,
    "name": "Gora Damchi",
    "latitude": 37.66278,
    "longitude": 58.34417,
    "category": "Mountain",
    "subcategory": "Mountain",
    "featured": false,
    "priority": 50
  },
  {
    "geonameId": 8599164,
    "name": "Gora Dash",
    "latitude": 36.79859,
    "longitude": 60.23279,
    "category": "Mountain",
    "subcategory": "Mountain",
    "featured": false,
    "priority": 50
  },
  {
    "geonameId": 8994636,
    "name": "Gora Dashllidalak",
    "latitude": 38.55664,
    "longitude": 55.77712,
    "category": "Mountain",
    "subcategory": "Mountain",
    "featured": false,
    "priority": 50
  },
  {
    "geonameId": 410577,
    "name": "Gora Dashtoy",
    "latitude": 37.67353,
    "longitude": 58.32791,
    "category": "Mountain",
    "subcategory": "Mountain",
    "featured": false,
    "priority": 50
  },
  {
    "geonameId": 162046,
    "name": "Gora Degirmendag",
    "latitude": 38.50539,
    "longitude": 57.1775,
    "category": "Mountain",
    "subcategory": "Mountain",
    "featured": false,
    "priority": 50
  },
  {
    "geonameId": 601729,
    "name": "Gora Demirdzhan",
    "latitude": 40.53333,
    "longitude": 54.1,
    "category": "Mountain",
    "subcategory": "Mountain",
    "featured": false,
    "priority": 50
  },
  {
    "geonameId": 7046721,
    "name": "Gora Dengli-Dag",
    "latitude": 35.5262,
    "longitude": 61.44934,
    "category": "Mountain",
    "subcategory": "Mountain",
    "featured": false,
    "priority": 50
  },
  {
    "geonameId": 9291896,
    "name": "Gora Diodzhi",
    "latitude": 38.9347,
    "longitude": 56.32702,
    "category": "Mountain",
    "subcategory": "Mountain",
    "featured": false,
    "priority": 50
  },
  {
    "geonameId": 1219522,
    "name": "Gora Diondipil’",
    "latitude": 36.17192,
    "longitude": 61.30897,
    "category": "Mountain",
    "subcategory": "Mountain",
    "featured": false,
    "priority": 50
  },
  {
    "geonameId": 162012,
    "name": "Gora Doyran",
    "latitude": 38.50797,
    "longitude": 56.12523,
    "category": "Mountain",
    "subcategory": "Mountain",
    "featured": false,
    "priority": 50
  },
  {
    "geonameId": 1476228,
    "name": "Gora Dozornaya",
    "latitude": 35.31153,
    "longitude": 62.35638,
    "category": "Mountain",
    "subcategory": "Mountain",
    "featured": false,
    "priority": 50
  },
  {
    "geonameId": 1219511,
    "name": "Gora Dugoba",
    "latitude": 38.06667,
    "longitude": 65.33333,
    "category": "Mountain",
    "subcategory": "Mountain",
    "featured": false,
    "priority": 50
  },
  {
    "geonameId": 1219509,
    "name": "Gora Dukhcha-Kaya",
    "latitude": 36.08283,
    "longitude": 61.25818,
    "category": "Mountain",
    "subcategory": "Mountain",
    "featured": false,
    "priority": 50
  },
  {
    "geonameId": 1219500,
    "name": "Gora Duzen-Kry",
    "latitude": 36.55,
    "longitude": 62.63333,
    "category": "Mountain",
    "subcategory": "Mountain",
    "featured": false,
    "priority": 50
  },
  {
    "geonameId": 9533100,
    "name": "Gora Duzlakdepe",
    "latitude": 38.11348,
    "longitude": 54.88932,
    "category": "Mountain",
    "subcategory": "Mountain",
    "featured": false,
    "priority": 50
  },
  {
    "geonameId": 9278615,
    "name": "Gora Dyngelyan",
    "latitude": 38.24624,
    "longitude": 56.08501,
    "category": "Mountain",
    "subcategory": "Mountain",
    "featured": false,
    "priority": 50
  },
  {
    "geonameId": 11249261,
    "name": "Gora Dyushiliyamar",
    "latitude": 37.70391,
    "longitude": 58.74691,
    "category": "Mountain",
    "subcategory": "Mountain",
    "featured": false,
    "priority": 50
  },
  {
    "geonameId": 1475102,
    "name": "Gora Dzharguzar",
    "latitude": 37.37583,
    "longitude": 66.44778,
    "category": "Mountain",
    "subcategory": "Mountain",
    "featured": false,
    "priority": 50
  },
  {
    "geonameId": 1475109,
    "name": "Gora Etimdag",
    "latitude": 37.41823,
    "longitude": 66.29302,
    "category": "Mountain",
    "subcategory": "Mountain",
    "featured": false,
    "priority": 50
  },
  {
    "geonameId": 161981,
    "name": "Gora Gal’vapas",
    "latitude": 38.08852,
    "longitude": 57.65997,
    "category": "Mountain",
    "subcategory": "Mountain",
    "featured": false,
    "priority": 50
  },
  {
    "geonameId": 1219418,
    "name": "Gora Gaurdak",
    "latitude": 37.84582,
    "longitude": 66.12215,
    "category": "Mountain",
    "subcategory": "Mountain",
    "featured": false,
    "priority": 50
  },
  {
    "geonameId": 8701710,
    "name": "Gora Gazdepe",
    "latitude": 38.35301,
    "longitude": 56.90322,
    "category": "Mountain",
    "subcategory": "Mountain",
    "featured": false,
    "priority": 50
  },
  {
    "geonameId": 1475119,
    "name": "Gora Gektau",
    "latitude": 37.48739,
    "longitude": 66.40175,
    "category": "Mountain",
    "subcategory": "Mountain",
    "featured": false,
    "priority": 50
  },
  {
    "geonameId": 9199755,
    "name": "Gora Geokchumek",
    "latitude": 38.33516,
    "longitude": 57.44866,
    "category": "Mountain",
    "subcategory": "Mountain",
    "featured": false,
    "priority": 50
  },
  {
    "geonameId": 161959,
    "name": "Gora Gerkel",
    "latitude": 39.9,
    "longitude": 54.3,
    "category": "Mountain",
    "subcategory": "Mountain",
    "featured": false,
    "priority": 50
  },
  {
    "geonameId": 1219396,
    "name": "Gora Gokcha",
    "latitude": 36.22139,
    "longitude": 62.25444,
    "category": "Mountain",
    "subcategory": "Mountain",
    "featured": false,
    "priority": 50
  },
  {
    "geonameId": 8735169,
    "name": "Gora Gorykly",
    "latitude": 38.73395,
    "longitude": 56.71815,
    "category": "Mountain",
    "subcategory": "Mountain",
    "featured": false,
    "priority": 50
  },
  {
    "geonameId": 8991342,
    "name": "Gora Gotatan",
    "latitude": 38.17982,
    "longitude": 55.02113,
    "category": "Mountain",
    "subcategory": "Mountain",
    "featured": false,
    "priority": 50
  },
  {
    "geonameId": 8709889,
    "name": "Gora Gudzhuk",
    "latitude": 38.57337,
    "longitude": 56.55158,
    "category": "Mountain",
    "subcategory": "Mountain",
    "featured": false,
    "priority": 50
  },
  {
    "geonameId": 161942,
    "name": "Gora Gurma-Tarkhe-Ekiz",
    "latitude": 38.58333,
    "longitude": 56.88333,
    "category": "Mountain",
    "subcategory": "Mountain",
    "featured": false,
    "priority": 50
  },
  {
    "geonameId": 1219372,
    "name": "Gora Gynchagyz-Kry",
    "latitude": 36.2,
    "longitude": 62.75,
    "category": "Mountain",
    "subcategory": "Mountain",
    "featured": false,
    "priority": 50
  },
  {
    "geonameId": 1219371,
    "name": "Gora Gynchangyz-Dag",
    "latitude": 36.1,
    "longitude": 62.81667,
    "category": "Mountain",
    "subcategory": "Mountain",
    "featured": false,
    "priority": 50
  },
  {
    "geonameId": 9533128,
    "name": "Gora Inerchage",
    "latitude": 38.21865,
    "longitude": 54.80744,
    "category": "Mountain",
    "subcategory": "Mountain",
    "featured": false,
    "priority": 50
  },
  {
    "geonameId": 9533125,
    "name": "Gora Ineshchaga",
    "latitude": 38.13013,
    "longitude": 54.87573,
    "category": "Mountain",
    "subcategory": "Mountain",
    "featured": false,
    "priority": 50
  },
  {
    "geonameId": 7044931,
    "name": "Gora Intendantskaya",
    "latitude": 35.30023,
    "longitude": 62.35575,
    "category": "Mountain",
    "subcategory": "Mountain",
    "featured": false,
    "priority": 50
  },
  {
    "geonameId": 7044475,
    "name": "Gora Inzhenernaya",
    "latitude": 35.28749,
    "longitude": 62.32863,
    "category": "Mountain",
    "subcategory": "Mountain",
    "featured": false,
    "priority": 50
  },
  {
    "geonameId": 161912,
    "name": "Gora Isan",
    "latitude": 38.5,
    "longitude": 56.25,
    "category": "Mountain",
    "subcategory": "Mountain",
    "featured": false,
    "priority": 50
  },
  {
    "geonameId": 8698851,
    "name": "Gora Itoygu",
    "latitude": 38.27333,
    "longitude": 56.64843,
    "category": "Mountain",
    "subcategory": "Mountain",
    "featured": false,
    "priority": 50
  },
  {
    "geonameId": 1219190,
    "name": "Gora Kadzhagar-Bata",
    "latitude": 35.51154,
    "longitude": 62.41187,
    "category": "Mountain",
    "subcategory": "Mountain",
    "featured": false,
    "priority": 50
  },
  {
    "geonameId": 1476233,
    "name": "Gora Kamennaya",
    "latitude": 35.25194,
    "longitude": 62.39426,
    "category": "Mountain",
    "subcategory": "Mountain",
    "featured": false,
    "priority": 50
  },
  {
    "geonameId": 8738536,
    "name": "Gora Kanov",
    "latitude": 38.81871,
    "longitude": 56.44959,
    "category": "Mountain",
    "subcategory": "Mountain",
    "featured": false,
    "priority": 50
  },
  {
    "geonameId": 1219141,
    "name": "Gora Kara-Burun",
    "latitude": 38.35,
    "longitude": 64.45,
    "category": "Mountain",
    "subcategory": "Mountain",
    "featured": false,
    "priority": 50
  },
  {
    "geonameId": 1219138,
    "name": "Gora Kara-Chagat",
    "latitude": 37.66407,
    "longitude": 66.21479,
    "category": "Mountain",
    "subcategory": "Mountain",
    "featured": false,
    "priority": 50
  },
  {
    "geonameId": 1219125,
    "name": "Gora Kara-Dzhumalak",
    "latitude": 37.53387,
    "longitude": 66.48621,
    "category": "Mountain",
    "subcategory": "Mountain",
    "featured": false,
    "priority": 50
  },
  {
    "geonameId": 161871,
    "name": "Gora Kara-Gura",
    "latitude": 38.38808,
    "longitude": 57.11807,
    "category": "Mountain",
    "subcategory": "Mountain",
    "featured": false,
    "priority": 50
  },
  {
    "geonameId": 410580,
    "name": "Gora Kara-Ilkbi",
    "latitude": 37.66222,
    "longitude": 58.30333,
    "category": "Mountain",
    "subcategory": "Mountain",
    "featured": false,
    "priority": 50
  },
  {
    "geonameId": 410257,
    "name": "Gora Kara-Yutalag",
    "latitude": 37.93833,
    "longitude": 57.57667,
    "category": "Mountain",
    "subcategory": "Mountain",
    "featured": false,
    "priority": 50
  },
  {
    "geonameId": 7027803,
    "name": "Gora Karababa",
    "latitude": 36.22823,
    "longitude": 63.98227,
    "category": "Mountain",
    "subcategory": "Mountain",
    "featured": false,
    "priority": 50
  },
  {
    "geonameId": 1462832,
    "name": "Gora Karabet",
    "latitude": 36.10048,
    "longitude": 61.38611,
    "category": "Mountain",
    "subcategory": "Mountain",
    "featured": false,
    "priority": 50
  },
  {
    "geonameId": 7027739,
    "name": "Gora Karabil’",
    "latitude": 36.11952,
    "longitude": 63.52766,
    "category": "Mountain",
    "subcategory": "Mountain",
    "featured": false,
    "priority": 50
  },
  {
    "geonameId": 7027321,
    "name": "Gora Karabulakshor",
    "latitude": 36.24279,
    "longitude": 64.15664,
    "category": "Mountain",
    "subcategory": "Mountain",
    "featured": false,
    "priority": 50
  },
  {
    "geonameId": 8734590,
    "name": "Gora Karachek",
    "latitude": 38.71314,
    "longitude": 56.65076,
    "category": "Mountain",
    "subcategory": "Mountain",
    "featured": false,
    "priority": 50
  },
  {
    "geonameId": 410461,
    "name": "Gora Karadepe",
    "latitude": 37.89253,
    "longitude": 58.18197,
    "category": "Mountain",
    "subcategory": "Mountain",
    "featured": false,
    "priority": 50
  },
  {
    "geonameId": 8710843,
    "name": "Gora Karadezh",
    "latitude": 38.5327,
    "longitude": 56.77259,
    "category": "Mountain",
    "subcategory": "Mountain",
    "featured": false,
    "priority": 50
  },
  {
    "geonameId": 1219130,
    "name": "Gora Karadzha-Tag",
    "latitude": 37.38333,
    "longitude": 66.38333,
    "category": "Mountain",
    "subcategory": "Mountain",
    "featured": false,
    "priority": 50
  },
  {
    "geonameId": 9280137,
    "name": "Gora Karadzhadag",
    "latitude": 38.28333,
    "longitude": 56.04035,
    "category": "Mountain",
    "subcategory": "Mountain",
    "featured": false,
    "priority": 50
  },
  {
    "geonameId": 9291898,
    "name": "Gora Karadzhag",
    "latitude": 38.90247,
    "longitude": 56.36741,
    "category": "Mountain",
    "subcategory": "Mountain",
    "featured": false,
    "priority": 50
  },
  {
    "geonameId": 9008052,
    "name": "Gora Karadzhar",
    "latitude": 38.04603,
    "longitude": 57.71083,
    "category": "Mountain",
    "subcategory": "Mountain",
    "featured": false,
    "priority": 50
  },
  {
    "geonameId": 8991366,
    "name": "Gora Karadzhik",
    "latitude": 38.15536,
    "longitude": 55.77744,
    "category": "Mountain",
    "subcategory": "Mountain",
    "featured": false,
    "priority": 50
  },
  {
    "geonameId": 8708374,
    "name": "Gora Karadzhindag",
    "latitude": 38.43847,
    "longitude": 56.53321,
    "category": "Mountain",
    "subcategory": "Mountain",
    "featured": false,
    "priority": 50
  },
  {
    "geonameId": 1475125,
    "name": "Gora Karakamar",
    "latitude": 37.38444,
    "longitude": 66.51583,
    "category": "Mountain",
    "subcategory": "Mountain",
    "featured": false,
    "priority": 50
  },
  {
    "geonameId": 1219103,
    "name": "Gora Karakyr",
    "latitude": 35.64755,
    "longitude": 62.36106,
    "category": "Mountain",
    "subcategory": "Mountain",
    "featured": false,
    "priority": 50
  },
  {
    "geonameId": 8994608,
    "name": "Gora Karasyuyri",
    "latitude": 38.65148,
    "longitude": 55.73163,
    "category": "Mountain",
    "subcategory": "Mountain",
    "featured": false,
    "priority": 50
  },
  {
    "geonameId": 8712834,
    "name": "Gora Karategelen",
    "latitude": 38.61452,
    "longitude": 56.69513,
    "category": "Mountain",
    "subcategory": "Mountain",
    "featured": false,
    "priority": 50
  },
  {
    "geonameId": 8738109,
    "name": "Gora Karategen",
    "latitude": 38.68204,
    "longitude": 56.81836,
    "category": "Mountain",
    "subcategory": "Mountain",
    "featured": false,
    "priority": 50
  },
  {
    "geonameId": 7044080,
    "name": "Gora Karatepinskaya",
    "latitude": 35.25629,
    "longitude": 62.29923,
    "category": "Mountain",
    "subcategory": "Mountain",
    "featured": false,
    "priority": 50
  },
  {
    "geonameId": 410272,
    "name": "Gora Karaul’",
    "latitude": 37.92616,
    "longitude": 57.70343,
    "category": "Mountain",
    "subcategory": "Mountain",
    "featured": false,
    "priority": 50
  },
  {
    "geonameId": 1219032,
    "name": "Gora Kattaur",
    "latitude": 37.53613,
    "longitude": 66.15284,
    "category": "Mountain",
    "subcategory": "Mountain",
    "featured": false,
    "priority": 50
  },
  {
    "geonameId": 8708377,
    "name": "Gora Katyvan",
    "latitude": 38.48604,
    "longitude": 56.41487,
    "category": "Mountain",
    "subcategory": "Mountain",
    "featured": false,
    "priority": 50
  },
  {
    "geonameId": 7046429,
    "name": "Gora Kazan",
    "latitude": 35.6808,
    "longitude": 61.8184,
    "category": "Mountain",
    "subcategory": "Mountain",
    "featured": false,
    "priority": 50
  },
  {
    "geonameId": 8991369,
    "name": "Gora Kazangyau",
    "latitude": 38.17703,
    "longitude": 55.88795,
    "category": "Mountain",
    "subcategory": "Mountain",
    "featured": false,
    "priority": 50
  },
  {
    "geonameId": 8991368,
    "name": "Gora Keche",
    "latitude": 38.13111,
    "longitude": 55.85631,
    "category": "Mountain",
    "subcategory": "Mountain",
    "featured": false,
    "priority": 50
  },
  {
    "geonameId": 410604,
    "name": "Gora Kechun",
    "latitude": 37.67725,
    "longitude": 58.45476,
    "category": "Mountain",
    "subcategory": "Mountain",
    "featured": false,
    "priority": 50
  },
  {
    "geonameId": 1219024,
    "name": "Gora Keikkyr",
    "latitude": 36.16746,
    "longitude": 61.89002,
    "category": "Mountain",
    "subcategory": "Mountain",
    "featured": false,
    "priority": 50
  },
  {
    "geonameId": 161811,
    "name": "Gora Kesa-Dag",
    "latitude": 38.55063,
    "longitude": 56.58533,
    "category": "Mountain",
    "subcategory": "Mountain",
    "featured": false,
    "priority": 50
  },
  {
    "geonameId": 410589,
    "name": "Gora Khal’vat",
    "latitude": 37.80694,
    "longitude": 58.42556,
    "category": "Mountain",
    "subcategory": "Mountain",
    "featured": false,
    "priority": 50
  },
  {
    "geonameId": 161805,
    "name": "Gora Khalats",
    "latitude": 37.81885,
    "longitude": 58.56312,
    "category": "Mountain",
    "subcategory": "Mountain",
    "featured": false,
    "priority": 50
  },
  {
    "geonameId": 1218973,
    "name": "Gora Khan-Kyr",
    "latitude": 36.28121,
    "longitude": 61.83292,
    "category": "Mountain",
    "subcategory": "Mountain",
    "featured": false,
    "priority": 50
  },
  {
    "geonameId": 410329,
    "name": "Gora Kharlasang",
    "latitude": 37.98886,
    "longitude": 57.95128,
    "category": "Mountain",
    "subcategory": "Mountain",
    "featured": false,
    "priority": 50
  },
  {
    "geonameId": 410315,
    "name": "Gora Khasan-Uychali",
    "latitude": 37.87306,
    "longitude": 57.85111,
    "category": "Mountain",
    "subcategory": "Mountain",
    "featured": false,
    "priority": 50
  },
  {
    "geonameId": 410463,
    "name": "Gora Khendyvar",
    "latitude": 37.91008,
    "longitude": 58.225,
    "category": "Mountain",
    "subcategory": "Mountain",
    "featured": false,
    "priority": 50
  },
  {
    "geonameId": 1218924,
    "name": "Gora Khodzha-Mogolda",
    "latitude": 37.96667,
    "longitude": 66.03333,
    "category": "Mountain",
    "subcategory": "Mountain",
    "featured": false,
    "priority": 50
  },
  {
    "geonameId": 1476231,
    "name": "Gora Khokhlatskaya",
    "latitude": 35.23808,
    "longitude": 62.32482,
    "category": "Mountain",
    "subcategory": "Mountain",
    "featured": false,
    "priority": 50
  },
  {
    "geonameId": 8708375,
    "name": "Gora Koishauchan",
    "latitude": 38.43979,
    "longitude": 56.45849,
    "category": "Mountain",
    "subcategory": "Mountain",
    "featured": false,
    "priority": 50
  },
  {
    "geonameId": 410342,
    "name": "Gora Konichar",
    "latitude": 37.84222,
    "longitude": 57.96778,
    "category": "Mountain",
    "subcategory": "Mountain",
    "featured": false,
    "priority": 50
  },
  {
    "geonameId": 161729,
    "name": "Gora Koyusi",
    "latitude": 38.51497,
    "longitude": 56.53926,
    "category": "Mountain",
    "subcategory": "Mountain",
    "featured": false,
    "priority": 50
  },
  {
    "geonameId": 8991375,
    "name": "Gora Kozedere",
    "latitude": 38.20976,
    "longitude": 55.8734,
    "category": "Mountain",
    "subcategory": "Mountain",
    "featured": false,
    "priority": 50
  },
  {
    "geonameId": 7041614,
    "name": "Gora Krasnaya",
    "latitude": 35.46945,
    "longitude": 62.63135,
    "category": "Mountain",
    "subcategory": "Mountain",
    "featured": false,
    "priority": 50
  },
  {
    "geonameId": 7044081,
    "name": "Gora Krasnovodskaya",
    "latitude": 35.25714,
    "longitude": 62.30981,
    "category": "Mountain",
    "subcategory": "Mountain",
    "featured": false,
    "priority": 50
  },
  {
    "geonameId": 1475104,
    "name": "Gora Kulapashar",
    "latitude": 37.41304,
    "longitude": 66.40196,
    "category": "Mountain",
    "subcategory": "Mountain",
    "featured": false,
    "priority": 50
  },
  {
    "geonameId": 410610,
    "name": "Gora Kullar",
    "latitude": 37.63278,
    "longitude": 58.44167,
    "category": "Mountain",
    "subcategory": "Mountain",
    "featured": false,
    "priority": 50
  },
  {
    "geonameId": 8708376,
    "name": "Gora Kundalin",
    "latitude": 38.48025,
    "longitude": 56.49459,
    "category": "Mountain",
    "subcategory": "Mountain",
    "featured": false,
    "priority": 50
  },
  {
    "geonameId": 1218784,
    "name": "Gora Kundalyang-Tau",
    "latitude": 37.54314,
    "longitude": 66.03304,
    "category": "Mountain",
    "subcategory": "Mountain",
    "featured": false,
    "priority": 50
  },
  {
    "geonameId": 1218767,
    "name": "Gora Kurban-Yab",
    "latitude": 36.15,
    "longitude": 62.73333,
    "category": "Mountain",
    "subcategory": "Mountain",
    "featured": false,
    "priority": 50
  },
  {
    "geonameId": 601580,
    "name": "Gora Kurgan",
    "latitude": 40.63333,
    "longitude": 54.75,
    "category": "Mountain",
    "subcategory": "Mountain",
    "featured": false,
    "priority": 50
  },
  {
    "geonameId": 1218764,
    "name": "Gora Kurgan-Niyaz-Kry",
    "latitude": 36.25889,
    "longitude": 62.74472,
    "category": "Mountain",
    "subcategory": "Mountain",
    "featured": false,
    "priority": 50
  },
  {
    "geonameId": 1218740,
    "name": "Gora Kushly-Gaya",
    "latitude": 36.48333,
    "longitude": 62.66667,
    "category": "Mountain",
    "subcategory": "Mountain",
    "featured": false,
    "priority": 50
  },
  {
    "geonameId": 161699,
    "name": "Gora Kushlyuk",
    "latitude": 38.59813,
    "longitude": 55.80825,
    "category": "Mountain",
    "subcategory": "Mountain",
    "featured": false,
    "priority": 50
  },
  {
    "geonameId": 161698,
    "name": "Gora Kushvaky",
    "latitude": 38.62485,
    "longitude": 55.5031,
    "category": "Mountain",
    "subcategory": "Mountain",
    "featured": false,
    "priority": 50
  },
  {
    "geonameId": 1218738,
    "name": "Gora Kuurtly-Kry",
    "latitude": 36.28333,
    "longitude": 62.71667,
    "category": "Mountain",
    "subcategory": "Mountain",
    "featured": false,
    "priority": 50
  },
  {
    "geonameId": 8734814,
    "name": "Gora Kyaklik",
    "latitude": 38.69648,
    "longitude": 56.59925,
    "category": "Mountain",
    "subcategory": "Mountain",
    "featured": false,
    "priority": 50
  },
  {
    "geonameId": 161687,
    "name": "Gora Kyrkashan",
    "latitude": 38.38444,
    "longitude": 57.20449,
    "category": "Mountain",
    "subcategory": "Mountain",
    "featured": false,
    "priority": 50
  },
  {
    "geonameId": 161685,
    "name": "Gora Kyuren",
    "latitude": 39.05316,
    "longitude": 55.157,
    "category": "Mountain",
    "subcategory": "Mountain",
    "featured": false,
    "priority": 50
  },
  {
    "geonameId": 1218708,
    "name": "Gora Kyzyl-Dzhagry",
    "latitude": 36.6217,
    "longitude": 63.88808,
    "category": "Mountain",
    "subcategory": "Mountain",
    "featured": false,
    "priority": 50
  },
  {
    "geonameId": 1218702,
    "name": "Gora Kyzyl-Kuraz",
    "latitude": 37.5,
    "longitude": 66.33333,
    "category": "Mountain",
    "subcategory": "Mountain",
    "featured": false,
    "priority": 50
  },
  {
    "geonameId": 8994593,
    "name": "Gora Kyzyldzha",
    "latitude": 38.57651,
    "longitude": 55.3133,
    "category": "Mountain",
    "subcategory": "Mountain",
    "featured": false,
    "priority": 50
  },
  {
    "geonameId": 161758,
    "name": "Gora Kyzylkaya",
    "latitude": 38.13369,
    "longitude": 57.61385,
    "category": "Mountain",
    "subcategory": "Mountain",
    "featured": false,
    "priority": 50
  },
  {
    "geonameId": 161767,
    "name": "Gora Kyzylkhasar",
    "latitude": 38.20379,
    "longitude": 57.40369,
    "category": "Mountain",
    "subcategory": "Mountain",
    "featured": false,
    "priority": 50
  },
  {
    "geonameId": 601559,
    "name": "Gora Kyzylkup",
    "latitude": 40.56667,
    "longitude": 54.06667,
    "category": "Mountain",
    "subcategory": "Mountain",
    "featured": false,
    "priority": 50
  },
  {
    "geonameId": 7044082,
    "name": "Gora Lagernaya",
    "latitude": 35.26152,
    "longitude": 62.34071,
    "category": "Mountain",
    "subcategory": "Mountain",
    "featured": false,
    "priority": 50
  },
  {
    "geonameId": 7027806,
    "name": "Gora Lekker",
    "latitude": 36.27635,
    "longitude": 63.7663,
    "category": "Mountain",
    "subcategory": "Mountain",
    "featured": false,
    "priority": 50
  },
  {
    "geonameId": 410551,
    "name": "Gora Ludzha",
    "latitude": 37.76115,
    "longitude": 58.25039,
    "category": "Mountain",
    "subcategory": "Mountain",
    "featured": false,
    "priority": 50
  },
  {
    "geonameId": 9199727,
    "name": "Gora Lysaya",
    "latitude": 38.20626,
    "longitude": 57.31938,
    "category": "Mountain",
    "subcategory": "Mountain",
    "featured": false,
    "priority": 50
  },
  {
    "geonameId": 410599,
    "name": "Gora Malaya Khuncha",
    "latitude": 37.72333,
    "longitude": 58.46436,
    "category": "Mountain",
    "subcategory": "Mountain",
    "featured": false,
    "priority": 50
  },
  {
    "geonameId": 410552,
    "name": "Gora Maloye Kare",
    "latitude": 37.80833,
    "longitude": 58.25139,
    "category": "Mountain",
    "subcategory": "Mountain",
    "featured": false,
    "priority": 50
  },
  {
    "geonameId": 9643014,
    "name": "Gora Mamedolen",
    "latitude": 38.23633,
    "longitude": 58.6635,
    "category": "Mountain",
    "subcategory": "Mountain",
    "featured": false,
    "priority": 50
  },
  {
    "geonameId": 410457,
    "name": "Gora Markou",
    "latitude": 37.9982,
    "longitude": 58.07421,
    "category": "Mountain",
    "subcategory": "Mountain",
    "featured": false,
    "priority": 50
  },
  {
    "geonameId": 410452,
    "name": "Gora Marzdzhufru",
    "latitude": 37.8957,
    "longitude": 58.11968,
    "category": "Mountain",
    "subcategory": "Mountain",
    "featured": false,
    "priority": 50
  },
  {
    "geonameId": 145476,
    "name": "Gora Masinev",
    "latitude": 37.92861,
    "longitude": 57.54972,
    "category": "Mountain",
    "subcategory": "Mountain",
    "featured": false,
    "priority": 50
  },
  {
    "geonameId": 7046379,
    "name": "Gora Mergenchagat",
    "latitude": 35.73238,
    "longitude": 62.40342,
    "category": "Mountain",
    "subcategory": "Mountain",
    "featured": false,
    "priority": 50
  },
  {
    "geonameId": 410446,
    "name": "Gora Mezerge-Tepe",
    "latitude": 37.70583,
    "longitude": 58.23444,
    "category": "Mountain",
    "subcategory": "Mountain",
    "featured": false,
    "priority": 50
  },
  {
    "geonameId": 161634,
    "name": "Gora Mirzadag",
    "latitude": 38.03527,
    "longitude": 57.63204,
    "category": "Mountain",
    "subcategory": "Mountain",
    "featured": false,
    "priority": 50
  },
  {
    "geonameId": 161626,
    "name": "Gora Mondzhukly",
    "latitude": 38.19187,
    "longitude": 55.94687,
    "category": "Mountain",
    "subcategory": "Mountain",
    "featured": false,
    "priority": 50
  },
  {
    "geonameId": 161655,
    "name": "Gora Monoman",
    "latitude": 38.45361,
    "longitude": 57.06043,
    "category": "Mountain",
    "subcategory": "Mountain",
    "featured": false,
    "priority": 50
  },
  {
    "geonameId": 161625,
    "name": "Gora Murad-Kerrik",
    "latitude": 38.29348,
    "longitude": 57.41461,
    "category": "Mountain",
    "subcategory": "Mountain",
    "featured": false,
    "priority": 50
  },
  {
    "geonameId": 1218608,
    "name": "Gora Musa-Gadyk",
    "latitude": 36.61667,
    "longitude": 62.56667,
    "category": "Mountain",
    "subcategory": "Mountain",
    "featured": false,
    "priority": 50
  },
  {
    "geonameId": 410606,
    "name": "Gora Nagduin",
    "latitude": 37.65667,
    "longitude": 58.36639,
    "category": "Mountain",
    "subcategory": "Mountain",
    "featured": false,
    "priority": 50
  },
  {
    "geonameId": 8994590,
    "name": "Gora Nerdzhik",
    "latitude": 38.64386,
    "longitude": 55.17722,
    "category": "Mountain",
    "subcategory": "Mountain",
    "featured": false,
    "priority": 50
  },
  {
    "geonameId": 9533127,
    "name": "Gora Nevetli",
    "latitude": 38.13871,
    "longitude": 54.84003,
    "category": "Mountain",
    "subcategory": "Mountain",
    "featured": false,
    "priority": 50
  },
  {
    "geonameId": 161602,
    "name": "Gora Oglanly",
    "latitude": 39.85,
    "longitude": 54.43333,
    "category": "Mountain",
    "subcategory": "Mountain",
    "featured": false,
    "priority": 50
  },
  {
    "geonameId": 1218560,
    "name": "Gora Ogul-Bek-Tyumek",
    "latitude": 35.86137,
    "longitude": 62.27415,
    "category": "Mountain",
    "subcategory": "Mountain",
    "featured": false,
    "priority": 50
  },
  {
    "geonameId": 1475112,
    "name": "Gora Okuzbulak",
    "latitude": 37.43472,
    "longitude": 66.33972,
    "category": "Mountain",
    "subcategory": "Mountain",
    "featured": false,
    "priority": 50
  },
  {
    "geonameId": 601525,
    "name": "Gora Omganini",
    "latitude": 40.61667,
    "longitude": 53.83333,
    "category": "Mountain",
    "subcategory": "Mountain",
    "featured": false,
    "priority": 50
  },
  {
    "geonameId": 8735175,
    "name": "Gora Onugurt",
    "latitude": 38.71057,
    "longitude": 56.77964,
    "category": "Mountain",
    "subcategory": "Mountain",
    "featured": false,
    "priority": 50
  },
  {
    "geonameId": 410465,
    "name": "Gora Peshberman",
    "latitude": 37.84871,
    "longitude": 58.15018,
    "category": "Mountain",
    "subcategory": "Mountain",
    "featured": false,
    "priority": 50
  },
  {
    "geonameId": 1476232,
    "name": "Gora Piramida",
    "latitude": 35.22372,
    "longitude": 62.37603,
    "category": "Mountain",
    "subcategory": "Mountain",
    "featured": false,
    "priority": 50
  },
  {
    "geonameId": 7044942,
    "name": "Gora Pochtovaya",
    "latitude": 35.31474,
    "longitude": 62.38426,
    "category": "Mountain",
    "subcategory": "Mountain",
    "featured": false,
    "priority": 50
  },
  {
    "geonameId": 410436,
    "name": "Gora Pursaki",
    "latitude": 37.81389,
    "longitude": 58.22778,
    "category": "Mountain",
    "subcategory": "Mountain",
    "featured": false,
    "priority": 50
  },
  {
    "geonameId": 410313,
    "name": "Gora Radzhab-Dag",
    "latitude": 37.86361,
    "longitude": 57.82778,
    "category": "Mountain",
    "subcategory": "Mountain",
    "featured": false,
    "priority": 50
  },
  {
    "geonameId": 410233,
    "name": "Gora Rafa",
    "latitude": 37.93333,
    "longitude": 57.56333,
    "category": "Mountain",
    "subcategory": "Mountain",
    "featured": false,
    "priority": 50
  },
  {
    "geonameId": 1218497,
    "name": "Gora Rangibalan",
    "latitude": 37.45047,
    "longitude": 66.47037,
    "category": "Mountain",
    "subcategory": "Mountain",
    "featured": false,
    "priority": 50
  },
  {
    "geonameId": 1218482,
    "name": "Gora Saar-Dzhagry",
    "latitude": 36.74812,
    "longitude": 63.86834,
    "category": "Mountain",
    "subcategory": "Mountain",
    "featured": false,
    "priority": 50
  },
  {
    "geonameId": 1218462,
    "name": "Gora Salya-Khana",
    "latitude": 37.93333,
    "longitude": 65.81667,
    "category": "Mountain",
    "subcategory": "Mountain",
    "featured": false,
    "priority": 50
  },
  {
    "geonameId": 1475428,
    "name": "Gora Sardoba",
    "latitude": 37.81869,
    "longitude": 65.90085,
    "category": "Mountain",
    "subcategory": "Mountain",
    "featured": false,
    "priority": 50
  },
  {
    "geonameId": 1476227,
    "name": "Gora Saygach’ya",
    "latitude": 35.33109,
    "longitude": 62.30454,
    "category": "Mountain",
    "subcategory": "Mountain",
    "featured": false,
    "priority": 50
  },
  {
    "geonameId": 410357,
    "name": "Gora Semansur",
    "latitude": 37.82222,
    "longitude": 58.0125,
    "category": "Mountain",
    "subcategory": "Mountain",
    "featured": false,
    "priority": 50
  },
  {
    "geonameId": 1476230,
    "name": "Gora Serakhskaya",
    "latitude": 35.28693,
    "longitude": 62.28773,
    "category": "Mountain",
    "subcategory": "Mountain",
    "featured": false,
    "priority": 50
  },
  {
    "geonameId": 9280134,
    "name": "Gora Serbakli",
    "latitude": 38.34337,
    "longitude": 56.05952,
    "category": "Mountain",
    "subcategory": "Mountain",
    "featured": false,
    "priority": 50
  },
  {
    "geonameId": 8711096,
    "name": "Gora Serkharman",
    "latitude": 38.54451,
    "longitude": 56.87199,
    "category": "Mountain",
    "subcategory": "Mountain",
    "featured": false,
    "priority": 50
  },
  {
    "geonameId": 8992438,
    "name": "Gora Seyradzha",
    "latitude": 38.31405,
    "longitude": 55.14088,
    "category": "Mountain",
    "subcategory": "Mountain",
    "featured": false,
    "priority": 50
  },
  {
    "geonameId": 9008076,
    "name": "Gora Shakhodzhar",
    "latitude": 38.09869,
    "longitude": 57.6961,
    "category": "Mountain",
    "subcategory": "Mountain",
    "featured": false,
    "priority": 50
  },
  {
    "geonameId": 7043027,
    "name": "Gora Shapka",
    "latitude": 35.5668,
    "longitude": 62.04868,
    "category": "Mountain",
    "subcategory": "Mountain",
    "featured": false,
    "priority": 50
  },
  {
    "geonameId": 9291553,
    "name": "Gora Shukur",
    "latitude": 38.68822,
    "longitude": 56.05813,
    "category": "Mountain",
    "subcategory": "Mountain",
    "featured": false,
    "priority": 50
  },
  {
    "geonameId": 8994653,
    "name": "Gora Sindzhou",
    "latitude": 38.65712,
    "longitude": 55.92907,
    "category": "Mountain",
    "subcategory": "Mountain",
    "featured": false,
    "priority": 50
  },
  {
    "geonameId": 161520,
    "name": "Gora Sirim",
    "latitude": 38.43538,
    "longitude": 55.65358,
    "category": "Mountain",
    "subcategory": "Mountain",
    "featured": false,
    "priority": 50
  },
  {
    "geonameId": 410231,
    "name": "Gora Sousta-Kamali",
    "latitude": 37.92472,
    "longitude": 57.50889,
    "category": "Mountain",
    "subcategory": "Mountain",
    "featured": false,
    "priority": 50
  },
  {
    "geonameId": 1218431,
    "name": "Gora Sovuktyummek",
    "latitude": 35.83149,
    "longitude": 62.35762,
    "category": "Mountain",
    "subcategory": "Mountain",
    "featured": false,
    "priority": 50
  },
  {
    "geonameId": 410466,
    "name": "Gora Stolovaya",
    "latitude": 37.85573,
    "longitude": 58.23342,
    "category": "Mountain",
    "subcategory": "Mountain",
    "featured": false,
    "priority": 50
  },
  {
    "geonameId": 1476229,
    "name": "Gora Storozhevaya",
    "latitude": 35.30039,
    "longitude": 62.3337,
    "category": "Mountain",
    "subcategory": "Mountain",
    "featured": false,
    "priority": 50
  },
  {
    "geonameId": 410600,
    "name": "Gora Surumuzdur",
    "latitude": 37.69582,
    "longitude": 58.43887,
    "category": "Mountain",
    "subcategory": "Mountain",
    "featured": false,
    "priority": 50
  },
  {
    "geonameId": 1218323,
    "name": "Gora Syrt-Takhta",
    "latitude": 35.75,
    "longitude": 62.7,
    "category": "Mountain",
    "subcategory": "Mountain",
    "featured": false,
    "priority": 50
  },
  {
    "geonameId": 161501,
    "name": "Gora Syunt",
    "latitude": 38.51667,
    "longitude": 56.4,
    "category": "Mountain",
    "subcategory": "Mountain",
    "featured": false,
    "priority": 50
  },
  {
    "geonameId": 1475126,
    "name": "Gora Tabaktash",
    "latitude": 37.41167,
    "longitude": 66.52361,
    "category": "Mountain",
    "subcategory": "Mountain",
    "featured": false,
    "priority": 50
  },
  {
    "geonameId": 410459,
    "name": "Gora Tagalmy",
    "latitude": 37.90585,
    "longitude": 58.14335,
    "category": "Mountain",
    "subcategory": "Mountain",
    "featured": false,
    "priority": 50
  },
  {
    "geonameId": 1218319,
    "name": "Gora Tagan-Tyumek",
    "latitude": 35.97575,
    "longitude": 62.45993,
    "category": "Mountain",
    "subcategory": "Mountain",
    "featured": false,
    "priority": 50
  },
  {
    "geonameId": 1218317,
    "name": "Gora Tagara",
    "latitude": 37.74893,
    "longitude": 66.06526,
    "category": "Mountain",
    "subcategory": "Mountain",
    "featured": false,
    "priority": 50
  },
  {
    "geonameId": 161488,
    "name": "Gora Taza-Taplan",
    "latitude": 38.31667,
    "longitude": 57.01667,
    "category": "Mountain",
    "subcategory": "Mountain",
    "featured": false,
    "priority": 50
  },
  {
    "geonameId": 1218242,
    "name": "Gora Tegelek-Kyr",
    "latitude": 36.60833,
    "longitude": 62.85306,
    "category": "Mountain",
    "subcategory": "Mountain",
    "featured": false,
    "priority": 50
  },
  {
    "geonameId": 8701843,
    "name": "Gora Temeklidag",
    "latitude": 38.34007,
    "longitude": 56.61886,
    "category": "Mountain",
    "subcategory": "Mountain",
    "featured": false,
    "priority": 50
  },
  {
    "geonameId": 161483,
    "name": "Gora Temenchi-Dag",
    "latitude": 38.38276,
    "longitude": 56.82649,
    "category": "Mountain",
    "subcategory": "Mountain",
    "featured": false,
    "priority": 50
  },
  {
    "geonameId": 410288,
    "name": "Gora Tepe-Kerelanym-Bashi",
    "latitude": 37.8975,
    "longitude": 57.75222,
    "category": "Mountain",
    "subcategory": "Mountain",
    "featured": false,
    "priority": 50
  },
  {
    "geonameId": 601454,
    "name": "Gora Toguz-Tepe",
    "latitude": 40.78333,
    "longitude": 54.75,
    "category": "Mountain",
    "subcategory": "Mountain",
    "featured": false,
    "priority": 50
  },
  {
    "geonameId": 7027021,
    "name": "Gora Toydushty",
    "latitude": 36.03529,
    "longitude": 63.77693,
    "category": "Mountain",
    "subcategory": "Mountain",
    "featured": false,
    "priority": 50
  },
  {
    "geonameId": 1475468,
    "name": "Gora Tulibay",
    "latitude": 37.93019,
    "longitude": 65.98601,
    "category": "Mountain",
    "subcategory": "Mountain",
    "featured": false,
    "priority": 50
  },
  {
    "geonameId": 7043935,
    "name": "Gora Turkmenskaya",
    "latitude": 35.23223,
    "longitude": 62.33813,
    "category": "Mountain",
    "subcategory": "Mountain",
    "featured": false,
    "priority": 50
  },
  {
    "geonameId": 161454,
    "name": "Gora Tyrnov",
    "latitude": 38.4,
    "longitude": 57.13333,
    "category": "Mountain",
    "subcategory": "Mountain",
    "featured": false,
    "priority": 50
  },
  {
    "geonameId": 1475120,
    "name": "Gora Tyuyamuyun",
    "latitude": 37.48028,
    "longitude": 66.385,
    "category": "Mountain",
    "subcategory": "Mountain",
    "featured": false,
    "priority": 50
  },
  {
    "geonameId": 1218173,
    "name": "Gora Uch-Kizyl",
    "latitude": 37.76667,
    "longitude": 65.76667,
    "category": "Mountain",
    "subcategory": "Mountain",
    "featured": false,
    "priority": 50
  },
  {
    "geonameId": 9008505,
    "name": "Gora Uchdepe",
    "latitude": 38.04797,
    "longitude": 57.67077,
    "category": "Mountain",
    "subcategory": "Mountain",
    "featured": false,
    "priority": 50
  },
  {
    "geonameId": 8708340,
    "name": "Gora Uchkui",
    "latitude": 38.48591,
    "longitude": 56.9814,
    "category": "Mountain",
    "subcategory": "Mountain",
    "featured": false,
    "priority": 50
  },
  {
    "geonameId": 1218168,
    "name": "Gora Uchotdzhakh",
    "latitude": 35.79464,
    "longitude": 62.78791,
    "category": "Mountain",
    "subcategory": "Mountain",
    "featured": false,
    "priority": 50
  },
  {
    "geonameId": 161443,
    "name": "Gora Ufrak",
    "latitude": 40,
    "longitude": 53.03333,
    "category": "Mountain",
    "subcategory": "Mountain",
    "featured": false,
    "priority": 50
  },
  {
    "geonameId": 8994640,
    "name": "Gora Uylya",
    "latitude": 38.63092,
    "longitude": 55.77089,
    "category": "Mountain",
    "subcategory": "Mountain",
    "featured": false,
    "priority": 50
  },
  {
    "geonameId": 161425,
    "name": "Gora Uzynkhar",
    "latitude": 38.31784,
    "longitude": 56.08735,
    "category": "Mountain",
    "subcategory": "Mountain",
    "featured": false,
    "priority": 50
  },
  {
    "geonameId": 410444,
    "name": "Gora Verdynyn-Bashi",
    "latitude": 37.71556,
    "longitude": 58.23028,
    "category": "Mountain",
    "subcategory": "Mountain",
    "featured": false,
    "priority": 50
  },
  {
    "geonameId": 1218106,
    "name": "Gora Yakbil’",
    "latitude": 36.64965,
    "longitude": 63.44942,
    "category": "Mountain",
    "subcategory": "Mountain",
    "featured": false,
    "priority": 50
  },
  {
    "geonameId": 1218105,
    "name": "Gora Yakhshi-Bay",
    "latitude": 36.18833,
    "longitude": 61.55979,
    "category": "Mountain",
    "subcategory": "Mountain",
    "featured": false,
    "priority": 50
  },
  {
    "geonameId": 8991379,
    "name": "Gora Yalangach",
    "latitude": 38.30212,
    "longitude": 55.09572,
    "category": "Mountain",
    "subcategory": "Mountain",
    "featured": false,
    "priority": 50
  },
  {
    "geonameId": 7027211,
    "name": "Gora Yarganchakly",
    "latitude": 36.19211,
    "longitude": 64.02844,
    "category": "Mountain",
    "subcategory": "Mountain",
    "featured": false,
    "priority": 50
  },
  {
    "geonameId": 161390,
    "name": "Gora Yekalych",
    "latitude": 38.33333,
    "longitude": 56.81667,
    "category": "Mountain",
    "subcategory": "Mountain",
    "featured": false,
    "priority": 50
  },
  {
    "geonameId": 8698845,
    "name": "Gora Yekarcha",
    "latitude": 38.27277,
    "longitude": 56.28731,
    "category": "Mountain",
    "subcategory": "Mountain",
    "featured": false,
    "priority": 50
  },
  {
    "geonameId": 161388,
    "name": "Gora Yellikaya",
    "latitude": 38.27512,
    "longitude": 57.11154,
    "category": "Mountain",
    "subcategory": "Mountain",
    "featured": false,
    "priority": 50
  },
  {
    "geonameId": 161379,
    "name": "Gora Yulgely-Vashi",
    "latitude": 38.33877,
    "longitude": 56.6946,
    "category": "Mountain",
    "subcategory": "Mountain",
    "featured": false,
    "priority": 50
  },
  {
    "geonameId": 1218015,
    "name": "Gora Yurak-Tyube",
    "latitude": 37.67178,
    "longitude": 66.02168,
    "category": "Mountain",
    "subcategory": "Mountain",
    "featured": false,
    "priority": 50
  },
  {
    "geonameId": 410280,
    "name": "Gora Yurek-Dag",
    "latitude": 37.90278,
    "longitude": 57.75,
    "category": "Mountain",
    "subcategory": "Mountain",
    "featured": false,
    "priority": 50
  },
  {
    "geonameId": 1476208,
    "name": "Gora Yushankli",
    "latitude": 35.4415,
    "longitude": 62.23965,
    "category": "Mountain",
    "subcategory": "Mountain",
    "featured": false,
    "priority": 50
  },
  {
    "geonameId": 410609,
    "name": "Gora Yuz-Palang",
    "latitude": 37.63694,
    "longitude": 58.42056,
    "category": "Mountain",
    "subcategory": "Mountain",
    "featured": false,
    "priority": 50
  },
  {
    "geonameId": 8770984,
    "name": "Gora Zaucha",
    "latitude": 37.54572,
    "longitude": 59.242,
    "category": "Mountain",
    "subcategory": "Mountain",
    "featured": false,
    "priority": 50
  },
  {
    "geonameId": 1514737,
    "name": "Gora Zhel’di",
    "latitude": 40.86787,
    "longitude": 61.81348,
    "category": "Mountain",
    "subcategory": "Mountain",
    "featured": false,
    "priority": 50
  },
  {
    "geonameId": 7044502,
    "name": "Gora Ziaret",
    "latitude": 35.29042,
    "longitude": 62.31196,
    "category": "Mountain",
    "subcategory": "Mountain",
    "featured": false,
    "priority": 50
  },
  {
    "geonameId": 7041158,
    "name": "Gora Ziyerati Chnagurak",
    "latitude": 35.2372,
    "longitude": 62.60961,
    "category": "Mountain",
    "subcategory": "Mountain",
    "featured": false,
    "priority": 50
  },
  {
    "geonameId": 601475,
    "name": "Görogly",
    "latitude": 41.65041,
    "longitude": 59.9164,
    "category": "City",
    "subcategory": "City",
    "featured": false,
    "priority": 50
  },
  {
    "geonameId": 9291796,
    "name": "Gorzaýlylar Dag",
    "latitude": 38.90327,
    "longitude": 56.20784,
    "category": "Mountain",
    "subcategory": "Mountain",
    "featured": false,
    "priority": 50
  },
  {
    "geonameId": 601460,
    "name": "Gubadag",
    "latitude": 42.07948,
    "longitude": 59.94964,
    "category": "City",
    "subcategory": "City",
    "featured": false,
    "priority": 50
  },
  {
    "geonameId": 161943,
    "name": "Gumdag",
    "latitude": 39.20611,
    "longitude": 54.59056,
    "category": "City",
    "subcategory": "City",
    "featured": false,
    "priority": 50
  },
  {
    "geonameId": 161703,
    "name": "Gurtly Suwhowdany",
    "latitude": 38.03332,
    "longitude": 58.37399,
    "category": "Lake",
    "subcategory": "Reservoir",
    "featured": false,
    "priority": 50
  },
  {
    "geonameId": 161931,
    "name": "Gyzylarbat",
    "latitude": 38.97644,
    "longitude": 56.27575,
    "category": "City",
    "subcategory": "City",
    "featured": false,
    "priority": 50
  },
  {
    "geonameId": 9291954,
    "name": "Haf Dag",
    "latitude": 38.79282,
    "longitude": 56.09443,
    "category": "Mountain",
    "subcategory": "Mountain",
    "featured": false,
    "priority": 50
  },
  {
    "geonameId": 1218987,
    "name": "Halaç",
    "latitude": 38.07201,
    "longitude": 64.87938,
    "category": "City",
    "subcategory": "City",
    "featured": false,
    "priority": 50
  },
  {
    "geonameId": 7874069,
    "name": "Hanhowuz Reservoir",
    "latitude": 37.21994,
    "longitude": 61.32019,
    "category": "Lake",
    "subcategory": "Reservoir",
    "featured": false,
    "priority": 50
  },
  {
    "geonameId": 161798,
    "name": "Hasardag",
    "latitude": 38.53113,
    "longitude": 56.41772,
    "category": "Mountain",
    "subcategory": "Mountain",
    "featured": false,
    "priority": 50
  },
  {
    "geonameId": 410608,
    "name": "Hawdan Gechelgesi",
    "latitude": 37.655,
    "longitude": 58.40996,
    "category": "Mountain",
    "subcategory": "Mountain Pass",
    "featured": false,
    "priority": 50
  },
  {
    "geonameId": 161975,
    "name": "Hawdan Gechidi",
    "latitude": 37.63056,
    "longitude": 58.40861,
    "category": "Mountain",
    "subcategory": "Mountain Pass",
    "featured": false,
    "priority": 50
  },
  {
    "geonameId": 162079,
    "name": "Hazar",
    "latitude": 39.40632,
    "longitude": 53.12832,
    "category": "City",
    "subcategory": "City",
    "featured": false,
    "priority": 50
  },
  {
    "geonameId": 1218928,
    "name": "Hojambaz",
    "latitude": 38.11635,
    "longitude": 65.00347,
    "category": "City",
    "subcategory": "City",
    "featured": false,
    "priority": 50
  },
  {
    "geonameId": 1219217,
    "name": "Iolotanskoye Vodokhranilishche",
    "latitude": 37.3,
    "longitude": 62.38333,
    "category": "Lake",
    "subcategory": "Reservoir",
    "featured": false,
    "priority": 50
  },
  {
    "geonameId": 1476209,
    "name": "Islim Dag",
    "latitude": 35.44389,
    "longitude": 62.14639,
    "category": "Mountain",
    "subcategory": "Mountain",
    "featured": false,
    "priority": 50
  },
  {
    "geonameId": 161997,
    "name": "Jebel",
    "latitude": 39.63415,
    "longitude": 54.23053,
    "category": "City",
    "subcategory": "City",
    "featured": false,
    "priority": 50
  },
  {
    "geonameId": 161901,
    "name": "Kaka",
    "latitude": 37.34821,
    "longitude": 59.61431,
    "category": "City",
    "subcategory": "City",
    "featured": false,
    "priority": 50
  },
  {
    "geonameId": 1219148,
    "name": "Karabekaul",
    "latitude": 38.48457,
    "longitude": 64.15149,
    "category": "City",
    "subcategory": "City",
    "featured": false,
    "priority": 50
  },
  {
    "geonameId": 1219002,
    "name": "Kerki",
    "latitude": 37.83573,
    "longitude": 65.21058,
    "category": "City",
    "subcategory": "City",
    "featured": false,
    "priority": 50
  },
  {
    "geonameId": 410678,
    "name": "Keymir Suwhowdany",
    "latitude": 37.84167,
    "longitude": 53.8175,
    "category": "Lake",
    "subcategory": "Reservoir",
    "featured": false,
    "priority": 50
  },
  {
    "geonameId": 1218957,
    "name": "Khauz-Khanskoye Vodokhranilishche",
    "latitude": 37.38333,
    "longitude": 61.55,
    "category": "Lake",
    "subcategory": "Reservoir",
    "featured": false,
    "priority": 50
  },
  {
    "geonameId": 1218901,
    "name": "Khrebet Kiamat-Ishram",
    "latitude": 37.975,
    "longitude": 66.17129,
    "category": "Mountain",
    "subcategory": "Mountain",
    "featured": false,
    "priority": 50
  },
  {
    "geonameId": 601608,
    "name": "Köneürgenç",
    "latitude": 42.32773,
    "longitude": 59.15442,
    "category": "City",
    "subcategory": "City",
    "featured": false,
    "priority": 50
  },
  {
    "geonameId": 8599353,
    "name": "Köpetdag Döwlet Goraghanasynýň",
    "latitude": 36.7617,
    "longitude": 60.29944,
    "category": "Park",
    "subcategory": "Nature Reserve",
    "featured": false,
    "priority": 50
  },
  {
    "geonameId": 161743,
    "name": "Köpetdag Suw Howdany",
    "latitude": 38.25116,
    "longitude": 57.86865,
    "category": "Lake",
    "subcategory": "Reservoir",
    "featured": false,
    "priority": 50
  },
  {
    "geonameId": 1135629,
    "name": "Koshachënga",
    "latitude": 35.45,
    "longitude": 61.95,
    "category": "Mountain",
    "subcategory": "Mountain",
    "featured": false,
    "priority": 50
  },
  {
    "geonameId": 1218842,
    "name": "Koshachënge",
    "latitude": 35.45933,
    "longitude": 61.97391,
    "category": "Mountain",
    "subcategory": "Mountain",
    "featured": false,
    "priority": 50
  },
  {
    "geonameId": 1219647,
    "name": "Köýtendag",
    "latitude": 37.51557,
    "longitude": 66.01348,
    "category": "City",
    "subcategory": "City",
    "featured": false,
    "priority": 50
  },
  {
    "geonameId": 161725,
    "name": "Krasnovodsk Döwlet Gorugy",
    "latitude": 39.69556,
    "longitude": 53.70167,
    "category": "Park",
    "subcategory": "Nature Reserve",
    "featured": false,
    "priority": 50
  },
  {
    "geonameId": 410575,
    "name": "Kruglaya Sopka",
    "latitude": 37.68972,
    "longitude": 58.30611,
    "category": "Mountain",
    "subcategory": "Mountain",
    "featured": false,
    "priority": 50
  },
  {
    "geonameId": 7381559,
    "name": "Kūh-e Khvājeh Gerefteh",
    "latitude": 37.93344,
    "longitude": 57.605,
    "category": "Mountain",
    "subcategory": "Mountain",
    "featured": false,
    "priority": 50
  },
  {
    "geonameId": 601767,
    "name": "Lake Aýböwür",
    "latitude": 42.63156,
    "longitude": 58.1975,
    "category": "Lake",
    "subcategory": "Lake",
    "featured": false,
    "priority": 50
  },
  {
    "geonameId": 9533000,
    "name": "Madaw Suw Howdany",
    "latitude": 38.11106,
    "longitude": 54.7138,
    "category": "Lake",
    "subcategory": "Reservoir",
    "featured": false,
    "priority": 50
  },
  {
    "geonameId": 1219392,
    "name": "Magdanly",
    "latitude": 37.81244,
    "longitude": 66.04656,
    "category": "City",
    "subcategory": "City",
    "featured": false,
    "priority": 50
  },
  {
    "geonameId": 161980,
    "name": "Magtymguly",
    "latitude": 38.43749,
    "longitude": 56.28081,
    "category": "City",
    "subcategory": "County Seat",
    "featured": false,
    "priority": 50
  },
  {
    "geonameId": 161657,
    "name": "Māmmetköl Suw Howdany",
    "latitude": 37.53941,
    "longitude": 54.77866,
    "category": "Lake",
    "subcategory": "Reservoir",
    "featured": false,
    "priority": 50
  },
  {
    "geonameId": 1218667,
    "name": "Mary",
    "latitude": 37.59378,
    "longitude": 61.83031,
    "category": "City",
    "subcategory": "Regional Capital",
    "featured": false,
    "priority": 50
  },
  {
    "geonameId": 1476240,
    "name": "Mayachnal Gora",
    "latitude": 35.25278,
    "longitude": 62.34667,
    "category": "Mountain",
    "subcategory": "Mountain",
    "featured": false,
    "priority": 50
  },
  {
    "geonameId": 8599491,
    "name": "Meana Zal",
    "latitude": 36.89658,
    "longitude": 60.34417,
    "category": "Mountain",
    "subcategory": "Mountain",
    "featured": false,
    "priority": 50
  },
  {
    "geonameId": 1218612,
    "name": "Murgap",
    "latitude": 37.49656,
    "longitude": 61.97142,
    "category": "City",
    "subcategory": "City",
    "featured": false,
    "priority": 50
  },
  {
    "geonameId": 1218583,
    "name": "Nizhne-Gindukushskoye Vodokhranilishche",
    "latitude": 37.41316,
    "longitude": 62.2918,
    "category": "Lake",
    "subcategory": "Reservoir",
    "featured": false,
    "priority": 50
  },
  {
    "geonameId": 1514745,
    "name": "Nyyazow",
    "latitude": 41.83926,
    "longitude": 60.13172,
    "category": "City",
    "subcategory": "City",
    "featured": false,
    "priority": 50
  },
  {
    "geonameId": 161598,
    "name": "Ogurja Ada",
    "latitude": 38.96027,
    "longitude": 53.04812,
    "category": "Island",
    "subcategory": "Island",
    "featured": false,
    "priority": 50
  },
  {
    "geonameId": 1465090,
    "name": "Oguzhan",
    "latitude": 37.31924,
    "longitude": 61.08586,
    "category": "City",
    "subcategory": "City",
    "featured": false,
    "priority": 50
  },
  {
    "geonameId": 162219,
    "name": "Ostrov Ak-Sayra",
    "latitude": 39,
    "longitude": 53.98333,
    "category": "Island",
    "subcategory": "Island",
    "featured": false,
    "priority": 50
  },
  {
    "geonameId": 162179,
    "name": "Ostrov Ata-Ada",
    "latitude": 39.1,
    "longitude": 53.7,
    "category": "Island",
    "subcategory": "Island",
    "featured": false,
    "priority": 50
  },
  {
    "geonameId": 162172,
    "name": "Ostrov Aulak",
    "latitude": 39.43333,
    "longitude": 53.5,
    "category": "Island",
    "subcategory": "Island",
    "featured": false,
    "priority": 50
  },
  {
    "geonameId": 1219780,
    "name": "Ostrov Bash-Dzhangel’",
    "latitude": 38.35815,
    "longitude": 64.38947,
    "category": "Island",
    "subcategory": "Island",
    "featured": false,
    "priority": 50
  },
  {
    "geonameId": 162105,
    "name": "Ostrov Bugulyar",
    "latitude": 39.5785,
    "longitude": 53.51578,
    "category": "Island",
    "subcategory": "Island",
    "featured": false,
    "priority": 50
  },
  {
    "geonameId": 1219665,
    "name": "Ostrov Chakur-Dzhangel’",
    "latitude": 38.35,
    "longitude": 64.35,
    "category": "Island",
    "subcategory": "Island",
    "featured": false,
    "priority": 50
  },
  {
    "geonameId": 162088,
    "name": "Ostrov Chashman",
    "latitude": 38.8,
    "longitude": 53.91667,
    "category": "Island",
    "subcategory": "Island",
    "featured": false,
    "priority": 50
  },
  {
    "geonameId": 162048,
    "name": "Ostrov Dag-Ada",
    "latitude": 39.97686,
    "longitude": 53.47098,
    "category": "Island",
    "subcategory": "Island",
    "featured": false,
    "priority": 50
  },
  {
    "geonameId": 601656,
    "name": "Ostrov Karaada",
    "latitude": 41.51989,
    "longitude": 52.54472,
    "category": "Island",
    "subcategory": "Island",
    "featured": false,
    "priority": 50
  },
  {
    "geonameId": 161884,
    "name": "Ostrov Karadashli",
    "latitude": 38.7,
    "longitude": 53.85,
    "category": "Island",
    "subcategory": "Island",
    "featured": false,
    "priority": 50
  },
  {
    "geonameId": 161751,
    "name": "Ostrov Klych",
    "latitude": 39.63333,
    "longitude": 53.55,
    "category": "Island",
    "subcategory": "Island",
    "featured": false,
    "priority": 50
  },
  {
    "geonameId": 1218836,
    "name": "Ostrov Kosh-Dzhangel’",
    "latitude": 38.51667,
    "longitude": 64.2,
    "category": "Island",
    "subcategory": "Island",
    "featured": false,
    "priority": 50
  },
  {
    "geonameId": 161587,
    "name": "Ostrov Osushnoy",
    "latitude": 39.67875,
    "longitude": 53.13641,
    "category": "Island",
    "subcategory": "Island",
    "featured": false,
    "priority": 50
  },
  {
    "geonameId": 601496,
    "name": "Ostrov Sekstan",
    "latitude": 40.95,
    "longitude": 54.33333,
    "category": "Island",
    "subcategory": "Island",
    "featured": false,
    "priority": 50
  },
  {
    "geonameId": 161534,
    "name": "Ostrov Shinkorenko",
    "latitude": 39.71667,
    "longitude": 53.1,
    "category": "Island",
    "subcategory": "Island",
    "featured": false,
    "priority": 50
  },
  {
    "geonameId": 601469,
    "name": "Ostrov Taraba",
    "latitude": 40.71929,
    "longitude": 54.18066,
    "category": "Island",
    "subcategory": "Island",
    "featured": false,
    "priority": 50
  },
  {
    "geonameId": 161427,
    "name": "Ostrov Uzun-Ada",
    "latitude": 39.58333,
    "longitude": 53.81667,
    "category": "Island",
    "subcategory": "Island",
    "featured": false,
    "priority": 50
  },
  {
    "geonameId": 161415,
    "name": "Ostrov Yagly",
    "latitude": 39.3,
    "longitude": 53.56667,
    "category": "Island",
    "subcategory": "Island",
    "featured": false,
    "priority": 50
  },
  {
    "geonameId": 601534,
    "name": "Oýrat",
    "latitude": 41.9458,
    "longitude": 59.90885,
    "category": "City",
    "subcategory": "City",
    "featured": false,
    "priority": 50
  },
  {
    "geonameId": 1219853,
    "name": "Ozero Ata-Khana",
    "latitude": 39.38333,
    "longitude": 62.15,
    "category": "Lake",
    "subcategory": "Lake",
    "featured": false,
    "priority": 50
  },
  {
    "geonameId": 9534209,
    "name": "Ozero Batkuli",
    "latitude": 38.13205,
    "longitude": 54.09335,
    "category": "Lake",
    "subcategory": "Lake",
    "featured": false,
    "priority": 50
  },
  {
    "geonameId": 162096,
    "name": "Ozero Chakurok",
    "latitude": 39.41647,
    "longitude": 55.94948,
    "category": "Lake",
    "subcategory": "Lake",
    "featured": false,
    "priority": 50
  },
  {
    "geonameId": 1219634,
    "name": "Ozero Chaskashor",
    "latitude": 37.75611,
    "longitude": 64.65963,
    "category": "Lake",
    "subcategory": "Lake",
    "featured": false,
    "priority": 50
  },
  {
    "geonameId": 1219617,
    "name": "Ozero Chegez",
    "latitude": 39.18333,
    "longitude": 63.28333,
    "category": "Lake",
    "subcategory": "Lake",
    "featured": false,
    "priority": 50
  },
  {
    "geonameId": 1514803,
    "name": "Ozero Chingil’",
    "latitude": 41.71667,
    "longitude": 60.05,
    "category": "Lake",
    "subcategory": "Lake",
    "featured": false,
    "priority": 50
  },
  {
    "geonameId": 1219573,
    "name": "Ozero Chukur",
    "latitude": 39.23333,
    "longitude": 63.55,
    "category": "Lake",
    "subcategory": "Lake",
    "featured": false,
    "priority": 50
  },
  {
    "geonameId": 162018,
    "name": "Ozero Donguzadzhi",
    "latitude": 39.43131,
    "longitude": 55.95572,
    "category": "Lake",
    "subcategory": "Lake",
    "featured": false,
    "priority": 50
  },
  {
    "geonameId": 1219498,
    "name": "Ozero Duzkan",
    "latitude": 38.81341,
    "longitude": 63.77064,
    "category": "Lake",
    "subcategory": "Lake",
    "featured": false,
    "priority": 50
  },
  {
    "geonameId": 9533123,
    "name": "Ozero Duzlak",
    "latitude": 38.11928,
    "longitude": 54.84553,
    "category": "Lake",
    "subcategory": "Lake",
    "featured": false,
    "priority": 50
  },
  {
    "geonameId": 601723,
    "name": "Ozero Dyuyesataran",
    "latitude": 41.67146,
    "longitude": 52.6893,
    "category": "Lake",
    "subcategory": "Lake",
    "featured": false,
    "priority": 50
  },
  {
    "geonameId": 162001,
    "name": "Ozero Dzhamala",
    "latitude": 39.9,
    "longitude": 56.08333,
    "category": "Lake",
    "subcategory": "Lake",
    "featured": false,
    "priority": 50
  },
  {
    "geonameId": 1219450,
    "name": "Ozero El’dzhik",
    "latitude": 39.4,
    "longitude": 63.01667,
    "category": "Lake",
    "subcategory": "Lake",
    "featured": false,
    "priority": 50
  },
  {
    "geonameId": 1219167,
    "name": "Ozero Kandak",
    "latitude": 39.28333,
    "longitude": 63.48333,
    "category": "Lake",
    "subcategory": "Lake",
    "featured": false,
    "priority": 50
  },
  {
    "geonameId": 161886,
    "name": "Ozero Kara-Bogaz",
    "latitude": 39.3,
    "longitude": 56.4,
    "category": "Lake",
    "subcategory": "Lake",
    "featured": false,
    "priority": 50
  },
  {
    "geonameId": 1219119,
    "name": "Ozero Karakhodzha",
    "latitude": 39.23333,
    "longitude": 63.1,
    "category": "Lake",
    "subcategory": "Lake",
    "featured": false,
    "priority": 50
  },
  {
    "geonameId": 1219092,
    "name": "Ozero Karangyshor",
    "latitude": 37.71639,
    "longitude": 64.79175,
    "category": "Lake",
    "subcategory": "Lake",
    "featured": false,
    "priority": 50
  },
  {
    "geonameId": 1219063,
    "name": "Ozero Kargalyshor",
    "latitude": 37.72864,
    "longitude": 64.88798,
    "category": "Lake",
    "subcategory": "Lake",
    "featured": false,
    "priority": 50
  },
  {
    "geonameId": 1218887,
    "name": "Ozero Kizyldzha",
    "latitude": 39.26667,
    "longitude": 63.5,
    "category": "Lake",
    "subcategory": "Lake",
    "featured": false,
    "priority": 50
  },
  {
    "geonameId": 161740,
    "name": "Ozero Kosa-Gel’",
    "latitude": 39.3,
    "longitude": 53.61667,
    "category": "Lake",
    "subcategory": "Lake",
    "featured": false,
    "priority": 50
  },
  {
    "geonameId": 1514769,
    "name": "Ozero Kuuli",
    "latitude": 41.5,
    "longitude": 60.68333,
    "category": "Lake",
    "subcategory": "Lake",
    "featured": false,
    "priority": 50
  },
  {
    "geonameId": 601557,
    "name": "Ozero Kyzyl-Tafata",
    "latitude": 41.4094,
    "longitude": 52.77346,
    "category": "Lake",
    "subcategory": "Lake",
    "featured": false,
    "priority": 50
  },
  {
    "geonameId": 161659,
    "name": "Ozero Maloye Deleli",
    "latitude": 38.48333,
    "longitude": 54.43333,
    "category": "Lake",
    "subcategory": "Lake",
    "featured": false,
    "priority": 50
  },
  {
    "geonameId": 161631,
    "name": "Ozero Molla-Kara",
    "latitude": 39.33333,
    "longitude": 54.18333,
    "category": "Lake",
    "subcategory": "Lake",
    "featured": false,
    "priority": 50
  },
  {
    "geonameId": 1218371,
    "name": "Ozero Shor-Gël’",
    "latitude": 35.98328,
    "longitude": 61.28553,
    "category": "Lake",
    "subcategory": "Lake",
    "featured": false,
    "priority": 50
  },
  {
    "geonameId": 1218364,
    "name": "Ozero Shor-Kul’",
    "latitude": 39.15,
    "longitude": 63.06667,
    "category": "Lake",
    "subcategory": "Lake",
    "featured": false,
    "priority": 50
  },
  {
    "geonameId": 410546,
    "name": "Ozero Sportivnoye",
    "latitude": 37.96938,
    "longitude": 58.46066,
    "category": "Lake",
    "subcategory": "Lake",
    "featured": false,
    "priority": 50
  },
  {
    "geonameId": 1514747,
    "name": "Ozero Sultansandzhar",
    "latitude": 41.06806,
    "longitude": 61.5091,
    "category": "Lake",
    "subcategory": "Lake",
    "featured": false,
    "priority": 50
  },
  {
    "geonameId": 1218310,
    "name": "Ozero Tair-Sechan",
    "latitude": 39.36667,
    "longitude": 63.53333,
    "category": "Lake",
    "subcategory": "Lake",
    "featured": false,
    "priority": 50
  },
  {
    "geonameId": 1218207,
    "name": "Ozero Toylyak",
    "latitude": 38.78333,
    "longitude": 64.06667,
    "category": "Lake",
    "subcategory": "Lake",
    "featured": false,
    "priority": 50
  },
  {
    "geonameId": 601450,
    "name": "Ozero Tuman-Kul’",
    "latitude": 41.68333,
    "longitude": 59.55,
    "category": "Lake",
    "subcategory": "Lake",
    "featured": false,
    "priority": 50
  },
  {
    "geonameId": 1218199,
    "name": "Ozero Turangul",
    "latitude": 38.84665,
    "longitude": 64.03877,
    "category": "Lake",
    "subcategory": "Lake",
    "featured": false,
    "priority": 50
  },
  {
    "geonameId": 601449,
    "name": "Ozero Tuynuli",
    "latitude": 41.75,
    "longitude": 58.08333,
    "category": "Lake",
    "subcategory": "Lake",
    "featured": false,
    "priority": 50
  },
  {
    "geonameId": 161397,
    "name": "ozero Yaskha",
    "latitude": 39.69742,
    "longitude": 55.57247,
    "category": "Lake",
    "subcategory": "Lake",
    "featured": false,
    "priority": 50
  },
  {
    "geonameId": 1476235,
    "name": "Pereval Agashly Vostochnyye",
    "latitude": 35.32069,
    "longitude": 62.45038,
    "category": "Mountain",
    "subcategory": "Mountain Pass",
    "featured": false,
    "priority": 50
  },
  {
    "geonameId": 1476236,
    "name": "Pereval Agashly Zapadnyye",
    "latitude": 35.31373,
    "longitude": 62.42871,
    "category": "Mountain",
    "subcategory": "Mountain Pass",
    "featured": false,
    "priority": 50
  },
  {
    "geonameId": 162212,
    "name": "Pereval Ala-Kurt-Gyadyk",
    "latitude": 38.42067,
    "longitude": 55.36154,
    "category": "Mountain",
    "subcategory": "Mountain Pass",
    "featured": false,
    "priority": 50
  },
  {
    "geonameId": 8994586,
    "name": "Pereval Aladag",
    "latitude": 38.52842,
    "longitude": 55.17476,
    "category": "Mountain",
    "subcategory": "Mountain Pass",
    "featured": false,
    "priority": 50
  },
  {
    "geonameId": 410389,
    "name": "Pereval Alam",
    "latitude": 37.78417,
    "longitude": 58.13944,
    "category": "Mountain",
    "subcategory": "Mountain Pass",
    "featured": false,
    "priority": 50
  },
  {
    "geonameId": 162185,
    "name": "Pereval Arvaz",
    "latitude": 38.23333,
    "longitude": 57.15,
    "category": "Mountain",
    "subcategory": "Mountain Pass",
    "featured": false,
    "priority": 50
  },
  {
    "geonameId": 8712683,
    "name": "Pereval Bamisayvan",
    "latitude": 38.64135,
    "longitude": 56.70226,
    "category": "Mountain",
    "subcategory": "Mountain Pass",
    "featured": false,
    "priority": 50
  },
  {
    "geonameId": 162147,
    "name": "Pereval Batyin-Gyadychi",
    "latitude": 38.51872,
    "longitude": 56.49382,
    "category": "Mountain",
    "subcategory": "Mountain Pass",
    "featured": false,
    "priority": 50
  },
  {
    "geonameId": 8734816,
    "name": "Pereval Dagurdzha",
    "latitude": 38.67219,
    "longitude": 56.64898,
    "category": "Mountain",
    "subcategory": "Mountain Pass",
    "featured": false,
    "priority": 50
  },
  {
    "geonameId": 410298,
    "name": "Pereval Dalancha",
    "latitude": 37.87833,
    "longitude": 57.80583,
    "category": "Mountain",
    "subcategory": "Mountain Pass",
    "featured": false,
    "priority": 50
  },
  {
    "geonameId": 11249262,
    "name": "Pereval Dogrudzha",
    "latitude": 37.70457,
    "longitude": 58.77493,
    "category": "Mountain",
    "subcategory": "Mountain Pass",
    "featured": false,
    "priority": 50
  },
  {
    "geonameId": 161995,
    "name": "Pereval Dzhemerdzhen-Atagyadyk",
    "latitude": 38.6177,
    "longitude": 55.53628,
    "category": "Mountain",
    "subcategory": "Mountain Pass",
    "featured": false,
    "priority": 50
  },
  {
    "geonameId": 8709885,
    "name": "Pereval Ëllidere-Gyadikchi",
    "latitude": 38.53116,
    "longitude": 56.39375,
    "category": "Mountain",
    "subcategory": "Mountain Pass",
    "featured": false,
    "priority": 50
  },
  {
    "geonameId": 11249379,
    "name": "Pereval Gasan-Gedyk",
    "latitude": 37.70524,
    "longitude": 58.55847,
    "category": "Mountain",
    "subcategory": "Mountain Pass",
    "featured": false,
    "priority": 50
  },
  {
    "geonameId": 161965,
    "name": "Pereval Geok-Keri-Godik",
    "latitude": 38.75,
    "longitude": 55.51667,
    "category": "Mountain",
    "subcategory": "Mountain Pass",
    "featured": false,
    "priority": 50
  },
  {
    "geonameId": 1476237,
    "name": "Pereval Kazachiy",
    "latitude": 35.29711,
    "longitude": 62.49034,
    "category": "Mountain",
    "subcategory": "Mountain Pass",
    "featured": false,
    "priority": 50
  },
  {
    "geonameId": 8600362,
    "name": "Pereval Khadzhinin",
    "latitude": 36.37347,
    "longitude": 61.31209,
    "category": "Mountain",
    "subcategory": "Mountain Pass",
    "featured": false,
    "priority": 50
  },
  {
    "geonameId": 1218955,
    "name": "Pereval Khazrataksar",
    "latitude": 37.96667,
    "longitude": 66.55,
    "category": "Mountain",
    "subcategory": "Mountain Pass",
    "featured": false,
    "priority": 50
  },
  {
    "geonameId": 8734406,
    "name": "Pereval Kodzhinskiy",
    "latitude": 38.75499,
    "longitude": 56.50959,
    "category": "Mountain",
    "subcategory": "Mountain Pass",
    "featured": false,
    "priority": 50
  },
  {
    "geonameId": 11249263,
    "name": "Pereval Malaya Dogrudzha",
    "latitude": 37.72528,
    "longitude": 58.77493,
    "category": "Mountain",
    "subcategory": "Mountain Pass",
    "featured": false,
    "priority": 50
  },
  {
    "geonameId": 8734407,
    "name": "Pereval Nankhor",
    "latitude": 38.72434,
    "longitude": 56.54864,
    "category": "Mountain",
    "subcategory": "Mountain Pass",
    "featured": false,
    "priority": 50
  },
  {
    "geonameId": 7041046,
    "name": "Pereval Rakova",
    "latitude": 35.29766,
    "longitude": 62.55795,
    "category": "Mountain",
    "subcategory": "Mountain Pass",
    "featured": false,
    "priority": 50
  },
  {
    "geonameId": 9199546,
    "name": "Pereval Sersup",
    "latitude": 38.50706,
    "longitude": 57.05926,
    "category": "Mountain",
    "subcategory": "Mountain Pass",
    "featured": false,
    "priority": 50
  },
  {
    "geonameId": 8992642,
    "name": "Pereval Tuslyangadyk",
    "latitude": 38.3713,
    "longitude": 55.44774,
    "category": "Mountain",
    "subcategory": "Mountain Pass",
    "featured": false,
    "priority": 50
  },
  {
    "geonameId": 7041907,
    "name": "Pereval Vorota",
    "latitude": 35.53264,
    "longitude": 62.53548,
    "category": "Mountain",
    "subcategory": "Mountain Pass",
    "featured": false,
    "priority": 50
  },
  {
    "geonameId": 8994585,
    "name": "Pereval Yanshak",
    "latitude": 38.525,
    "longitude": 55.30852,
    "category": "Mountain",
    "subcategory": "Mountain Pass",
    "featured": false,
    "priority": 50
  },
  {
    "geonameId": 410271,
    "name": "Pereval Yel'-Begi",
    "latitude": 37.92389,
    "longitude": 57.66389,
    "category": "Mountain",
    "subcategory": "Mountain Pass",
    "featured": false,
    "priority": 50
  },
  {
    "geonameId": 8712492,
    "name": "Pereval Yemudoleng",
    "latitude": 38.59336,
    "longitude": 56.86319,
    "category": "Mountain",
    "subcategory": "Mountain Pass",
    "featured": false,
    "priority": 50
  },
  {
    "geonameId": 1218008,
    "name": "Pereval Zagara",
    "latitude": 37.91667,
    "longitude": 66.26667,
    "category": "Mountain",
    "subcategory": "Mountain Pass",
    "featured": false,
    "priority": 50
  },
  {
    "geonameId": 1219962,
    "name": "Peski Akh-Kum",
    "latitude": 37.38333,
    "longitude": 62.66667,
    "category": "Desert",
    "subcategory": "Desert",
    "featured": false,
    "priority": 50
  },
  {
    "geonameId": 162201,
    "name": "Peski Annauzunbeyik",
    "latitude": 37.94539,
    "longitude": 59.83599,
    "category": "Desert",
    "subcategory": "Desert",
    "featured": false,
    "priority": 50
  },
  {
    "geonameId": 1219873,
    "name": "Peski Archa-Agasi-Kum",
    "latitude": 37.83333,
    "longitude": 61.83333,
    "category": "Desert",
    "subcategory": "Desert",
    "featured": false,
    "priority": 50
  },
  {
    "geonameId": 1219858,
    "name": "Peski Ashir-Kum",
    "latitude": 37.61301,
    "longitude": 60.54915,
    "category": "Desert",
    "subcategory": "Desert",
    "featured": false,
    "priority": 50
  },
  {
    "geonameId": 162071,
    "name": "Peski Cherkezli",
    "latitude": 39.52578,
    "longitude": 55.35484,
    "category": "Desert",
    "subcategory": "Desert",
    "featured": false,
    "priority": 50
  },
  {
    "geonameId": 162069,
    "name": "Peski Cherkezli-Kum",
    "latitude": 37.77956,
    "longitude": 59.51013,
    "category": "Desert",
    "subcategory": "Desert",
    "featured": false,
    "priority": 50
  },
  {
    "geonameId": 162064,
    "name": "Peski Chil’mamedkum",
    "latitude": 40.11138,
    "longitude": 54.68461,
    "category": "Desert",
    "subcategory": "Desert",
    "featured": false,
    "priority": 50
  },
  {
    "geonameId": 162042,
    "name": "Peski Dardzha-Kum",
    "latitude": 39.39417,
    "longitude": 53.89833,
    "category": "Desert",
    "subcategory": "Desert",
    "featured": false,
    "priority": 50
  },
  {
    "geonameId": 1219488,
    "name": "Peski Dzharkum",
    "latitude": 37.87322,
    "longitude": 65.45985,
    "category": "Desert",
    "subcategory": "Desert",
    "featured": false,
    "priority": 50
  },
  {
    "geonameId": 161955,
    "name": "Peski Geyrdzhany",
    "latitude": 38.52374,
    "longitude": 54.74718,
    "category": "Desert",
    "subcategory": "Desert",
    "featured": false,
    "priority": 50
  },
  {
    "geonameId": 1219379,
    "name": "Peski Gurydandan",
    "latitude": 37.41159,
    "longitude": 60.17521,
    "category": "Desert",
    "subcategory": "Desert",
    "featured": false,
    "priority": 50
  },
  {
    "geonameId": 1219166,
    "name": "Peski Kand-Gurumdy",
    "latitude": 38.604,
    "longitude": 64.14888,
    "category": "Desert",
    "subcategory": "Desert",
    "featured": false,
    "priority": 50
  },
  {
    "geonameId": 1161945,
    "name": "Peski Kapu-Kum",
    "latitude": 37.83333,
    "longitude": 62.38333,
    "category": "Desert",
    "subcategory": "Desert",
    "featured": false,
    "priority": 50
  },
  {
    "geonameId": 161870,
    "name": "Peski Kara-Ilgyn",
    "latitude": 39.03333,
    "longitude": 54.58333,
    "category": "Desert",
    "subcategory": "Desert",
    "featured": false,
    "priority": 50
  },
  {
    "geonameId": 161731,
    "name": "Peski Kaushut",
    "latitude": 37.95282,
    "longitude": 59.04442,
    "category": "Desert",
    "subcategory": "Desert",
    "featured": false,
    "priority": 50
  },
  {
    "geonameId": 1218942,
    "name": "Peski Khodzha-Ikir",
    "latitude": 38.22161,
    "longitude": 64.84988,
    "category": "Desert",
    "subcategory": "Desert",
    "featured": false,
    "priority": 50
  },
  {
    "geonameId": 442591,
    "name": "Peski Khurmen",
    "latitude": 38.18806,
    "longitude": 54.7775,
    "category": "Desert",
    "subcategory": "Desert",
    "featured": false,
    "priority": 50
  },
  {
    "geonameId": 601593,
    "name": "Peski Kubabei-Kum",
    "latitude": 40.38333,
    "longitude": 53.05,
    "category": "Desert",
    "subcategory": "Desert",
    "featured": false,
    "priority": 50
  },
  {
    "geonameId": 161716,
    "name": "Peski Kum-Attaga",
    "latitude": 39.2,
    "longitude": 57.25,
    "category": "Desert",
    "subcategory": "Desert",
    "featured": false,
    "priority": 50
  },
  {
    "geonameId": 1218753,
    "name": "Peski Kurt-Kum",
    "latitude": 37.97425,
    "longitude": 65.25218,
    "category": "Desert",
    "subcategory": "Desert",
    "featured": false,
    "priority": 50
  },
  {
    "geonameId": 161670,
    "name": "Peski Kyzylkum",
    "latitude": 39.1,
    "longitude": 54.41667,
    "category": "Desert",
    "subcategory": "Desert",
    "featured": false,
    "priority": 50
  },
  {
    "geonameId": 1218564,
    "name": "Peski Odzherlu-Kum",
    "latitude": 37.3,
    "longitude": 62,
    "category": "Desert",
    "subcategory": "Desert",
    "featured": false,
    "priority": 50
  },
  {
    "geonameId": 601535,
    "name": "Peski Oktumkum",
    "latitude": 40.23919,
    "longitude": 52.91471,
    "category": "Desert",
    "subcategory": "Desert",
    "featured": false,
    "priority": 50
  },
  {
    "geonameId": 161591,
    "name": "Peski Orta-Kara-Kum",
    "latitude": 39.13333,
    "longitude": 56.08333,
    "category": "Desert",
    "subcategory": "Desert",
    "featured": false,
    "priority": 50
  },
  {
    "geonameId": 161552,
    "name": "Peski Seyunagsak",
    "latitude": 38.78155,
    "longitude": 54.24364,
    "category": "Desert",
    "subcategory": "Desert",
    "featured": false,
    "priority": 50
  },
  {
    "geonameId": 1218259,
    "name": "Peski Tash-Rabat-Kum",
    "latitude": 37.33333,
    "longitude": 61.66667,
    "category": "Desert",
    "subcategory": "Desert",
    "featured": false,
    "priority": 50
  },
  {
    "geonameId": 601445,
    "name": "Peski Uchtagan",
    "latitude": 40.5,
    "longitude": 56.5,
    "category": "Desert",
    "subcategory": "Desert",
    "featured": false,
    "priority": 50
  },