[
  {
    "geonameId": 713816,
    "name": "Abrikosovka",
    "latitude": 45.10759,
    "longitude": 35.10139,
    "category": "City",
    "subcategory": "District Seat",
    "featured": false,
    "priority": 50
  },
  {
    "geonameId": 713094,
    "name": "Abrikosovo",
    "latitude": 45.69236,
    "longitude": 34.10156,
    "category": "City",
    "subcategory": "District Seat",
    "featured": false,
    "priority": 50
  },
  {
    "geonameId": 713784,
    "name": "Adzhamka",
    "latitude": 48.54229,
    "longitude": 32.53737,
    "category": "City",
    "subcategory": "District Seat",
    "featured": false,
    "priority": 50
  },
  {
    "geonameId": 13118887,
    "name": "Ahronomichne",
    "latitude": 49.18981,
    "longitude": 28.37212,
    "category": "City",
    "subcategory": "District Seat",
    "featured": false,
    "priority": 50
  },
  {
    "geonameId": 10311214,
    "name": "Aianske Vodoskhovyshche",
    "latitude": 44.84498,
    "longitude": 34.28591,
    "category": "Lake",
    "subcategory": "Reservoir",
    "featured": false,
    "priority": 50
  },
  {
    "geonameId": 713745,
    "name": "Akimovka",
    "latitude": 45.51981,
    "longitude": 34.82438,
    "category": "City",
    "subcategory": "District Seat",
    "featured": false,
    "priority": 50
  },
  {
    "geonameId": 713716,
    "name": "Alchevsk",
    "latitude": 48.46906,
    "longitude": 38.79744,
    "category": "City",
    "subcategory": "County Seat",
    "featured": false,
    "priority": 50
  },
  {
    "geonameId": 713686,
    "name": "Aleksandrovka",
    "latitude": 45.57654,
    "longitude": 34.09947,
    "category": "City",
    "subcategory": "District Seat",
    "featured": false,
    "priority": 50
  },
  {
    "geonameId": 713577,
    "name": "Alekseyevka",
    "latitude": 45.58194,
    "longitude": 33.6298,
    "category": "City",
    "subcategory": "District Seat",
    "featured": false,
    "priority": 50
  },
  {
    "geonameId": 8519922,
    "name": "Almazne Ozero",
    "latitude": 50.50785,
    "longitude": 30.65188,
    "category": "Lake",
    "subcategory": "Lake",
    "featured": false,
    "priority": 50
  },
  {
    "geonameId": 713514,
    "name": "Alupka",
    "latitude": 44.41952,
    "longitude": 34.04489,
    "category": "City",
    "subcategory": "City",
    "featured": false,
    "priority": 50
  },
  {
    "geonameId": 713513,
    "name": "Alushta",
    "latitude": 44.67728,
    "longitude": 34.4097,
    "category": "City",
    "subcategory": "County Seat",
    "featured": false,
    "priority": 50
  },
  {
    "geonameId": 713505,
    "name": "Amurskoye",
    "latitude": 45.27822,
    "longitude": 34.12823,
    "category": "City",
    "subcategory": "District Seat",
    "featured": false,
    "priority": 50
  },
  {
    "geonameId": 713504,
    "name": "Amvrosiivka",
    "latitude": 47.79062,
    "longitude": 38.47851,
    "category": "City",
    "subcategory": "District Seat",
    "featured": false,
    "priority": 50
  },
  {
    "geonameId": 713500,
    "name": "Ananyiv",
    "latitude": 47.71975,
    "longitude": 29.95711,
    "category": "City",
    "subcategory": "City",
    "featured": false,
    "priority": 50
  },
  {
    "geonameId": 8564524,
    "name": "Andriiashivka",
    "latitude": 50.57093,
    "longitude": 33.36225,
    "category": "City",
    "subcategory": "District Seat",
    "featured": false,
    "priority": 50
  },
  {
    "geonameId": 713391,
    "name": "Andrivka",
    "latitude": 46.8966,
    "longitude": 36.61317,
    "category": "City",
    "subcategory": "District Seat",
    "featured": false,
    "priority": 50
  },
  {
    "geonameId": 713428,
    "name": "Andriyivka",
    "latitude": 49.53538,
    "longitude": 36.62635,
    "category": "City",
    "subcategory": "City",
    "featured": false,
    "priority": 50
  },
  {
    "geonameId": 713389,
    "name": "Andrushivka",
    "latitude": 50.01922,
    "longitude": 29.01883,
    "category": "City",
    "subcategory": "District Seat",
    "featured": false,
    "priority": 50
  },
  {
    "geonameId": 713386,
    "name": "Andrushky",
    "latitude": 49.88036,
    "longitude": 29.34353,
    "category": "City",
    "subcategory": "District Seat",
    "featured": false,
    "priority": 50
  },
  {
    "geonameId": 713377,
    "name": "Anharskyi Pereval",
    "latitude": 44.75666,
    "longitude": 34.3442,
    "category": "Mountain",
    "subcategory": "Mountain Pass",
    "featured": false,
    "priority": 50
  },
  {
    "geonameId": 713275,
    "name": "Antonivka",
    "latitude": 51.31483,
    "longitude": 26.30156,
    "category": "City",
    "subcategory": "District Seat",
    "featured": false,
    "priority": 50
  },
  {
    "geonameId": 713259,
    "name": "Antratsyt",
    "latitude": 48.11638,
    "longitude": 39.08863,
    "category": "City",
    "subcategory": "District Seat",
    "featured": false,
    "priority": 50
  },
  {
    "geonameId": 713245,
    "name": "Apostolove",
    "latitude": 47.65983,
    "longitude": 33.71952,
    "category": "City",
    "subcategory": "City",
    "featured": false,
    "priority": 50
  },
  {
    "geonameId": 713222,
    "name": "Arbuzynka",
    "latitude": 47.90791,
    "longitude": 31.31701,
    "category": "City",
    "subcategory": "City",
    "featured": false,
    "priority": 50
  },
  {
    "geonameId": 713203,
    "name": "Armyansk",
    "latitude": 46.10919,
    "longitude": 33.69206,
    "category": "City",
    "subcategory": "County Seat",
    "featured": false,
    "priority": 50
  },
  {
    "geonameId": 713202,
    "name": "Aromatnoye",
    "latitude": 45.03678,
    "longitude": 34.39921,
    "category": "City",
    "subcategory": "District Seat",
    "featured": false,
    "priority": 50
  },
  {
    "geonameId": 713163,
    "name": "Artsyz",
    "latitude": 45.98526,
    "longitude": 29.43286,
    "category": "City",
    "subcategory": "City",
    "featured": false,
    "priority": 50
  },
  {
    "geonameId": 9983712,
    "name": "Avanhard",
    "latitude": 46.46871,
    "longitude": 30.61551,
    "category": "City",
    "subcategory": "City",
    "featured": false,
    "priority": 50
  },
  {
    "geonameId": 713122,
    "name": "Avdiyivka",
    "latitude": 48.14019,
    "longitude": 37.75008,
    "category": "City",
    "subcategory": "City",
    "featured": false,
    "priority": 50
  },
  {
    "geonameId": 12238208,
    "name": "Ay-Valenti",
    "latitude": 44.49579,
    "longitude": 34.07593,
    "category": "Mountain",
    "subcategory": "Mountain",
    "featured": false,
    "priority": 50
  },
  {
    "geonameId": 699311,
    "name": "Aydar",
    "latitude": 49.53316,
    "longitude": 39.11845,
    "category": "City",
    "subcategory": "City",
    "featured": false,
    "priority": 50
  },
  {
    "geonameId": 713065,
    "name": "Azovo-Syvaskyi Natsionalnyi Park",
    "latitude": 46.1326,
    "longitude": 34.23453,
    "category": "Park",
    "subcategory": "Park",
    "featured": false,
    "priority": 50
  },
  {
    "geonameId": 713062,
    "name": "Azovske",
    "latitude": 45.58604,
    "longitude": 34.5668,
    "category": "City",
    "subcategory": "District Seat",
    "featured": false,
    "priority": 50
  },
  {
    "geonameId": 713059,
    "name": "Babayi",
    "latitude": 49.89625,
    "longitude": 36.19309,
    "category": "City",
    "subcategory": "City",
    "featured": false,
    "priority": 50
  },
  {
    "geonameId": 713049,
    "name": "Babchyntsi",
    "latitude": 48.41661,
    "longitude": 28.15716,
    "category": "City",
    "subcategory": "District Seat",
    "featured": false,
    "priority": 50
  },
  {
    "geonameId": 713031,
    "name": "Babyn",
    "latitude": 50.60212,
    "longitude": 26.52836,
    "category": "City",
    "subcategory": "District Seat",
    "featured": false,
    "priority": 50
  },
  {
    "geonameId": 690312,
    "name": "Bahacheve",
    "latitude": 49.01198,
    "longitude": 31.04659,
    "category": "City",
    "subcategory": "City",
    "featured": false,
    "priority": 50
  },
  {
    "geonameId": 712992,
    "name": "Baherove",
    "latitude": 45.37417,
    "longitude": 36.29705,
    "category": "City",
    "subcategory": "District Seat",
    "featured": false,
    "priority": 50
  },
  {
    "geonameId": 712728,
    "name": "Baikivtsi",
    "latitude": 49.56079,
    "longitude": 25.67218,
    "category": "City",
    "subcategory": "District Seat",
    "featured": false,
    "priority": 50
  },
  {
    "geonameId": 712969,
    "name": "Bakhchysaray",
    "latitude": 44.75525,
    "longitude": 33.85782,
    "category": "City",
    "subcategory": "County Seat",
    "featured": false,
    "priority": 50
  },
  {
    "geonameId": 712967,
    "name": "Bakhmach",
    "latitude": 51.18144,
    "longitude": 32.83463,
    "category": "City",
    "subcategory": "City",
    "featured": false,
    "priority": 50
  },
  {
    "geonameId": 713174,
    "name": "Bakhmut",
    "latitude": 48.59419,
    "longitude": 37.99886,
    "category": "City",
    "subcategory": "County Seat",
    "featured": false,
    "priority": 50
  },
  {
    "geonameId": 712934,
    "name": "Balabyne",
    "latitude": 47.73686,
    "longitude": 35.21361,
    "category": "City",
    "subcategory": "City",
    "featured": false,
    "priority": 50
  },
  {
    "geonameId": 712930,
    "name": "Balaklava",
    "latitude": 44.51118,
    "longitude": 33.59942,
    "category": "City",
    "subcategory": "District Seat",
    "featured": false,
    "priority": 50
  },
  {
    "geonameId": 712926,
    "name": "Balakliya",
    "latitude": 49.45595,
    "longitude": 36.84433,
    "category": "City",
    "subcategory": "City",
    "featured": false,
    "priority": 50
  },
  {
    "geonameId": 9291421,
    "name": "Balka Hirka",
    "latitude": 47.78789,
    "longitude": 38.54606,
    "category": "Park",
    "subcategory": "Nature Reserve",
    "featured": false,
    "priority": 50
  },
  {
    "geonameId": 10893677,
    "name": "Balka Rozsokhovata",
    "latitude": 48.12779,
    "longitude": 35.24213,
    "category": "Park",
    "subcategory": "Nature Reserve",
    "featured": false,
    "priority": 50
  },
  {
    "geonameId": 712895,
    "name": "Balky",
    "latitude": 47.38596,
    "longitude": 34.93132,
    "category": "City",
    "subcategory": "City",
    "featured": false,
    "priority": 50
  },
  {
    "geonameId": 712886,
    "name": "Balta",
    "latitude": 47.93596,
    "longitude": 29.62225,
    "category": "City",
    "subcategory": "County Seat",
    "featured": false,
    "priority": 50
  },
  {
    "geonameId": 712871,
    "name": "Banyliv",
    "latitude": 48.36554,
    "longitude": 25.35037,
    "category": "City",
    "subcategory": "District Seat",
    "featured": false,
    "priority": 50
  },
  {
    "geonameId": 712861,
    "name": "Bar",
    "latitude": 49.07362,
    "longitude": 27.67404,
    "category": "City",
    "subcategory": "City",
    "featured": false,
    "priority": 50
  },
  {
    "geonameId": 712839,
    "name": "Baranivka",
    "latitude": 50.29691,
    "longitude": 27.6622,
    "category": "City",
    "subcategory": "City",
    "featured": false,
    "priority": 50
  },
  {
    "geonameId": 712846,
    "name": "Baranyntsi",
    "latitude": 48.57561,
    "longitude": 22.32729,
    "category": "City",
    "subcategory": "District Seat",
    "featured": false,
    "priority": 50
  },
  {
    "geonameId": 712822,
    "name": "Barashi",
    "latitude": 50.71566,
    "longitude": 28.026,
    "category": "City",
    "subcategory": "District Seat",
    "featured": false,
    "priority": 50
  },
  {
    "geonameId": 712794,
    "name": "Barvinkove",
    "latitude": 48.9052,
    "longitude": 37.02257,
    "category": "City",
    "subcategory": "District Seat",
    "featured": false,
    "priority": 50
  },
  {
    "geonameId": 712787,
    "name": "Baryshivka",
    "latitude": 50.35925,
    "longitude": 31.32005,
    "category": "City",
    "subcategory": "District Seat",
    "featured": false,
    "priority": 50
  },
  {
    "geonameId": 712775,
    "name": "Bashtanka",
    "latitude": 47.40528,
    "longitude": 32.43444,
    "category": "City",
    "subcategory": "County Seat",
    "featured": false,
    "priority": 50
  },
  {
    "geonameId": 712770,
    "name": "Bashtechky",
    "latitude": 49.24407,
    "longitude": 30.32047,
    "category": "City",
    "subcategory": "District Seat",
    "featured": false,
    "priority": 50
  },
  {
    "geonameId": 712755,
    "name": "Batal’noye",
    "latitude": 45.19402,
    "longitude": 35.61583,
    "category": "City",
    "subcategory": "District Seat",
    "featured": false,
    "priority": 50
  },
  {
    "geonameId": 712745,
    "name": "Baturyn",
    "latitude": 51.34261,
    "longitude": 32.87981,
    "category": "City",
    "subcategory": "District Seat",
    "featured": false,
    "priority": 50
  },
  {
    "geonameId": 712699,
    "name": "Bedevlya",
    "latitude": 48.00503,
    "longitude": 23.66431,
    "category": "City",
    "subcategory": "City",
    "featured": false,
    "priority": 50
  },
  {
    "geonameId": 712682,
    "name": "Bekhtery",
    "latitude": 46.24855,
    "longitude": 32.2904,
    "category": "City",
    "subcategory": "District Seat",
    "featured": false,
    "priority": 50
  },
  {
    "geonameId": 712618,
    "name": "Belinskoye",
    "latitude": 45.37465,
    "longitude": 36.08212,
    "category": "City",
    "subcategory": "District Seat",
    "featured": false,
    "priority": 50
  },
  {
    "geonameId": 712471,
    "name": "Belz",
    "latitude": 50.38256,
    "longitude": 24.00789,
    "category": "City",
    "subcategory": "District Seat",
    "featured": false,
    "priority": 50
  },
  {
    "geonameId": 712451,
    "name": "Berdyansk",
    "latitude": 46.75578,
    "longitude": 36.78815,
    "category": "City",
    "subcategory": "County Seat",
    "featured": false,
    "priority": 50
  },
  {
    "geonameId": 712441,
    "name": "Berdychiv",
    "latitude": 49.89421,
    "longitude": 28.58236,
    "category": "City",
    "subcategory": "County Seat",
    "featured": false,
    "priority": 50
  },
  {
    "geonameId": 712430,
    "name": "Berehomet",
    "latitude": 48.17148,
    "longitude": 25.33032,
    "category": "City",
    "subcategory": "City",
    "featured": false,
    "priority": 50
  },
  {
    "geonameId": 712423,
    "name": "Berehove",
    "latitude": 48.20514,
    "longitude": 22.64453,
    "category": "City",
    "subcategory": "County Seat",
    "featured": false,
    "priority": 50
  },
  {
    "geonameId": 712402,
    "name": "Berestove",
    "latitude": 47.1415,
    "longitude": 36.80364,
    "category": "City",
    "subcategory": "District Seat",
    "featured": false,
    "priority": 50
  },
  {
    "geonameId": 704388,
    "name": "Berestyn",
    "latitude": 49.3776,
    "longitude": 35.44485,
    "category": "City",
    "subcategory": "County Seat",
    "featured": false,
    "priority": 50
  },
  {
    "geonameId": 712392,
    "name": "Bereza",
    "latitude": 51.73763,
    "longitude": 33.86822,
    "category": "City",
    "subcategory": "District Seat",
    "featured": false,
    "priority": 50
  },
  {
    "geonameId": 712389,
    "name": "Berezan",
    "latitude": 50.31073,
    "longitude": 31.46768,
    "category": "City",
    "subcategory": "District Seat",
    "featured": false,
    "priority": 50
  },
  {
    "geonameId": 712387,
    "name": "Berezanka",
    "latitude": 46.85159,
    "longitude": 31.38532,
    "category": "City",
    "subcategory": "County Seat",
    "featured": false,
    "priority": 50
  },
  {
    "geonameId": 712382,
    "name": "Berezdiv",
    "latitude": 50.46044,
    "longitude": 27.11705,
    "category": "City",
    "subcategory": "District Seat",
    "featured": false,
    "priority": 50
  },
  {
    "geonameId": 712374,
    "name": "Berezhany",
    "latitude": 49.44578,
    "longitude": 24.93686,
    "category": "City",
    "subcategory": "County Seat",
    "featured": false,
    "priority": 50
  },
  {
    "geonameId": 712286,
    "name": "Berezivka",
    "latitude": 50.3151,
    "longitude": 28.44241,
    "category": "City",
    "subcategory": "District Seat",
    "featured": false,
    "priority": 50
  },
  {
    "geonameId": 712343,
    "name": "Berezna",
    "latitude": 51.57817,
    "longitude": 31.78738,
    "category": "City",
    "subcategory": "District Seat",
    "featured": false,
    "priority": 50
  },
  {
    "geonameId": 712332,
    "name": "Berezne",
    "latitude": 51.00343,
    "longitude": 26.74618,
    "category": "City",
    "subcategory": "District Seat",
    "featured": false,
    "priority": 50
  },
  {
    "geonameId": 712339,
    "name": "Bereznehuvate",
    "latitude": 47.30872,
    "longitude": 32.85098,
    "category": "City",
    "subcategory": "County Seat",
    "featured": false,
    "priority": 50
  },
  {
    "geonameId": 712273,
    "name": "Berezove",
    "latitude": 51.58335,
    "longitude": 27.34722,
    "category": "City",
    "subcategory": "District Seat",
    "featured": false,
    "priority": 50
  },
  {
    "geonameId": 712313,
    "name": "Berezovka",
    "latitude": 45.57471,
    "longitude": 33.34397,
    "category": "City",
    "subcategory": "District Seat",
    "featured": false,
    "priority": 50
  },
  {
    "geonameId": 712250,
    "name": "Bershad",
    "latitude": 48.36354,
    "longitude": 29.51463,
    "category": "City",
    "subcategory": "District Seat",
    "featured": false,
    "priority": 50
  },
  {
    "geonameId": 712260,
    "name": "Beryslav",
    "latitude": 46.83851,
    "longitude": 33.42664,
    "category": "City",
    "subcategory": "County Seat",
    "featured": false,
    "priority": 50
  },
  {
    "geonameId": 691820,
    "name": "Bessarabske",
    "latitude": 46.18757,
    "longitude": 29.14635,
    "category": "City",
    "subcategory": "City",
    "featured": false,
    "priority": 50
  },
  {
    "geonameId": 712207,
    "name": "Bezdryk",
    "latitude": 50.86834,
    "longitude": 34.95123,
    "category": "City",
    "subcategory": "District Seat",
    "featured": false,
    "priority": 50
  },
  {
    "geonameId": 712200,
    "name": "Bezliudivka",
    "latitude": 49.86787,
    "longitude": 36.28347,
    "category": "City",
    "subcategory": "District Seat",
    "featured": false,
    "priority": 50
  },
  {
    "geonameId": 712003,
    "name": "Bibrka",
    "latitude": 49.63921,
    "longitude": 24.29369,
    "category": "City",
    "subcategory": "District Seat",
    "featured": false,
    "priority": 50
  },
  {
    "geonameId": 708884,
    "name": "Bila Krynytsia",
    "latitude": 50.60413,
    "longitude": 26.38958,
    "category": "City",
    "subcategory": "District Seat",
    "featured": false,
    "priority": 50
  },
  {
    "geonameId": 712165,
    "name": "Bila Tserkva",
    "latitude": 49.7994,
    "longitude": 30.1165,
    "category": "City",
    "subcategory": "County Seat",
    "featured": false,
    "priority": 50
  },
  {
    "geonameId": 712161,
    "name": "Bilche-Zolote",
    "latitude": 48.77511,
    "longitude": 25.87668,
    "category": "City",
    "subcategory": "District Seat",
    "featured": false,
    "priority": 50
  },
  {
    "geonameId": 712515,
    "name": "Bile",
    "latitude": 48.49523,
    "longitude": 39.05051,
    "category": "City",
    "subcategory": "City",
    "featured": false,
    "priority": 50
  },
  {
    "geonameId": 712511,
    "name": "Bile Ozero",
    "latitude": 46.4524,
    "longitude": 30.18097,
    "category": "Lake",
    "subcategory": "Lake",
    "featured": false,
    "priority": 50
  },
  {
    "geonameId": 712641,
    "name": "Bilenke",
    "latitude": 48.76589,
    "longitude": 37.63309,
    "category": "City",
    "subcategory": "City",
    "featured": false,
    "priority": 50
  },
  {
    "geonameId": 712160,
    "name": "Bilhorod-Dnistrovskyi",
    "latitude": 46.19484,
    "longitude": 30.34827,
    "category": "City",
    "subcategory": "County Seat",
    "featured": false,
    "priority": 50
  },
  {
    "geonameId": 712484,
    "name": "Biliaivka",
    "latitude": 49.26513,
    "longitude": 36.31168,
    "category": "City",
    "subcategory": "District Seat",
    "featured": false,
    "priority": 50
  },
  {
    "geonameId": 9116780,
    "name": "Biliaivske Ozero",
    "latitude": 48.75497,
    "longitude": 38.83781,
    "category": "Lake",
    "subcategory": "Lake",
    "featured": false,
    "priority": 50
  },
  {
    "geonameId": 712602,
    "name": "Bilky",
    "latitude": 48.31415,
    "longitude": 23.13256,
    "category": "City",
    "subcategory": "District Seat",
    "featured": false,
    "priority": 50
  },
  {
    "geonameId": 703494,
    "name": "Bilmak",
    "latitude": 47.35914,
    "longitude": 36.65331,
    "category": "City",
    "subcategory": "County Seat",
    "featured": false,
    "priority": 50
  },
  {
    "geonameId": 712598,
    "name": "Biloberizka",
    "latitude": 48.14839,
    "longitude": 25.05894,
    "category": "City",
    "subcategory": "District Seat",
    "featured": false,
    "priority": 50
  },
  {
    "geonameId": 712596,
    "name": "Bilobozhnytsia",
    "latitude": 49.04636,
    "longitude": 25.67764,
    "category": "City",
    "subcategory": "District Seat",
    "featured": false,
    "priority": 50
  },
  {
    "geonameId": 712587,
    "name": "Bilohirsk",
    "latitude": 45.05679,
    "longitude": 34.60386,
    "category": "City",
    "subcategory": "County Seat",
    "featured": false,
    "priority": 50
  },
  {
    "geonameId": 6997039,
    "name": "Bilohirske Vodoskhovyshche",
    "latitude": 45.016,
    "longitude": 34.60099,
    "category": "Lake",
    "subcategory": "Reservoir",
    "featured": false,
    "priority": 50
  },
  {
    "geonameId": 712582,
    "name": "Bilohirya",
    "latitude": 49.99894,
    "longitude": 26.41442,
    "category": "City",
    "subcategory": "County Seat",
    "featured": false,
    "priority": 50
  },
  {
    "geonameId": 712590,
    "name": "Bilohorodka",
    "latitude": 50.3898,
    "longitude": 30.22726,
    "category": "City",
    "subcategory": "District Seat",
    "featured": false,
    "priority": 50
  },
  {
    "geonameId": 712573,
    "name": "Bilokorovychi",
    "latitude": 51.10707,
    "longitude": 28.01564,
    "category": "City",
    "subcategory": "District Seat",
    "featured": false,
    "priority": 50
  },
  {
    "geonameId": 712569,
    "name": "Bilokurakyne",
    "latitude": 49.53306,
    "longitude": 38.72836,
    "category": "City",
    "subcategory": "District Seat",
    "featured": false,
    "priority": 50
  },
  {
    "geonameId": 712565,
    "name": "Bilolutsk",
    "latitude": 49.69515,
    "longitude": 39.02365,
    "category": "City",
    "subcategory": "District Seat",
    "featured": false,
    "priority": 50
  },
  {
    "geonameId": 712559,
    "name": "Bilopillia",
    "latitude": 51.14747,
    "longitude": 34.31079,
    "category": "City",
    "subcategory": "District Seat",
    "featured": false,
    "priority": 50
  },
  {
    "geonameId": 712542,
    "name": "Bilotserkivka",
    "latitude": 49.6745,
    "longitude": 33.78702,
    "category": "City",
    "subcategory": "District Seat",
    "featured": false,
    "priority": 50
  },
  {
    "geonameId": 712521,
    "name": "Bilovods'k",
    "latitude": 49.20846,
    "longitude": 39.58975,
    "category": "City",
    "subcategory": "City",
    "featured": false,
    "priority": 50
  },
  {
    "geonameId": 712508,
    "name": "Bilozerka",
    "latitude": 46.62651,
    "longitude": 32.44447,
    "category": "City",
    "subcategory": "County Seat",
    "featured": false,
    "priority": 50
  },
  {
    "geonameId": 712501,
    "name": "Bilozerske",
    "latitude": 48.53366,
    "longitude": 37.06272,
    "category": "City",
    "subcategory": "City",
    "featured": false,
    "priority": 50
  },
  {
    "geonameId": 712500,
    "name": "Bilozirya",
    "latitude": 49.30105,
    "longitude": 31.89355,
    "category": "City",
    "subcategory": "City",
    "featured": false,
    "priority": 50
  },
  {
    "geonameId": 712488,
    "name": "Bilyayivka",
    "latitude": 46.48427,
    "longitude": 30.2089,
    "category": "City",
    "subcategory": "County Seat",
    "featured": false,
    "priority": 50
  },
  {
    "geonameId": 712631,
    "name": "Bilychi",
    "latitude": 50.46544,
    "longitude": 30.34654,
    "category": "City",
    "subcategory": "City",
    "featured": false,
    "priority": 50
  },
  {
    "geonameId": 712613,
    "name": "Bilytske",
    "latitude": 48.40642,
    "longitude": 37.18111,
    "category": "City",
    "subcategory": "City",
    "featured": false,
    "priority": 50
  },
  {
    "geonameId": 698652,
    "name": "Biyuk-Onlar",
    "latitude": 45.28866,
    "longitude": 34.13521,
    "category": "City",
    "subcategory": "District Seat",
    "featured": false,
    "priority": 50
  },
  {
    "geonameId": 712090,
    "name": "Blahodatne",
    "latitude": 47.99279,
    "longitude": 31.14015,
    "category": "City",
    "subcategory": "District Seat",
    "featured": false,
    "priority": 50
  },
  {
    "geonameId": 712077,
    "name": "Blahovishchenka",
    "latitude": 47.45597,
    "longitude": 34.82818,
    "category": "City",
    "subcategory": "District Seat",
    "featured": false,
    "priority": 50
  },
  {
    "geonameId": 690713,
    "name": "Blahovishchenske",
    "latitude": 48.32822,
    "longitude": 30.23619,
    "category": "City",
    "subcategory": "County Seat",
    "featured": false,
    "priority": 50
  },
  {
    "geonameId": 712041,
    "name": "Blyzniuky",
    "latitude": 48.85632,
    "longitude": 36.55368,
    "category": "City",
    "subcategory": "District Seat",
    "featured": false,
    "priority": 50
  },
  {
    "geonameId": 712042,
    "name": "Blyznytsya",
    "latitude": 48.22269,
    "longitude": 24.23047,
    "category": "Mountain",
    "subcategory": "Mountain",
    "featured": false,
    "priority": 50
  },
  {
    "geonameId": 711999,
    "name": "Bobrovytsia",
    "latitude": 50.74559,
    "longitude": 31.38205,
    "category": "City",
    "subcategory": "District Seat",
    "featured": false,
    "priority": 50
  },
  {
    "geonameId": 711989,
    "name": "Bobrynets",
    "latitude": 48.05674,
    "longitude": 32.1655,
    "category": "City",
    "subcategory": "County Seat",
    "featured": false,
    "priority": 50
  },
  {
    "geonameId": 712006,
    "name": "Bobrytsia",
    "latitude": 49.80193,
    "longitude": 31.41474,
    "category": "City",
    "subcategory": "District Seat",
    "featured": false,
    "priority": 50
  },
  {
    "geonameId": 711983,
    "name": "Bochechky",
    "latitude": 51.29853,
    "longitude": 33.41407,
    "category": "City",
    "subcategory": "District Seat",
    "featured": false,
    "priority": 50
  },
  {
    "geonameId": 711962,
    "name": "Bogatoye",
    "latitude": 45.02933,
    "longitude": 34.76732,
    "category": "City",
    "subcategory": "District Seat",
    "featured": false,
    "priority": 50
  },
  {
    "geonameId": 711952,
    "name": "Bohdan",
    "latitude": 48.04244,
    "longitude": 24.33978,
    "category": "City",
    "subcategory": "District Seat",
    "featured": false,
    "priority": 50
  },
  {
    "geonameId": 711933,
    "name": "Bohdanivka",
    "latitude": 48.50188,
    "longitude": 36.12173,
    "category": "City",
    "subcategory": "District Seat",
    "featured": false,
    "priority": 50
  },
  {
    "geonameId": 711894,
    "name": "Bohodukhiv",
    "latitude": 50.16147,
    "longitude": 35.52367,
    "category": "City",
    "subcategory": "County Seat",
    "featured": false,
    "priority": 50
  },
  {
    "geonameId": 711887,
    "name": "Bohorodchany",
    "latitude": 48.80812,
    "longitude": 24.53728,
    "category": "City",
    "subcategory": "County Seat",
    "featured": false,
    "priority": 50
  },
  {
    "geonameId": 711874,
    "name": "Bohuniya",
    "latitude": 50.27691,
    "longitude": 28.60962,
    "category": "City",
    "subcategory": "City",
    "featured": false,
    "priority": 50
  },
  {
    "geonameId": 711867,
    "name": "Bohuslav",
    "latitude": 49.54637,
    "longitude": 30.87407,
    "category": "City",
    "subcategory": "City",
    "featured": false,
    "priority": 50
  },
  {
    "geonameId": 711488,
    "name": "Bohynivka",
    "latitude": 48.48872,
    "longitude": 36.35367,
    "category": "City",
    "subcategory": "District Seat",
    "featured": false,
    "priority": 50
  },
  {
    "geonameId": 711518,
    "name": "Boiany",
    "latitude": 48.265,
    "longitude": 26.12577,
    "category": "City",
    "subcategory": "District Seat",
    "featured": false,
    "priority": 50
  },
  {
    "geonameId": 711859,
    "name": "Bokiima",
    "latitude": 50.48427,
    "longitude": 25.46898,
    "category": "City",
    "subcategory": "District Seat",
    "featured": false,
    "priority": 50
  },
  {
    "geonameId": 690524,
    "name": "Bokovo-Khrustalne",
    "latitude": 48.15124,
    "longitude": 38.78043,
    "category": "City",
    "subcategory": "City",
    "featured": false,
    "priority": 50
  },
  {
    "geonameId": 711850,
    "name": "Bolekhiv",
    "latitude": 49.06479,
    "longitude": 23.85953,
    "category": "City",
    "subcategory": "City",
    "featured": false,
    "priority": 50
  },
  {
    "geonameId": 711841,
    "name": "Bolhrad",
    "latitude": 45.67786,
    "longitude": 28.61811,
    "category": "City",
    "subcategory": "County Seat",
    "featured": false,
    "priority": 50
  },
  {
    "geonameId": 711678,
    "name": "Boratyn",
    "latitude": 50.70415,
    "longitude": 25.35522,
    "category": "City",
    "subcategory": "District Seat",
    "featured": false,
    "priority": 50
  },
  {
    "geonameId": 712813,
    "name": "Boremel",
    "latitude": 50.47104,
    "longitude": 25.19307,
    "category": "City",
    "subcategory": "District Seat",
    "featured": false,
    "priority": 50
  },
  {
    "geonameId": 711597,
    "name": "Borivske",
    "latitude": 48.86863,
    "longitude": 38.567,
    "category": "City",
    "subcategory": "City",
    "featured": false,
    "priority": 50
  },
  {
    "geonameId": 711635,
    "name": "Borodianka",
    "latitude": 50.64306,
    "longitude": 29.92329,
    "category": "City",
    "subcategory": "District Seat",
    "featured": false,
    "priority": 50
  },
  {
    "geonameId": 711629,
    "name": "Boromlia",
    "latitude": 50.61962,
    "longitude": 34.96736,
    "category": "City",
    "subcategory": "District Seat",
    "featured": false,
    "priority": 50
  },
  {
    "geonameId": 711621,
    "name": "Borova",
    "latitude": 50.17625,
    "longitude": 30.10429,
    "category": "City",
    "subcategory": "City",
    "featured": false,
    "priority": 50
  },
  {
    "geonameId": 711592,
    "name": "Borozenske",
    "latitude": 47.17707,
    "longitude": 33.42042,
    "category": "City",
    "subcategory": "District Seat",
    "featured": false,
    "priority": 50
  },
  {
    "geonameId": 711587,
    "name": "Borshchiv",
    "latitude": 48.80319,
    "longitude": 26.03171,
    "category": "City",
    "subcategory": "City",
    "featured": false,
    "priority": 50
  },
  {
    "geonameId": 712799,
    "name": "Borsuky",
    "latitude": 49.88628,
    "longitude": 25.98361,
    "category": "City",
    "subcategory": "District Seat",
    "featured": false,
    "priority": 50
  },
  {
    "geonameId": 711562,
    "name": "Bortnychi",
    "latitude": 50.38489,
    "longitude": 30.69542,
    "category": "City",
    "subcategory": "City",
    "featured": false,
    "priority": 50
  },
  {
    "geonameId": 711672,
    "name": "Borynia",
    "latitude": 49.06621,
    "longitude": 23.0146,
    "category": "City",
    "subcategory": "District Seat",
    "featured": false,
    "priority": 50
  },
  {
    "geonameId": 711669,
    "name": "Boryslav",
    "latitude": 49.28998,
    "longitude": 23.42889,
    "category": "City",
    "subcategory": "District Seat",
    "featured": false,
    "priority": 50
  },
  {
    "geonameId": 8720520,
    "name": "Borysove Ozero",
    "latitude": 50.08023,
    "longitude": 34.071,
    "category": "Lake",
    "subcategory": "Lake",
    "featured": false,
    "priority": 50
  },
  {
    "geonameId": 711660,
    "name": "Boryspil",
    "latitude": 50.35051,
    "longitude": 30.95263,
    "category": "City",
    "subcategory": "County Seat",
    "featured": false,
    "priority": 50
  },
  {
    "geonameId": 711536,
    "name": "Borzna",
    "latitude": 51.25343,
    "longitude": 32.4269,
    "category": "City",
    "subcategory": "District Seat",
    "featured": false,
    "priority": 50
  },
  {
    "geonameId": 692556,
    "name": "Botanicheskoye",
    "latitude": 45.78656,
    "longitude": 33.54856,
    "category": "City",
    "subcategory": "District Seat",
    "featured": false,
    "priority": 50
  },
  {
    "geonameId": 711515,
    "name": "Boyarka",
    "latitude": 50.31911,
    "longitude": 30.29728,
    "category": "City",
    "subcategory": "City",
    "featured": false,
    "priority": 50
  },
  {
    "geonameId": 691741,
    "name": "Boykivske",
    "latitude": 47.40994,
    "longitude": 38.02476,
    "category": "City",
    "subcategory": "County Seat",
    "featured": false,
    "priority": 50
  },
  {
    "geonameId": 694272,
    "name": "Bozhedarivka",
    "latitude": 48.35687,
    "longitude": 34.11207,
    "category": "City",
    "subcategory": "District Seat",
    "featured": false,
    "priority": 50
  },
  {
    "geonameId": 711471,
    "name": "Bratkovska Dyuzhe",
    "latitude": 48.3662,
    "longitude": 24.17859,
    "category": "Mountain",
    "subcategory": "Mountain",
    "featured": false,
    "priority": 50
  },
  {
    "geonameId": 711460,
    "name": "Bratske",
    "latitude": 47.86664,
    "longitude": 31.57525,
    "category": "City",
    "subcategory": "City",
    "featured": false,
    "priority": 50
  },
  {
    "geonameId": 7026869,
    "name": "Bratskoye",
    "latitude": 45.8317,
    "longitude": 33.92151,
    "category": "City",
    "subcategory": "District Seat",
    "featured": false,
    "priority": 50
  },
  {
    "geonameId": 12908834,
    "name": "Brebeneskul",
    "latitude": 48.09833,
    "longitude": 24.58056,
    "category": "Mountain",
    "subcategory": "Mountain",
    "featured": false,
    "priority": 50
  },
  {
    "geonameId": 711416,
    "name": "Brody",
    "latitude": 50.08854,
    "longitude": 25.14606,
    "category": "City",
    "subcategory": "District Seat",
    "featured": false,
    "priority": 50
  },
  {
    "geonameId": 711400,
    "name": "Broshniv-Osada",
    "latitude": 48.99759,
    "longitude": 24.19417,
    "category": "City",
    "subcategory": "City",
    "featured": false,
    "priority": 50
  },
  {
    "geonameId": 711390,
    "name": "Brovary",
    "latitude": 50.51097,
    "longitude": 30.79106,
    "category": "City",
    "subcategory": "County Seat",
    "featured": false,
    "priority": 50
  },
  {
    "geonameId": 831266,
    "name": "Brusnytsia",
    "latitude": 48.35601,
    "longitude": 25.61302,
    "category": "City",
    "subcategory": "District Seat",
    "featured": false,
    "priority": 50
  },
  {
    "geonameId": 711382,
    "name": "Brusyliv",
    "latitude": 50.28226,
    "longitude": 29.52008,
    "category": "City",
    "subcategory": "District Seat",
    "featured": false,
    "priority": 50
  },
  {
    "geonameId": 711369,
    "name": "Bryanka",
    "latitude": 48.511,
    "longitude": 38.67222,
    "category": "City",
    "subcategory": "City",
    "featured": false,
    "priority": 50
  },
  {
    "geonameId": 711359,
    "name": "Bryukhovychi",
    "latitude": 49.90467,
    "longitude": 23.95969,
    "category": "City",
    "subcategory": "City",
    "featured": false,
    "priority": 50
  },
  {
    "geonameId": 711350,
    "name": "Bucha",
    "latitude": 50.54741,
    "longitude": 30.20879,
    "category": "City",
    "subcategory": "County Seat",
    "featured": false,
    "priority": 50
  },
  {
    "geonameId": 711348,
    "name": "Buchach",
    "latitude": 49.06234,
    "longitude": 25.39496,
    "category": "City",
    "subcategory": "City",
    "featured": false,
    "priority": 50
  },
  {
    "geonameId": 711268,
    "name": "Budy",
    "latitude": 49.89133,
    "longitude": 36.02096,
    "category": "City",
    "subcategory": "City",
    "featured": false,
    "priority": 50
  },
  {
    "geonameId": 711291,
    "name": "Budyshche",
    "latitude": 49.52459,
    "longitude": 31.80374,
    "category": "City",
    "subcategory": "District Seat",
    "featured": false,
    "priority": 50
  },
  {
    "geonameId": 711231,
    "name": "Buhryn",
    "latitude": 50.54224,
    "longitude": 26.53409,
    "category": "City",
    "subcategory": "District Seat",
    "featured": false,
    "priority": 50
  },
  {
    "geonameId": 688073,
    "name": "Bunhe",
    "latitude": 48.2214,
    "longitude": 38.28365,
    "category": "City",
    "subcategory": "City",
    "featured": false,
    "priority": 50
  },
  {
    "geonameId": 12188467,
    "name": "Burlug",
    "latitude": 48.5989,
    "longitude": 22.49675,
    "category": "Mountain",
    "subcategory": "Mountain",
    "featured": false,
    "priority": 50
  },
  {
    "geonameId": 711134,
    "name": "Burshtyn",
    "latitude": 49.25193,
    "longitude": 24.63339,
    "category": "City",
    "subcategory": "City",
    "featured": false,
    "priority": 50
  },
  {
    "geonameId": 711116,
    "name": "Buryn",
    "latitude": 51.19936,
    "longitude": 33.83338,
    "category": "City",
    "subcategory": "District Seat",
    "featured": false,
    "priority": 50
  },
  {
    "geonameId": 711105,
    "name": "Bushtyno",
    "latitude": 48.0473,
    "longitude": 23.48576,
    "category": "City",
    "subcategory": "City",
    "featured": false,
    "priority": 50
  },
  {
    "geonameId": 711103,
    "name": "Busk",
    "latitude": 49.96548,
    "longitude": 24.61227,
    "category": "City",
    "subcategory": "District Seat",
    "featured": false,
    "priority": 50
  },
  {
    "geonameId": 711059,
    "name": "Buzhora",
    "latitude": 48.70342,
    "longitude": 23.08665,
    "category": "Mountain",
    "subcategory": "Mountain",
    "featured": false,
    "priority": 50
  },
  {
    "geonameId": 711016,
    "name": "Bylbasivka",
    "latitude": 48.83929,
    "longitude": 37.50185,
    "category": "City",
    "subcategory": "City",
    "featured": false,
    "priority": 50
  },
  {
    "geonameId": 711013,
    "name": "Byshiv",
    "latitude": 50.26611,
    "longitude": 29.88337,
    "category": "City",
    "subcategory": "District Seat",
    "featured": false,
    "priority": 50
  },
  {
    "geonameId": 8519952,
    "name": "Chabany",
    "latitude": 50.34128,
    "longitude": 30.42856,
    "category": "City",
    "subcategory": "District Seat",
    "featured": false,
    "priority": 50
  },
  {
    "geonameId": 710958,
    "name": "Chahor",
    "latitude": 48.2433,
    "longitude": 25.99392,
    "category": "City",
    "subcategory": "City",
    "featured": false,
    "priority": 50
  },
  {
    "geonameId": 11253676,
    "name": "Chaikovytskyi Zakaznyk",
    "latitude": 49.57867,
    "longitude": 23.51023,
    "category": "Park",
    "subcategory": "Nature Reserve",
    "featured": false,
    "priority": 50
  },
  {
    "geonameId": 8519820,
    "name": "Chaiky",
    "latitude": 50.43034,
    "longitude": 30.28385,
    "category": "City",
    "subcategory": "City",
    "featured": false,
    "priority": 50
  },
  {
    "geonameId": 710951,
    "name": "Chapayevka",
    "latitude": 45.28119,
    "longitude": 34.89428,
    "category": "City",
    "subcategory": "District Seat",
    "featured": false,
    "priority": 50
  },
  {
    "geonameId": 710935,
    "name": "Chaplynka",
    "latitude": 46.36454,
    "longitude": 33.54087,
    "category": "City",
    "subcategory": "City",
    "featured": false,
    "priority": 50
  },
  {
    "geonameId": 710915,
    "name": "Chasiv Yar",
    "latitude": 48.58768,
    "longitude": 37.83409,
    "category": "City",
    "subcategory": "District Seat",
    "featured": false,
    "priority": 50
  },
  {
    "geonameId": 710904,
    "name": "Chaykino",
    "latitude": 45.81111,
    "longitude": 34.59538,
    "category": "City",
    "subcategory": "District Seat",
    "featured": false,
    "priority": 50
  },
  {
    "geonameId": 710869,
    "name": "Chelyadinovo",
    "latitude": 45.20729,
    "longitude": 36.3762,
    "category": "City",
    "subcategory": "District Seat",
    "featured": false,
    "priority": 50
  },
  {
    "geonameId": 710864,
    "name": "Chemerivtsi",
    "latitude": 49.00914,
    "longitude": 26.34002,
    "category": "City",
    "subcategory": "City",
    "featured": false,
    "priority": 50
  },
  {
    "geonameId": 9983718,
    "name": "Cheremushky",
    "latitude": 46.43251,
    "longitude": 30.71151,
    "category": "City",
    "subcategory": "City",
    "featured": false,
    "priority": 50
  },
  {
    "geonameId": 710820,
    "name": "Cherepkivtsi",
    "latitude": 48.01557,
    "longitude": 25.9643,
    "category": "City",
    "subcategory": "City",
    "featured": false,
    "priority": 50
  },
  {
    "geonameId": 710793,
    "name": "Cherkaske",
    "latitude": 48.83402,
    "longitude": 37.38914,
    "category": "City",
    "subcategory": "District Seat",
    "featured": false,
    "priority": 50
  },
  {
    "geonameId": 710791,
    "name": "Cherkasy",
    "latitude": 49.44452,
    "longitude": 32.05738,
    "category": "City",
    "subcategory": "Regional Capital",
    "featured": false,
    "priority": 50
  },
  {
    "geonameId": 710746,
    "name": "Chernechchyna",
    "latitude": 50.30412,
    "longitude": 34.80884,
    "category": "City",
    "subcategory": "District Seat",
    "featured": false,
    "priority": 50
  },
  {
    "geonameId": 710663,
    "name": "Cherniakhiv",
    "latitude": 50.45412,
    "longitude": 28.66717,
    "category": "City",
    "subcategory": "District Seat",
    "featured": false,
    "priority": 50
  },
  {
    "geonameId": 710735,
    "name": "Chernihiv",
    "latitude": 51.50541,
    "longitude": 31.28656,
    "category": "City",
    "subcategory": "Regional Capital",
    "featured": false,
    "priority": 50
  },
  {
    "geonameId": 710739,
    "name": "Chernihivka",
    "latitude": 47.19451,
    "longitude": 36.21648,
    "category": "City",
    "subcategory": "City",
    "featured": false,
    "priority": 50
  },
  {
    "geonameId": 710719,
    "name": "Chernivtsi",
    "latitude": 48.29045,
    "longitude": 25.93241,
    "category": "City",
    "subcategory": "Regional Capital",
    "featured": false,
    "priority": 50
  },
  {
    "geonameId": 710684,
    "name": "Chernopolye",
    "latitude": 45.04399,
    "longitude": 34.63916,
    "category": "City",
    "subcategory": "District Seat",
    "featured": false,
    "priority": 50
  },
  {
    "geonameId": 7026739,
    "name": "Chernovo",
    "latitude": 45.50833,
    "longitude": 33.93397,
    "category": "City",
    "subcategory": "District Seat",
    "featured": false,
    "priority": 50
  },
  {
    "geonameId": 710670,
    "name": "Chernozemnoye",
    "latitude": 45.40808,
    "longitude": 34.8199,
    "category": "City",
    "subcategory": "District Seat",
    "featured": false,
    "priority": 50
  },
  {
    "geonameId": 711023,
    "name": "Chernyshevo",
    "latitude": 45.78202,
    "longitude": 33.42825,
    "category": "City",
    "subcategory": "District Seat",
    "featured": false,
    "priority": 50
  },
  {
    "geonameId": 10703322,
    "name": "Cherry mountain",
    "latitude": 50.68626,
    "longitude": 26.20274,
    "category": "Mountain",
    "subcategory": "Mountain",
    "featured": false,
    "priority": 50
  },
  {
    "geonameId": 710538,
    "name": "Chervone",
    "latitude": 49.96201,
    "longitude": 28.87094,
    "category": "City",
    "subcategory": "District Seat",
    "featured": false,
    "priority": 50
  },
  {
    "geonameId": 710552,
    "name": "Chervonohryhorivka",
    "latitude": 47.61906,
    "longitude": 34.53778,
    "category": "City",
    "subcategory": "City",
    "featured": false,
    "priority": 50
  },
  {
    "geonameId": 704366,
    "name": "Chervonooskilske Vodoskhovyshche",
    "latitude": 49.38445,
    "longitude": 37.55423,
    "category": "Lake",
    "subcategory": "Reservoir",
    "featured": false,
    "priority": 50
  },
  {
    "geonameId": 710476,
    "name": "Chigenitra-Bogaz",
    "latitude": 44.85,
    "longitude": 34.58333,
    "category": "Mountain",
    "subcategory": "Mountain Pass",
    "featured": false,
    "priority": 50
  },
  {
    "geonameId": 710454,
    "name": "Chisten’koye",
    "latitude": 44.88152,
    "longitude": 34.04716,
    "category": "City",
    "subcategory": "District Seat",
    "featured": false,
    "priority": 50
  },
  {
    "geonameId": 710449,
    "name": "Chistopolye",
    "latitude": 45.36541,
    "longitude": 36.18312,
    "category": "City",
    "subcategory": "District Seat",
    "featured": false,
    "priority": 50
  },
  {
    "geonameId": 710430,
    "name": "Chkalovo",
    "latitude": 45.60474,
    "longitude": 34.83395,
    "category": "City",
    "subcategory": "District Seat",
    "featured": false,
    "priority": 50
  },
  {
    "geonameId": 710426,
    "name": "Chmyrivka",
    "latitude": 49.28976,
    "longitude": 38.94061,
    "category": "City",
    "subcategory": "District Seat",
    "featured": false,
    "priority": 50
  },
  {
    "geonameId": 710409,
    "name": "Chop",
    "latitude": 48.4316,
    "longitude": 22.20446,
    "category": "City",
    "subcategory": "City",
    "featured": false,
    "priority": 50
  },
  {
    "geonameId": 710408,
    "name": "Chopovychi",
    "latitude": 50.82969,
    "longitude": 28.95482,
    "category": "City",
    "subcategory": "District Seat",
    "featured": false,
    "priority": 50
  },
  {
    "geonameId": 9997556,
    "name": "Chorne Ozero",
    "latitude": 46.5157,
    "longitude": 30.0653,
    "category": "Lake",
    "subcategory": "Lake",
    "featured": false,
    "priority": 50
  },
  {
    "geonameId": 710715,
    "name": "Chornobaivka",
    "latitude": 46.69641,
    "longitude": 32.54507,
    "category": "City",
    "subcategory": "District Seat",
    "featured": false,
    "priority": 50
  },
  {
    "geonameId": 710716,
    "name": "Chornobay",
    "latitude": 49.67074,
    "longitude": 32.3236,
    "category": "City",
    "subcategory": "City",
    "featured": false,
    "priority": 50
  },
  {
    "geonameId": 13639243,
    "name": "Chornobylskyi Radiatsiino-Ekologichnyi Biosfernyi Zapovidnyk",
    "latitude": 51.35861,
    "longitude": 29.73235,
    "category": "Park",
    "subcategory": "Nature Reserve",
    "featured": false,
    "priority": 50
  },
  {
    "geonameId": 710694,
    "name": "Chornomorka",
    "latitude": 46.64041,
    "longitude": 31.49785,
    "category": "City",
    "subcategory": "District Seat",
    "featured": false,
    "priority": 50
  },
  {
    "geonameId": 707688,
    "name": "Chornomors’k",
    "latitude": 46.29914,
    "longitude": 30.65529,
    "category": "City",
    "subcategory": "City",
    "featured": false,
    "priority": 50
  },
  {
    "geonameId": 710687,
    "name": "Chornomorske",
    "latitude": 45.50657,
    "longitude": 32.69776,
    "category": "City",
    "subcategory": "City",
    "featured": false,
    "priority": 50
  },
  {
    "geonameId": 7021076,
    "name": "Chornorichenske Vodoskhovyshche",
    "latitude": 44.4783,
    "longitude": 33.80926,
    "category": "Lake",
    "subcategory": "Reservoir",
    "featured": false,
    "priority": 50
  },
  {
    "geonameId": 710683,
    "name": "Chornorichenskyi Kanion",
    "latitude": 44.51667,
    "longitude": 33.75,
    "category": "Mountain",
    "subcategory": "Canyon",
    "featured": false,
    "priority": 50
  },
  {
    "geonameId": 710668,
    "name": "Chornukhyne",
    "latitude": 48.32281,
    "longitude": 38.51744,
    "category": "City",
    "subcategory": "City",
    "featured": false,
    "priority": 50
  },
  {
    "geonameId": 710400,
    "name": "Chortkiv",
    "latitude": 49.01701,
    "longitude": 25.79808,
    "category": "City",
    "subcategory": "County Seat",
    "featured": false,
    "priority": 50
  },
  {
    "geonameId": 710388,
    "name": "Chuchelskyi Pereval",
    "latitude": 44.64443,
    "longitude": 34.25251,
    "category": "Mountain",
    "subcategory": "Mountain Pass",
    "featured": false,
    "priority": 50
  },
  {
    "geonameId": 701294,
    "name": "Chudei",
    "latitude": 48.05095,
    "longitude": 25.62212,
    "category": "City",
    "subcategory": "District Seat",
    "featured": false,
    "priority": 50
  },
  {
    "geonameId": 710381,
    "name": "Chudniv",
    "latitude": 50.05255,
    "longitude": 28.12058,
    "category": "City",
    "subcategory": "District Seat",
    "featured": false,
    "priority": 50
  },
  {
    "geonameId": 710374,
    "name": "Chuhuyiv",
    "latitude": 49.83538,
    "longitude": 36.6865,
    "category": "City",
    "subcategory": "County Seat",
    "featured": false,
    "priority": 50
  },
  {
    "geonameId": 710368,
    "name": "Chulakivka",
    "latitude": 46.35857,
    "longitude": 32.35093,
    "category": "City",
    "subcategory": "District Seat",
    "featured": false,
    "priority": 50
  },
  {
    "geonameId": 710360,
    "name": "Chumaky",
    "latitude": 48.65696,
    "longitude": 34.86813,
    "category": "City",
    "subcategory": "District Seat",
    "featured": false,
    "priority": 50
  },
  {
    "geonameId": 710353,
    "name": "Chupakhivka",
    "latitude": 50.38096,
    "longitude": 34.58495,
    "category": "City",
    "subcategory": "District Seat",
    "featured": false,
    "priority": 50
  },
  {
    "geonameId": 710342,
    "name": "Chutove",
    "latitude": 49.71414,
    "longitude": 35.15747,
    "category": "City",
    "subcategory": "County Seat",
    "featured": false,
    "priority": 50
  },
  {
    "geonameId": 710473,
    "name": "Chyhyryn",
    "latitude": 49.08045,
    "longitude": 32.66082,
    "category": "City",
    "subcategory": "City",
    "featured": false,
    "priority": 50
  },
  {
    "geonameId": 710463,
    "name": "Chynadiyovo",
    "latitude": 48.48666,
    "longitude": 22.83368,
    "category": "City",
    "subcategory": "City",
    "featured": false,
    "priority": 50
  },
  {
    "geonameId": 691374,
    "name": "Chystyakove",
    "latitude": 48.03876,
    "longitude": 38.59685,
    "category": "City",
    "subcategory": "City",
    "featured": false,
    "priority": 50
  },
  {
    "geonameId": 710437,
    "name": "Chyzhivka",
    "latitude": 50.66791,
    "longitude": 27.61889,
    "category": "City",
    "subcategory": "District Seat",
    "featured": false,
    "priority": 50
  },
  {
    "geonameId": 707756,
    "name": "Dachne",
    "latitude": 46.58226,
    "longitude": 30.54747,
    "category": "City",
    "subcategory": "District Seat",
    "featured": false,
    "priority": 50
  },
  {
    "geonameId": 710323,
    "name": "Dalekoye",
    "latitude": 45.66006,
    "longitude": 33.08059,
    "category": "City",
    "subcategory": "District Seat",
    "featured": false,
    "priority": 50
  },
  {
    "geonameId": 710317,
    "name": "Dalnyk",
    "latitude": 46.22569,
    "longitude": 30.52982,
    "category": "City",
    "subcategory": "District Seat",
    "featured": false,
    "priority": 50
  },
  {
    "geonameId": 710269,
    "name": "Darivka",
    "latitude": 46.74985,
    "longitude": 32.78954,
    "category": "City",
    "subcategory": "District Seat",
    "featured": false,
    "priority": 50
  },
  {
    "geonameId": 710245,
    "name": "Davydiv",
    "latitude": 49.74688,
    "longitude": 24.13927,
    "category": "City",
    "subcategory": "District Seat",
    "featured": false,
    "priority": 50
  },
  {
    "geonameId": 710229,
    "name": "Debaltseve",
    "latitude": 48.33592,
    "longitude": 38.40261,
    "category": "City",
    "subcategory": "District Seat",
    "featured": false,
    "priority": 50
  },
  {
    "geonameId": 8729818,
    "name": "Deimanivskyi Zakaznyk",
    "latitude": 50.21332,
    "longitude": 32.63813,
    "category": "Park",
    "subcategory": "Nature Reserve",
    "featured": false,
    "priority": 50
  },
  {
    "geonameId": 710202,
    "name": "Deliatyn",
    "latitude": 48.5248,
    "longitude": 24.62566,
    "category": "City",
    "subcategory": "City",
    "featured": false,
    "priority": 50
  },
  {
    "geonameId": 710183,
    "name": "Demydivka",
    "latitude": 50.42785,
    "longitude": 25.33565,
    "category": "City",
    "subcategory": "District Seat",
    "featured": false,
    "priority": 50
  },
  {
    "geonameId": 710130,
    "name": "Derazhne",
    "latitude": 50.86242,
    "longitude": 26.04676,
    "category": "City",
    "subcategory": "District Seat",
    "featured": false,
    "priority": 50
  },
  {
    "geonameId": 710129,
    "name": "Derazhnya",
    "latitude": 49.26915,
    "longitude": 27.42909,
    "category": "City",
    "subcategory": "County Seat",
    "featured": false,
    "priority": 50
  },
  {
    "geonameId": 710098,
    "name": "Derhachi",
    "latitude": 50.10789,
    "longitude": 36.1209,
    "category": "City",
    "subcategory": "District Seat",
    "featured": false,
    "priority": 50
  },
  {
    "geonameId": 710071,
    "name": "Desna",
    "latitude": 50.92744,
    "longitude": 30.76678,
    "category": "City",
    "subcategory": "District Seat",
    "featured": false,
    "priority": 50
  },
  {
    "geonameId": 8037852,
    "name": "Desniansko-Starohutskyi Natsionalnyi Park",
    "latitude": 52.33207,
    "longitude": 33.77259,
    "category": "Park",
    "subcategory": "Park",
    "featured": false,
    "priority": 50
  },
  {
    "geonameId": 13526870,
    "name": "Desnianskyi Park",
    "latitude": 50.50822,
    "longitude": 30.59646,
    "category": "Park",
    "subcategory": "Park",
    "featured": false,
    "priority": 50
  },
  {
    "geonameId": 710062,
    "name": "Devladove",
    "latitude": 48.10316,
    "longitude": 33.75469,
    "category": "City",
    "subcategory": "District Seat",
    "featured": false,
    "priority": 50
  },
  {
    "geonameId": 709392,
    "name": "Diadkovychi",
    "latitude": 50.60649,
    "longitude": 26.05016,
    "category": "City",
    "subcategory": "District Seat",
    "featured": false,
    "priority": 50
  },
  {
    "geonameId": 10026211,
    "name": "Dibrova Artsyzka",
    "latitude": 46.00712,
    "longitude": 29.40114,
    "category": "Park",
    "subcategory": "Nature Reserve",
    "featured": false,
    "priority": 50
  },
  {
    "geonameId": 710064,
    "name": "Divychky",
    "latitude": 50.07508,
    "longitude": 31.27645,
    "category": "City",
    "subcategory": "District Seat",
    "featured": false,
    "priority": 50
  },
  {
    "geonameId": 709995,
    "name": "Dmitrovka",
    "latitude": 45.48411,
    "longitude": 35.0588,
    "category": "City",
    "subcategory": "District Seat",
    "featured": false,
    "priority": 50
  },
  {
    "geonameId": 709970,
    "name": "Dmytrivka",
    "latitude": 50.93585,
    "longitude": 32.94717,
    "category": "City",
    "subcategory": "District Seat",
    "featured": false,
    "priority": 50
  },
  {
    "geonameId": 709966,
    "name": "Dmytrushky",
    "latitude": 48.79672,
    "longitude": 30.28553,
    "category": "City",
    "subcategory": "District Seat",
    "featured": false,
    "priority": 50
  },
  {
    "geonameId": 709930,
    "name": "Dnipro",
    "latitude": 48.46664,
    "longitude": 35.04066,
    "category": "City",
    "subcategory": "Regional Capital",
    "featured": false,
    "priority": 50
  },
  {
    "geonameId": 709941,
    "name": "Dnipro Reservoir",
    "latitude": 47.98752,
    "longitude": 35.12829,
    "category": "Lake",
    "subcategory": "Reservoir",
    "featured": false,
    "priority": 50
  },
  {
    "geonameId": 709931,
    "name": "Dniprodzerzhynske Vodoskhovyshche",
    "latitude": 48.79676,
    "longitude": 34.12011,
    "category": "Lake",
    "subcategory": "Reservoir",
    "featured": false,
    "priority": 50
  },
  {
    "geonameId": 709960,
    "name": "Dniprorudne",
    "latitude": 47.38993,
    "longitude": 35.00065,
    "category": "City",
    "subcategory": "City",
    "featured": false,
    "priority": 50
  },
  {
    "geonameId": 709943,
    "name": "Dniprovske",
    "latitude": 48.59042,
    "longitude": 34.41394,
    "category": "City",
    "subcategory": "City",
    "featured": false,
    "priority": 50
  },
  {
    "geonameId": 9533250,
    "name": "Dniprovsko-Orilskyi Zapovidnyk",
    "latitude": 48.50242,
    "longitude": 34.79634,
    "category": "Park",
    "subcategory": "Park",
    "featured": false,
    "priority": 50
  },
  {
    "geonameId": 709927,
    "name": "Dnistrovske Vodoskhovyshche",
    "latitude": 48.56753,
    "longitude": 27.24502,
    "category": "Lake",
    "subcategory": "Reservoir",
    "featured": false,
    "priority": 50
  },
  {
    "geonameId": 709856,
    "name": "Dobrianka",
    "latitude": 52.06238,
    "longitude": 31.18264,
    "category": "City",
    "subcategory": "District Seat",
    "featured": false,
    "priority": 50
  },
  {
    "geonameId": 709909,
    "name": "Dobromyl",
    "latitude": 49.57186,
    "longitude": 22.7854,
    "category": "City",
    "subcategory": "District Seat",
    "featured": false,
    "priority": 50
  },
  {
    "geonameId": 709900,
    "name": "Dobropillia",
    "latitude": 48.46674,
    "longitude": 37.08567,
    "category": "City",
    "subcategory": "District Seat",
    "featured": false,
    "priority": 50
  },
  {
    "geonameId": 705222,
    "name": "Dobroslav",
    "latitude": 46.82095,
    "longitude": 30.94518,
    "category": "City",
    "subcategory": "County Seat",
    "featured": false,
    "priority": 50
  },
  {
    "geonameId": 709896,
    "name": "Dobrosyn",
    "latitude": 50.13223,
    "longitude": 23.84187,
    "category": "City",
    "subcategory": "District Seat",
    "featured": false,
    "priority": 50
  },
  {
    "geonameId": 709892,
    "name": "Dobrotvir",
    "latitude": 50.20526,
    "longitude": 24.3835,
    "category": "City",
    "subcategory": "District Seat",
    "featured": false,
    "priority": 50
  },
  {
    "geonameId": 709888,
    "name": "Dobrovelychkivka",
    "latitude": 48.38939,
    "longitude": 31.18039,
    "category": "City",
    "subcategory": "County Seat",
    "featured": false,
    "priority": 50
  },
  {
    "geonameId": 709869,
    "name": "Dobroye",
    "latitude": 44.86632,
    "longitude": 34.22661,
    "category": "City",
    "subcategory": "District Seat",
    "featured": false,
    "priority": 50
  },
  {
    "geonameId": 709862,
    "name": "Dobrushino",
    "latitude": 45.37441,
    "longitude": 33.36547,
    "category": "City",
    "subcategory": "District Seat",
    "featured": false,
    "priority": 50
  },
  {
    "geonameId": 709835,
    "name": "Dokuchayevsk",
    "latitude": 47.7522,
    "longitude": 37.67761,
    "category": "City",
    "subcategory": "City",
    "featured": false,
    "priority": 50
  },
  {
    "geonameId": 812962,
    "name": "Dokuchayevske",
    "latitude": 49.89248,
    "longitude": 36.45158,
    "category": "City",
    "subcategory": "City",
    "featured": false,
    "priority": 50
  },
  {
    "geonameId": 709789,
    "name": "Dolinnoye",
    "latitude": 44.7532,
    "longitude": 33.77766,
    "category": "City",
    "subcategory": "District Seat",
    "featured": false,
    "priority": 50
  },
  {
    "geonameId": 709765,
    "name": "Dolmativka",
    "latitude": 46.21462,
    "longitude": 32.46548,
    "category": "City",
    "subcategory": "District Seat",
    "featured": false,
    "priority": 50
  },
  {
    "geonameId": 709755,
    "name": "Dolyna",
    "latitude": 48.97158,
    "longitude": 23.96558,
    "category": "City",
    "subcategory": "City",
    "featured": false,
    "priority": 50
  },
  {
    "geonameId": 709782,
    "name": "Dolynska",
    "latitude": 48.11725,
    "longitude": 32.77691,
    "category": "City",
    "subcategory": "City",
    "featured": false,
    "priority": 50
  },
  {
    "geonameId": 709775,
    "name": "Dolynske",
    "latitude": 47.78721,
    "longitude": 34.94263,
    "category": "City",
    "subcategory": "District Seat",
    "featured": false,
    "priority": 50
  },
  {
    "geonameId": 709740,
    "name": "Domanivka",
    "latitude": 47.62865,
    "longitude": 30.98648,
    "category": "City",
    "subcategory": "City",
    "featured": false,
    "priority": 50
  },
  {
    "geonameId": 710523,
    "name": "Donets",
    "latitude": 49.50762,
    "longitude": 36.56595,
    "category": "City",
    "subcategory": "District Seat",
    "featured": false,
    "priority": 50
  },
  {
    "geonameId": 709717,
    "name": "Donetsk",
    "latitude": 48.023,
    "longitude": 37.80224,
    "category": "City",
    "subcategory": "Regional Capital",
    "featured": false,
    "priority": 50
  },
  {
    "geonameId": 9644144,
    "name": "Donetske More",
    "latitude": 47.93043,
    "longitude": 37.80013,
    "category": "Lake",
    "subcategory": "Lake",
    "featured": false,
    "priority": 50
  },
  {
    "geonameId": 712228,
    "name": "Donskoye",
    "latitude": 45.04509,
    "longitude": 34.21413,
    "category": "City",
    "subcategory": "District Seat",
    "featured": false,
    "priority": 50
  },
  {
    "geonameId": 709684,
    "name": "Doroshivka",
    "latitude": 47.47765,
    "longitude": 31.46322,
    "category": "City",
    "subcategory": "District Seat",
    "featured": false,
    "priority": 50
  },
  {
    "geonameId": 709678,
    "name": "Dorosyni",
    "latitude": 50.94728,
    "longitude": 25.00961,
    "category": "City",
    "subcategory": "District Seat",
    "featured": false,
    "priority": 50
  },
  {
    "geonameId": 6941133,
    "name": "Doucha",
    "latitude": 48.36885,
    "longitude": 24.36905,
    "category": "Mountain",
    "subcategory": "Mountain",
    "featured": false,
    "priority": 50
  },
  {
    "geonameId": 709665,
    "name": "Dovbysh",
    "latitude": 50.37131,
    "longitude": 27.9883,
    "category": "City",
    "subcategory": "District Seat",
    "featured": false,
    "priority": 50
  },
  {
    "geonameId": 709808,
    "name": "Dovhe",
    "latitude": 48.36651,
    "longitude": 23.28107,
    "category": "City",
    "subcategory": "District Seat",
    "featured": false,
    "priority": 50
  },
  {
    "geonameId": 8403309,
    "name": "Dovhe Ozero",
    "latitude": 51.39581,
    "longitude": 32.84311,
    "category": "Lake",
    "subcategory": "Lake",
    "featured": false,
    "priority": 50
  },
  {
    "geonameId": 692105,
    "name": "Dovzhansk",
    "latitude": 48.07615,
    "longitude": 39.64744,
    "category": "City",
    "subcategory": "County Seat",
    "featured": false,
    "priority": 50
  },
  {
    "geonameId": 709643,
    "name": "Drabiv",
    "latitude": 49.95891,
    "longitude": 32.15028,
    "category": "City",
    "subcategory": "City",
    "featured": false,
    "priority": 50
  },
  {
    "geonameId": 709644,
    "name": "Drabynivka",
    "latitude": 49.26867,
    "longitude": 34.60396,
    "category": "City",
    "subcategory": "District Seat",
    "featured": false,
    "priority": 50
  },
  {
    "geonameId": 709630,
    "name": "Drahovo",
    "latitude": 48.23519,
    "longitude": 23.55183,
    "category": "City",
    "subcategory": "District Seat",
    "featured": false,
    "priority": 50
  },
  {
    "geonameId": 709614,
    "name": "Drobysheve",
    "latitude": 49.0416,
    "longitude": 37.72962,
    "category": "City",
    "subcategory": "District Seat",
    "featured": false,
    "priority": 50
  },
  {
    "geonameId": 6997290,
    "name": "Drofino",
    "latitude": 45.28629,
    "longitude": 34.61589,
    "category": "City",
    "subcategory": "District Seat",
    "featured": false,
    "priority": 50
  },
  {
    "geonameId": 709611,
    "name": "Drohobych",
    "latitude": 49.35196,
    "longitude": 23.51121,
    "category": "City",
    "subcategory": "County Seat",
    "featured": false,
    "priority": 50
  },
  {
    "geonameId": 616743,
    "name": "Druzhkivka",
    "latitude": 48.61995,
    "longitude": 37.52537,
    "category": "City",
    "subcategory": "District Seat",
    "featured": false,
    "priority": 50
  },
  {
    "geonameId": 709569,
    "name": "Duba",
    "latitude": 48.84722,
    "longitude": 24.15637,
    "category": "City",
    "subcategory": "District Seat",
    "featured": false,
    "priority": 50
  },
  {
    "geonameId": 709566,
    "name": "Dubechne",
    "latitude": 51.55601,
    "longitude": 24.37757,
    "category": "City",
    "subcategory": "District Seat",
    "featured": false,
    "priority": 50
  },
  {
    "geonameId": 709512,
    "name": "Dubivtsi",
    "latitude": 49.08435,
    "longitude": 24.7766,
    "category": "City",
    "subcategory": "District Seat",
    "featured": false,
    "priority": 50
  },
  {
    "geonameId": 709546,
    "name": "Dubliany",
    "latitude": 49.90411,
    "longitude": 24.08637,
    "category": "City",
    "subcategory": "City",
    "featured": false,
    "priority": 50
  },
  {
    "geonameId": 709540,
    "name": "Dubno",
    "latitude": 50.40752,
    "longitude": 25.7624,
    "category": "City",
    "subcategory": "County Seat",
    "featured": false,
    "priority": 50
  },
  {
    "geonameId": 709515,
    "name": "Dubove",
    "latitude": 51.26382,
    "longitude": 24.68481,
    "category": "City",
    "subcategory": "District Seat",
    "featured": false,
    "priority": 50
  },
  {
    "geonameId": 709509,
    "name": "Duboviazivka",
    "latitude": 51.13813,
    "longitude": 33.36922,
    "category": "City",
    "subcategory": "District Seat",
    "featured": false,
    "priority": 50
  },
  {
    "geonameId": 709527,
    "name": "Dubovyky",
    "latitude": 48.24268,
    "longitude": 36.21847,
    "category": "City",
    "subcategory": "District Seat",
    "featured": false,
    "priority": 50
  },
  {
    "geonameId": 709481,
    "name": "Dubrivka",
    "latitude": 50.34415,
    "longitude": 27.40914,
    "category": "City",
    "subcategory": "District Seat",
    "featured": false,
    "priority": 50
  },
  {
    "geonameId": 709493,
    "name": "Dubrovytsya",
    "latitude": 51.57076,
    "longitude": 26.56369,
    "category": "City",
    "subcategory": "District Seat",
    "featured": false,
    "priority": 50
  },
  {
    "geonameId": 709503,
    "name": "Dubrynychi",
    "latitude": 48.80235,
    "longitude": 22.49345,
    "category": "City",
    "subcategory": "District Seat",
    "featured": false,
    "priority": 50
  },
  {
    "geonameId": 709450,
    "name": "Duliby",
    "latitude": 49.23245,
    "longitude": 23.81928,
    "category": "City",
    "subcategory": "District Seat",
    "featured": false,
    "priority": 50
  },
  {
    "geonameId": 709429,
    "name": "Dunayivtsi",
    "latitude": 48.88697,
    "longitude": 26.84816,
    "category": "City",
    "subcategory": "City",
    "featured": false,
    "priority": 50
  },
  {
    "geonameId": 6941136,
    "name": "Durnia",
    "latitude": 48.38943,
    "longitude": 24.14932,
    "category": "Mountain",
    "subcategory": "Mountain",
    "featured": false,
    "priority": 50
  },
  {
    "geonameId": 709399,
    "name": "Dvorichna",
    "latitude": 49.85099,
    "longitude": 37.68482,
    "category": "City",
    "subcategory": "District Seat",
    "featured": false,
    "priority": 50
  },
  {
    "geonameId": 710041,
    "name": "Dykanka",
    "latitude": 49.82586,
    "longitude": 34.522,
    "category": "City",
    "subcategory": "County Seat",
    "featured": false,
    "priority": 50
  },
  {
    "geonameId": 709373,
    "name": "Dymer",
    "latitude": 50.78579,
    "longitude": 30.30357,
    "category": "City",
    "subcategory": "District Seat",
    "featured": false,
    "priority": 50
  },
  {
    "geonameId": 709334,
    "name": "Dzhankoy",
    "latitude": 45.7131,
    "longitude": 34.39273,
    "category": "City",
    "subcategory": "County Seat",
    "featured": false,
    "priority": 50
  },
  {
    "geonameId": 9991653,
    "name": "Dzhantsheiske Ozero",
    "latitude": 45.63606,
    "longitude": 29.80392,
    "category": "Lake",
    "subcategory": "Lake",
    "featured": false,
    "priority": 50
  },
  {
    "geonameId": 709314,
    "name": "Dzhulynka",
    "latitude": 48.44031,
    "longitude": 29.74768,
    "category": "City",
    "subcategory": "District Seat",
    "featured": false,
    "priority": 50
  },
  {
    "geonameId": 709310,
    "name": "Dzhuryn",
    "latitude": 48.67969,
    "longitude": 28.28491,
    "category": "City",
    "subcategory": "District Seat",
    "featured": false,
    "priority": 50
  },
  {
    "geonameId": 709293,
    "name": "Dzvyniach",
    "latitude": 48.744,
    "longitude": 24.42191,
    "category": "City",
    "subcategory": "District Seat",
    "featured": false,
    "priority": 50
  },
  {
    "geonameId": 709276,
    "name": "Enerhodar",
    "latitude": 47.49048,
    "longitude": 34.66199,
    "category": "City",
    "subcategory": "City",
    "featured": false,
    "priority": 50
  },
  {
    "geonameId": 709270,
    "name": "Eskhar",
    "latitude": 49.79736,
    "longitude": 36.59025,
    "category": "City",
    "subcategory": "City",
    "featured": false,
    "priority": 50
  },
  {
    "geonameId": 709269,
    "name": "Eski-Bogaz",
    "latitude": 44.45,
    "longitude": 33.98333,
    "category": "Mountain",
    "subcategory": "Mountain Pass",
    "featured": false,
    "priority": 50
  },
  {
    "geonameId": 710534,
    "name": "Esman",
    "latitude": 51.76966,
    "longitude": 34.06517,
    "category": "City",
    "subcategory": "District Seat",
    "featured": false,
    "priority": 50
  },
  {
    "geonameId": 709248,
    "name": "Fastiv",
    "latitude": 50.07796,
    "longitude": 29.91963,
    "category": "City",
    "subcategory": "County Seat",
    "featured": false,
    "priority": 50
  },
  {
    "geonameId": 710397,
    "name": "Fedorivka",
    "latitude": 47.54693,
    "longitude": 36.54788,
    "category": "City",
    "subcategory": "District Seat",
    "featured": false,
    "priority": 50
  },
  {
    "geonameId": 10251759,
    "name": "Feodosiiske Vodoskhovyshche",
    "latitude": 45.15037,
    "longitude": 35.31822,
    "category": "Lake",
    "subcategory": "Reservoir",
    "featured": false,
    "priority": 50
  },
  {
    "geonameId": 709161,
    "name": "Feodosiya",
    "latitude": 45.03199,
    "longitude": 35.38153,
    "category": "City",
    "subcategory": "County Seat",
    "featured": false,
    "priority": 50
  },
  {
    "geonameId": 709145,
    "name": "Filatovka",
    "latitude": 46.08192,
    "longitude": 33.7851,
    "category": "City",
    "subcategory": "District Seat",
    "featured": false,
    "priority": 50
  },
  {
    "geonameId": 709114,
    "name": "Fontanka",
    "latitude": 46.56864,
    "longitude": 30.85916,
    "category": "City",
    "subcategory": "District Seat",
    "featured": false,
    "priority": 50
  },
  {
    "geonameId": 10251760,
    "name": "Frontove Vodoskhovyshche",
    "latitude": 45.17731,
    "longitude": 35.48248,
    "category": "Lake",
    "subcategory": "Reservoir",
    "featured": false,
    "priority": 50
  },
  {
    "geonameId": 709082,
    "name": "Frunze",
    "latitude": 45.02688,
    "longitude": 33.62956,
    "category": "City",
    "subcategory": "District Seat",
    "featured": false,
    "priority": 50
  },
  {
    "geonameId": 709060,
    "name": "Fursy",
    "latitude": 49.8004,
    "longitude": 30.00065,
    "category": "City",
    "subcategory": "District Seat",
    "featured": false,
    "priority": 50
  },
  {
    "geonameId": 708797,
    "name": "Glazovka",
    "latitude": 45.38792,
    "longitude": 36.57965,
    "category": "City",
    "subcategory": "District Seat",
    "featured": false,
    "priority": 50
  },
  {
    "geonameId": 708546,
    "name": "Golubinka",
    "latitude": 44.59382,
    "longitude": 33.91521,
    "category": "City",
    "subcategory": "District Seat",
    "featured": false,
    "priority": 50
  },
  {
    "geonameId": 713763,
    "name": "Gora Agarmysh",
    "latitude": 45.03333,
    "longitude": 35.01667,
    "category": "Mountain",
    "subcategory": "Mountain",
    "featured": false,
    "priority": 50
  },
  {
    "geonameId": 713378,
    "name": "Gora Angar-Burun",
    "latitude": 44.74256,
    "longitude": 34.30305,
    "category": "Mountain",
    "subcategory": "Mountain",
    "featured": false,
    "priority": 50
  },
  {
    "geonameId": 713219,
    "name": "Gora Ardych-Kaya",
    "latitude": 44.79976,
    "longitude": 35.07636,
    "category": "Mountain",
    "subcategory": "Mountain",
    "featured": false,
    "priority": 50
  },
  {
    "geonameId": 713108,
    "name": "Gora Avinda",
    "latitude": 44.56022,
    "longitude": 34.2104,
    "category": "Mountain",
    "subcategory": "Mountain",
    "featured": false,
    "priority": 50
  },
  {
    "geonameId": 713056,
    "name": "Gora Baba Lyudova",
    "latitude": 47.91667,
    "longitude": 24.78333,
    "category": "Mountain",
    "subcategory": "Mountain",
    "featured": false,
    "priority": 50
  },
  {
    "geonameId": 712978,
    "name": "Gora Bagrovets",
    "latitude": 48.43333,
    "longitude": 24.56667,
    "category": "Mountain",
    "subcategory": "Mountain",
    "featured": false,
    "priority": 50
  },
  {
    "geonameId": 697689,
    "name": "Gora Bedene-Kyr",
    "latitude": 44.48531,
    "longitude": 34.02885,
    "category": "Mountain",
    "subcategory": "Mountain",
    "featured": false,
    "priority": 50
  },
  {
    "geonameId": 712459,
    "name": "Gora Berda",
    "latitude": 48.43922,
    "longitude": 25.96106,
    "category": "Mountain",
    "subcategory": "Mountain",
    "featured": false,
    "priority": 50
  },
  {
    "geonameId": 712135,
    "name": "Gora Birok",
    "latitude": 48.63333,
    "longitude": 23.68333,
    "category": "Mountain",
    "subcategory": "Mountain",
    "featured": false,
    "priority": 50
  },
  {
    "geonameId": 712051,
    "name": "Gora Blizhnets",
    "latitude": 48.71667,
    "longitude": 23.46667,
    "category": "Mountain",
    "subcategory": "Mountain",
    "featured": false,
    "priority": 50
  },
  {
    "geonameId": 712044,
    "name": "Gora Bliznits",
    "latitude": 48.72304,
    "longitude": 23.46733,
    "category": "Mountain",
    "subcategory": "Mountain",
    "featured": false,
    "priority": 50
  },
  {
    "geonameId": 711750,
    "name": "Gora Bol’shoy Agarmysh",
    "latitude": 45.05,
    "longitude": 35.01667,
    "category": "Mountain",
    "subcategory": "Peak",
    "featured": false,
    "priority": 50
  },
  {
    "geonameId": 711509,
    "name": "Gora Boyka",
    "latitude": 44.55346,
    "longitude": 34.03133,
    "category": "Mountain",
    "subcategory": "Mountain",
    "featured": false,
    "priority": 50
  },
  {
    "geonameId": 711470,
    "name": "Gora Bratkovska Mala",
    "latitude": 48.36435,
    "longitude": 24.20082,
    "category": "Mountain",
    "subcategory": "Mountain",
    "featured": false,
    "priority": 50
  },
  {
    "geonameId": 711202,
    "name": "Gora Bukovna",
    "latitude": 48.41667,
    "longitude": 24.58333,
    "category": "Mountain",
    "subcategory": "Mountain",
    "featured": false,
    "priority": 50
  },
  {
    "geonameId": 711106,
    "name": "Gora Bushtul",
    "latitude": 48.46345,
    "longitude": 23.92313,
    "category": "Mountain",
    "subcategory": "Mountain",
    "featured": false,
    "priority": 50
  },
  {
    "geonameId": 710620,
    "name": "Gora Chernyy Verkh",
    "latitude": 48.58333,
    "longitude": 23.61667,
    "category": "Mountain",
    "subcategory": "Mountain",
    "featured": false,
    "priority": 50
  },
  {
    "geonameId": 710398,
    "name": "Gora Chova",
    "latitude": 48.15,
    "longitude": 23.25,
    "category": "Mountain",
    "subcategory": "Mountain",
    "featured": false,
    "priority": 50
  },
  {
    "geonameId": 711810,
    "name": "Gora Chucheli",
    "latitude": 44.65363,
    "longitude": 34.23786,
    "category": "Mountain",
    "subcategory": "Mountain",
    "featured": false,
    "priority": 50
  },
  {
    "geonameId": 710339,
    "name": "Gora Chyrny",
    "latitude": 48.16667,
    "longitude": 24.58333,
    "category": "Mountain",
    "subcategory": "Mountain",
    "featured": false,
    "priority": 50
  },
  {
    "geonameId": 710176,
    "name": "Gora Demir-Kapu",
    "latitude": 44.58552,
    "longitude": 34.20823,
    "category": "Mountain",
    "subcategory": "Mountain",
    "featured": false,
    "priority": 50
  },
  {
    "geonameId": 710038,
    "name": "Gora Dikhtovets",
    "latitude": 48.76667,
    "longitude": 23.51667,
    "category": "Mountain",
    "subcategory": "Mountain",
    "featured": false,
    "priority": 50
  },
  {
    "geonameId": 709442,
    "name": "Gora Dumen’",
    "latitude": 48.1,
    "longitude": 24.21667,
    "category": "Mountain",
    "subcategory": "Mountain",
    "featured": false,
    "priority": 50
  },
  {
    "geonameId": 708658,
    "name": "Gora Gnutaya",
    "latitude": 48.73333,
    "longitude": 23.41667,
    "category": "Mountain",
    "subcategory": "Mountain",
    "featured": false,
    "priority": 50
  },
  {
    "geonameId": 708457,
    "name": "Gora Gorbishche",
    "latitude": 48.2593,
    "longitude": 23.48821,
    "category": "Mountain",
    "subcategory": "Mountain",
    "featured": false,
    "priority": 50
  },
  {
    "geonameId": 708242,
    "name": "Gora Grab",
    "latitude": 48.56667,
    "longitude": 23.26667,
    "category": "Mountain",
    "subcategory": "Mountain",
    "featured": false,
    "priority": 50
  },
  {
    "geonameId": 708234,
    "name": "Gora Grabova",
    "latitude": 48.60046,
    "longitude": 23.52761,
    "category": "Mountain",
    "subcategory": "Mountain",
    "featured": false,
    "priority": 50
  },
  {
    "geonameId": 707707,
    "name": "Gora Ilina",
    "latitude": 48.2418,
    "longitude": 23.29197,
    "category": "Mountain",
    "subcategory": "Mountain",
    "featured": false,
    "priority": 50
  },
  {
    "geonameId": 704110,
    "name": "Gora Issar",
    "latitude": 44.43333,
    "longitude": 34.05,
    "category": "Mountain",
    "subcategory": "Mountain",
    "featured": false,
    "priority": 50
  },
  {
    "geonameId": 7040020,
    "name": "Gora Kamennaya",
    "latitude": 44.77503,
    "longitude": 33.96068,
    "category": "Mountain",
    "subcategory": "Mountain",
    "featured": false,
    "priority": 50
  },
  {
    "geonameId": 706951,
    "name": "Gora Kamula",
    "latitude": 49.66667,
    "longitude": 24.3,
    "category": "Mountain",
    "subcategory": "Mountain",
    "featured": false,
    "priority": 50
  },
  {
    "geonameId": 706907,
    "name": "Gora Kanch",
    "latitude": 48.65,
    "longitude": 23.75,
    "category": "Mountain",
    "subcategory": "Mountain",
    "featured": false,
    "priority": 50
  },
  {
    "geonameId": 706584,
    "name": "Gora Kazakova Polyana",
    "latitude": 48.83333,
    "longitude": 23.15,
    "category": "Mountain",
    "subcategory": "Mountain",
    "featured": false,
    "priority": 50
  },
  {
    "geonameId": 705906,
    "name": "Gora Kichera",
    "latitude": 48.59587,
    "longitude": 23.41849,
    "category": "Mountain",
    "subcategory": "Mountain",
    "featured": false,
    "priority": 50
  },
  {
    "geonameId": 705904,
    "name": "Gora Kichera Rosushka",
    "latitude": 48.5303,
    "longitude": 23.30372,
    "category": "Mountain",
    "subcategory": "Mountain",
    "featured": false,
    "priority": 50
  },
  {
    "geonameId": 705905,
    "name": "Gora Kicherana",
    "latitude": 48.40774,
    "longitude": 23.40873,
    "category": "Mountain",
    "subcategory": "Mountain",
    "featured": false,
    "priority": 50
  },
  {
    "geonameId": 705861,
    "name": "Gora Kirekkhat",
    "latitude": 48.2,
    "longitude": 23.06667,
    "category": "Mountain",
    "subcategory": "Mountain",
    "featured": false,
    "priority": 50
  },
  {
    "geonameId": 705733,
    "name": "Gora Kityluvka",
    "latitude": 48.24694,
    "longitude": 24.66849,
    "category": "Mountain",
    "subcategory": "Mountain",
    "featured": false,
    "priority": 50
  },
  {
    "geonameId": 705620,
    "name": "Gora Klobuk",
    "latitude": 48.31667,
    "longitude": 23.3,
    "category": "Mountain",
    "subcategory": "Mountain",
    "featured": false,
    "priority": 50
  },
  {
    "geonameId": 11190937,
    "name": "Gora Kmolovate",
    "latitude": 49.26299,
    "longitude": 22.85699,
    "category": "Mountain",
    "subcategory": "Mountain",
    "featured": false,
    "priority": 50
  },
  {
    "geonameId": 705157,
    "name": "Gora Konets",
    "latitude": 48.25508,
    "longitude": 23.97933,
    "category": "Mountain",
    "subcategory": "Mountain",
    "featured": false,
    "priority": 50
  },
  {
    "geonameId": 704798,
    "name": "Gora Koshka",
    "latitude": 44.40361,
    "longitude": 33.99333,
    "category": "Mountain",
    "subcategory": "Mountain",
    "featured": false,
    "priority": 50
  },
  {
    "geonameId": 8063870,
    "name": "Gora Kostyushki",
    "latitude": 51.42827,
    "longitude": 23.71297,
    "category": "Mountain",
    "subcategory": "Mountain",
    "featured": false,
    "priority": 50
  },
  {
    "geonameId": 703968,
    "name": "Gora Kruglaya",
    "latitude": 48.63777,
    "longitude": 22.84604,
    "category": "Mountain",
    "subcategory": "Mountain",
    "featured": false,
    "priority": 50
  },
  {
    "geonameId": 11221243,
    "name": "Gora Kshivy Verkh",
    "latitude": 49.08048,
    "longitude": 23.32524,
    "category": "Mountain",
    "subcategory": "Mountain",
    "featured": false,
    "priority": 50
  },
  {
    "geonameId": 703621,
    "name": "Gora Kurgan Mechetnyy",
    "latitude": 48.1,
    "longitude": 39.35,
    "category": "Mountain",
    "subcategory": "Mountain",
    "featured": false,
    "priority": 50
  },
  {
    "geonameId": 703561,
    "name": "Gora Kush-Kaya",
    "latitude": 44.42509,
    "longitude": 33.67903,
    "category": "Mountain",
    "subcategory": "Mountain",
    "featured": false,
    "priority": 50
  },
  {
    "geonameId": 702806,
    "name": "Gora Losova",
    "latitude": 47.88417,
    "longitude": 25.07393,
    "category": "Mountain",
    "subcategory": "Mountain",
    "featured": false,
    "priority": 50
  },
  {
    "geonameId": 702587,
    "name": "Gora Lungul",
    "latitude": 47.93333,
    "longitude": 25.3,
    "category": "Mountain",
    "subcategory": "Mountain",
    "featured": false,
    "priority": 50
  },
  {
    "geonameId": 11196906,
    "name": "Gora Magura",
    "latitude": 49.42918,
    "longitude": 22.75073,
    "category": "Mountain",
    "subcategory": "Mountain",
    "featured": false,
    "priority": 50
  },
  {
    "geonameId": 702232,
    "name": "Gora Malaya Chuchel’",
    "latitude": 44.6464,
    "longitude": 34.24314,
    "category": "Mountain",
    "subcategory": "Mountain",
    "featured": false,
    "priority": 50
  },
  {
    "geonameId": 702022,
    "name": "Gora Malyy Agarmysh",
    "latitude": 45.04205,
    "longitude": 35.02155,
    "category": "Mountain",
    "subcategory": "Peak",
    "featured": false,
    "priority": 50
  },
  {
    "geonameId": 701368,
    "name": "Gora Menchil",
    "latitude": 48.63333,
    "longitude": 23.56667,
    "category": "Mountain",
    "subcategory": "Mountain",
    "featured": false,
    "priority": 50
  },
  {
    "geonameId": 701365,
    "name": "Gora Menchul",
    "latitude": 48.2605,
    "longitude": 24.28766,
    "category": "Mountain",
    "subcategory": "Mountain",
    "featured": false,
    "priority": 50
  },
  {
    "geonameId": 701348,
    "name": "Gora Merdyuan-Katmer",
    "latitude": 44.83638,
    "longitude": 35.12821,
    "category": "Mountain",
    "subcategory": "Mountain",
    "featured": false,
    "priority": 50
  },
  {
    "geonameId": 701420,
    "name": "Gora Mogabi",
    "latitude": 44.46432,
    "longitude": 34.10378,
    "category": "Mountain",
    "subcategory": "Mountain",
    "featured": false,
    "priority": 50
  },
  {
    "geonameId": 700929,
    "name": "Gora Mogila Bel’mak",
    "latitude": 47.16667,
    "longitude": 36.6,
    "category": "Mountain",
    "subcategory": "Mountain",
    "featured": false,
    "priority": 50
  },
  {
    "geonameId": 700927,
    "name": "Gora Mogila Mechetnaya",
    "latitude": 48.26667,
    "longitude": 38.88333,
    "category": "Mountain",
    "subcategory": "Mountain",
    "featured": false,
    "priority": 50
  },
  {
    "geonameId": 698830,
    "name": "Gora Obavskiy-Kamen’",
    "latitude": 48.5834,
    "longitude": 22.81453,
    "category": "Mountain",
    "subcategory": "Mountain",
    "featured": false,
    "priority": 50
  },
  {
    "geonameId": 698829,
    "name": "Gora Obchina",
    "latitude": 48.02732,
    "longitude": 23.91053,
    "category": "Mountain",
    "subcategory": "Mountain",
    "featured": false,
    "priority": 50
  },
  {
    "geonameId": 698776,
    "name": "Gora Obval’naya",
    "latitude": 44.77534,
    "longitude": 34.39363,
    "category": "Mountain",
    "subcategory": "Mountain",
    "featured": false,
    "priority": 50
  },
  {
    "geonameId": 698108,
    "name": "Gora Ozirnya",
    "latitude": 48.60963,
    "longitude": 23.66348,
    "category": "Mountain",
    "subcategory": "Mountain",
    "featured": false,
    "priority": 50
  },
  {
    "geonameId": 697948,
    "name": "Gora Pasechay",
    "latitude": 48.53501,
    "longitude": 24.40866,
    "category": "Mountain",
    "subcategory": "Mountain",
    "featured": false,
    "priority": 50
  },
  {
    "geonameId": 697745,
    "name": "Gora Perednya",
    "latitude": 48.50384,
    "longitude": 23.84936,
    "category": "Mountain",
    "subcategory": "Mountain",
    "featured": false,
    "priority": 50
  },
  {
    "geonameId": 697730,
    "name": "Gora Perekhrestya",
    "latitude": 48.38195,
    "longitude": 23.68588,
    "category": "Mountain",
    "subcategory": "Mountain",
    "featured": false,
    "priority": 50
  },
  {
    "geonameId": 696795,
    "name": "Gora Pogari",
    "latitude": 48.6866,
    "longitude": 23.38278,
    "category": "Mountain",
    "subcategory": "Mountain",
    "featured": false,
    "priority": 50
  },
  {
    "geonameId": 11222297,
    "name": "Gora Popovtse",
    "latitude": 49.06688,
    "longitude": 23.68684,
    "category": "Mountain",
    "subcategory": "Mountain",
    "featured": false,
    "priority": 50
  },
  {
    "geonameId": 696252,
    "name": "Gora Prislop",
    "latitude": 48.13232,
    "longitude": 23.47133,
    "category": "Mountain",
    "subcategory": "Mountain",
    "featured": false,
    "priority": 50
  },
  {
    "geonameId": 695711,
    "name": "Gora Rebra",
    "latitude": 48.11124,
    "longitude": 24.5579,
    "category": "Mountain",
    "subcategory": "Mountain",
    "featured": false,
    "priority": 50
  },
  {
    "geonameId": 695528,
    "name": "Gora Roka",
    "latitude": 44.50586,
    "longitude": 34.07534,
    "category": "Mountain",
    "subcategory": "Mountain",
    "featured": false,
    "priority": 50
  },
  {
    "geonameId": 695527,
    "name": "Gora Roketa Mala",
    "latitude": 48.41557,
    "longitude": 24.69074,
    "category": "Mountain",
    "subcategory": "Mountain",
    "featured": false,
    "priority": 50
  },
  {
    "geonameId": 695526,
    "name": "Gora Roketa Vel’ka",
    "latitude": 48.41667,
    "longitude": 24.7,
    "category": "Mountain",
    "subcategory": "Mountain",
    "featured": false,
    "priority": 50
  },
  {
    "geonameId": 695457,
    "name": "Gora Ropechel",
    "latitude": 47.83333,
    "longitude": 25.15,
    "category": "Mountain",
    "subcategory": "Mountain",
    "featured": false,
    "priority": 50
  },
  {
    "geonameId": 695373,
    "name": "Gora Rovnaya",
    "latitude": 48.76667,
    "longitude": 23.38333,
    "category": "Mountain",
    "subcategory": "Mountain",
    "featured": false,
    "priority": 50
  },
  {
    "geonameId": 695090,
    "name": "Gora Ruzha",
    "latitude": 48.35,
    "longitude": 23.78333,
    "category": "Mountain",
    "subcategory": "Mountain",
    "featured": false,
    "priority": 50
  },
  {
    "geonameId": 694923,
    "name": "Gora Sakharnaya-Golovka",
    "latitude": 44.58823,
    "longitude": 33.63059,
    "category": "Mountain",
    "subcategory": "Mountain",
    "featured": false,
    "priority": 50
  },
  {
    "geonameId": 7040131,
    "name": "Gora Sel’-Bykhra",
    "latitude": 44.73587,
    "longitude": 33.98994,
    "category": "Mountain",
    "subcategory": "Mountain",
    "featured": false,
    "priority": 50
  },
  {
    "geonameId": 694412,
    "name": "Gora Severnaya Demerdzhi",
    "latitude": 44.7793,
    "longitude": 34.38996,
    "category": "Mountain",
    "subcategory": "Mountain",
    "featured": false,
    "priority": 50
  },
  {
    "geonameId": 693773,
    "name": "Gora Sinyak",
    "latitude": 48.4,
    "longitude": 23.18333,
    "category": "Mountain",
    "subcategory": "Mountain",
    "featured": false,
    "priority": 50
  },
  {
    "geonameId": 8061263,
    "name": "Gora Sonovichi",
    "latitude": 51.83497,
    "longitude": 25.18842,
    "category": "Mountain",
    "subcategory": "Mountain",
    "featured": false,
    "priority": 50
  },
  {
    "geonameId": 692072,
    "name": "Gora Svidova",
    "latitude": 48.35868,
    "longitude": 24.02131,
    "category": "Mountain",
    "subcategory": "Mountain",
    "featured": false,
    "priority": 50
  },
  {
    "geonameId": 691995,
    "name": "Gora Synechka",
    "latitude": 48.48053,
    "longitude": 24.47404,
    "category": "Mountain",
    "subcategory": "Mountain",
    "featured": false,
    "priority": 50
  },
  {
    "geonameId": 691831,
    "name": "Gora Tarosh",
    "latitude": 48.59448,
    "longitude": 23.06454,
    "category": "Mountain",
    "subcategory": "Mountain",
    "featured": false,
    "priority": 50
  },
  {
    "geonameId": 691770,
    "name": "Gora Tay-Koba",
    "latitude": 44.83333,
    "longitude": 34.5,
    "category": "Mountain",
    "subcategory": "Mountain",
    "featured": false,
    "priority": 50
  },
  {
    "geonameId": 691472,
    "name": "Gora Tokarnya",
    "latitude": 48.63149,
    "longitude": 22.47949,
    "category": "Mountain",
    "subcategory": "Mountain",
    "featured": false,
    "priority": 50
  },
  {
    "geonameId": 691415,
    "name": "Gora Tomna-Tikul",
    "latitude": 47.76667,
    "longitude": 25.03333,
    "category": "Mountain",
    "subcategory": "Mountain",
    "featured": false,
    "priority": 50
  },
  {
    "geonameId": 691072,
    "name": "Gora Tsuptseryn",
    "latitude": 48.41552,
    "longitude": 23.96725,
    "category": "Mountain",
    "subcategory": "Mountain",
    "featured": false,
    "priority": 50
  },
  {
    "geonameId": 690765,
    "name": "Gora Ukrid",
    "latitude": 48.73333,
    "longitude": 23.43333,
    "category": "Mountain",
    "subcategory": "Mountain",
    "featured": false,
    "priority": 50
  },
  {
    "geonameId": 690484,
    "name": "Gora Vapnyarka",
    "latitude": 49.55,
    "longitude": 24.26667,
    "category": "Mountain",
    "subcategory": "Mountain",
    "featured": false,
    "priority": 50
  },
  {
    "geonameId": 690260,
    "name": "Gora Velikaya Gorotan’",
    "latitude": 48.36749,
    "longitude": 22.9433,
    "category": "Mountain",
    "subcategory": "Mountain",
    "featured": false,
    "priority": 50
  },
  {
    "geonameId": 690138,
    "name": "Gora Velikiy Kamen’",
    "latitude": 48.41363,
    "longitude": 22.89991,
    "category": "Mountain",
    "subcategory": "Mountain",
    "featured": false,
    "priority": 50
  },
  {
    "geonameId": 690094,
    "name": "Gora Velikiy Zamok",
    "latitude": 48.71667,
    "longitude": 23.31667,
    "category": "Mountain",
    "subcategory": "Mountain",
    "featured": false,
    "priority": 50
  },
  {
    "geonameId": 689646,
    "name": "Gora Vezha",
    "latitude": 48.27048,
    "longitude": 23.61564,
    "category": "Mountain",
    "subcategory": "Mountain",
    "featured": false,
    "priority": 50
  },
  {
    "geonameId": 688693,
    "name": "Gora Vysokiy Gorb",
    "latitude": 48.84533,
    "longitude": 23.02886,
    "category": "Mountain",
    "subcategory": "Mountain",
    "featured": false,
    "priority": 50
  },
  {
    "geonameId": 688692,
    "name": "Gora Vysokiy Tyn",
    "latitude": 48.74935,
    "longitude": 23.31891,
    "category": "Mountain",
    "subcategory": "Mountain",
    "featured": false,
    "priority": 50
  },
  {
    "geonameId": 688396,
    "name": "Gora Yaseneva",
    "latitude": 48.45315,
    "longitude": 23.29802,
    "category": "Mountain",
    "subcategory": "Mountain",
    "featured": false,
    "priority": 50
  },
  {
    "geonameId": 688290,
    "name": "Gora Yavornik",
    "latitude": 48.77669,
    "longitude": 23.28532,
    "category": "Mountain",
    "subcategory": "Mountain",
    "featured": false,
    "priority": 50
  },
  {
    "geonameId": 688268,
    "name": "Gora Yechki-Dag",
    "latitude": 44.9,
    "longitude": 35.13333,
    "category": "Mountain",
    "subcategory": "Mountain",
    "featured": false,
    "priority": 50
  },
  {
    "geonameId": 8063908,
    "name": "Gora Yosifova",
    "latitude": 51.68973,
    "longitude": 24.22515,
    "category": "Mountain",
    "subcategory": "Mountain",
    "featured": false,
    "priority": 50
  },
  {
    "geonameId": 687922,
    "name": "Gora Zadnya",
    "latitude": 48.52763,
    "longitude": 23.85747,
    "category": "Mountain",
    "subcategory": "Mountain",
    "featured": false,
    "priority": 50
  },
  {
    "geonameId": 687282,
    "name": "Gora Zeytin-Kosh",
    "latitude": 44.61786,
    "longitude": 34.28227,
    "category": "Mountain",
    "subcategory": "Mountain",
    "featured": false,
    "priority": 50
  },
  {
    "geonameId": 687117,
    "name": "Gora Zhlobki",
    "latitude": 48.5711,
    "longitude": 23.11864,
    "category": "Mountain",
    "subcategory": "Mountain",
    "featured": false,
    "priority": 50
  },
  {
    "geonameId": 687100,
    "name": "Gora Zhornina",
    "latitude": 48.48983,
    "longitude": 22.72584,
    "category": "Mountain",
    "subcategory": "Mountain",
    "featured": false,
    "priority": 50
  },
  {
    "geonameId": 686935,
    "name": "Gora Zlobski",
    "latitude": 48.48333,
    "longitude": 23.05,
    "category": "Mountain",
    "subcategory": "Mountain",
    "featured": false,
    "priority": 50
  },
  {
    "geonameId": 708405,
    "name": "Gornostayevka",
    "latitude": 45.27819,
    "longitude": 36.18601,
    "category": "City",
    "subcategory": "District Seat",
    "featured": false,
    "priority": 50
  },
  {
    "geonameId": 708061,
    "name": "Grishino",
    "latitude": 45.64219,
    "longitude": 33.83098,
    "category": "City",
    "subcategory": "District Seat",
    "featured": false,
    "priority": 50
  },
  {
    "geonameId": 708043,
    "name": "Grofa",
    "latitude": 48.62048,
    "longitude": 23.93239,
    "category": "Mountain",
    "subcategory": "Mountain",
    "featured": false,
    "priority": 50
  },
  {
    "geonameId": 6941135,
    "name": "Gropa",
    "latitude": 48.37735,
    "longitude": 24.16537,
    "category": "Mountain",
    "subcategory": "Mountain",
    "featured": false,
    "priority": 50
  },
  {
    "geonameId": 709054,
    "name": "Hadyach",
    "latitude": 50.36912,
    "longitude": 33.997,
    "category": "City",
    "subcategory": "County Seat",
    "featured": false,
    "priority": 50
  },
  {
    "geonameId": 709034,
    "name": "Halych",
    "latitude": 49.12374,
    "longitude": 24.72748,
    "category": "City",
    "subcategory": "County Seat",
    "featured": false,
    "priority": 50
  },
  {
    "geonameId": 713339,
    "name": "Hannivka",
    "latitude": 48.19723,
    "longitude": 31.89559,
    "category": "City",
    "subcategory": "District Seat",
    "featured": false,
    "priority": 50
  },
  {
    "geonameId": 713360,
    "name": "Hannopil",
    "latitude": 50.45252,
    "longitude": 26.89771,
    "category": "City",
    "subcategory": "District Seat",
    "featured": false,
    "priority": 50
  },
  {
    "geonameId": 708953,
    "name": "Haspra",
    "latitude": 44.43633,
    "longitude": 34.1125,
    "category": "City",
    "subcategory": "City",
    "featured": false,
    "priority": 50
  },
  {
    "geonameId": 708946,
    "name": "Hatne",
    "latitude": 50.35579,
    "longitude": 30.40582,
    "category": "City",
    "subcategory": "District Seat",
    "featured": false,
    "priority": 50
  },
  {
    "geonameId": 710433,
    "name": "Havrylivka",
    "latitude": 47.07117,
    "longitude": 34.70785,
    "category": "City",
    "subcategory": "District Seat",
    "featured": false,
    "priority": 50
  },
  {
    "geonameId": 708901,
    "name": "Haysyn",
    "latitude": 48.81294,
    "longitude": 29.37917,
    "category": "City",
    "subcategory": "County Seat",
    "featured": false,
    "priority": 50
  },
  {
    "geonameId": 708898,
    "name": "Hayvoron",
    "latitude": 48.34323,
    "longitude": 29.86592,
    "category": "City",
    "subcategory": "County Seat",
    "featured": false,
    "priority": 50
  },
  {
    "geonameId": 13519314,
    "name": "Helmiaziv",
    "latitude": 49.82174,
    "longitude": 31.83582,
    "category": "City",
    "subcategory": "District Seat",
    "featured": false,
    "priority": 50
  },
  {
    "geonameId": 708878,
    "name": "Henichesk",
    "latitude": 46.16824,
    "longitude": 34.80861,
    "category": "City",
    "subcategory": "County Seat",
    "featured": false,
    "priority": 50
  },
  {
    "geonameId": 708863,
    "name": "Heorhiivka",
    "latitude": 48.42278,
    "longitude": 39.25278,
    "category": "City",
    "subcategory": "City",
    "featured": false,
    "priority": 50
  },
  {
    "geonameId": 7036030,
    "name": "Heroyske",
    "latitude": 45.13857,
    "longitude": 33.74675,
    "category": "City",
    "subcategory": "District Seat",
    "featured": false,
    "priority": 50
  },
  {
    "geonameId": 12555061,
    "name": "Hetmasnkyi Natsionalnyi Park",
    "latitude": 50.41044,
    "longitude": 35.33712,
    "category": "Park",
    "subcategory": "Park",
    "featured": false,
    "priority": 50
  },
  {
    "geonameId": 708395,
    "name": "Hirnyk",
    "latitude": 48.05728,
    "longitude": 37.3716,
    "category": "City",
    "subcategory": "City",
    "featured": false,
    "priority": 50
  },
  {
    "geonameId": 708273,
    "name": "Hirske",
    "latitude": 48.74046,
    "longitude": 38.49596,
    "category": "City",
    "subcategory": "District Seat",
    "featured": false,
    "priority": 50
  },
  {
    "geonameId": 708806,
    "name": "Hladkovychi",
    "latitude": 51.33524,
    "longitude": 28.89431,
    "category": "City",
    "subcategory": "District Seat",
    "featured": false,
    "priority": 50
  },
  {
    "geonameId": 829108,
    "name": "Hleiuvatka",
    "latitude": 48.04743,
    "longitude": 33.43337,
    "category": "City",
    "subcategory": "District Seat",
    "featured": false,
    "priority": 50
  },