[
  {
    "geonameId": 235591,
    "name": "Abchekwess",
    "latitude": 1.36667,
    "longitude": 34.53333,
    "category": "Mountain",
    "subcategory": "Mountain",
    "featured": false,
    "priority": 50
  },
  {
    "geonameId": 235575,
    "name": "Abiba",
    "latitude": 2.53641,
    "longitude": 31.07293,
    "category": "Mountain",
    "subcategory": "Mountain",
    "featured": false,
    "priority": 50
  },
  {
    "geonameId": 235574,
    "name": "Abim",
    "latitude": 2.70167,
    "longitude": 33.67611,
    "category": "City",
    "subcategory": "County Seat",
    "featured": false,
    "priority": 50
  },
  {
    "geonameId": 235489,
    "name": "Adjumani",
    "latitude": 3.37786,
    "longitude": 31.7909,
    "category": "City",
    "subcategory": "County Seat",
    "featured": false,
    "priority": 50
  },
  {
    "geonameId": 8261528,
    "name": "Agago",
    "latitude": 2.83383,
    "longitude": 33.33361,
    "category": "City",
    "subcategory": "County Seat",
    "featured": false,
    "priority": 50
  },
  {
    "geonameId": 235443,
    "name": "Agirigiryoi Island",
    "latitude": 1.51667,
    "longitude": 34.21667,
    "category": "Island",
    "subcategory": "Island",
    "featured": false,
    "priority": 50
  },
  {
    "geonameId": 235368,
    "name": "Akarundi",
    "latitude": -0.85,
    "longitude": 30.18333,
    "category": "Mountain",
    "subcategory": "Mountain",
    "featured": false,
    "priority": 50
  },
  {
    "geonameId": 235365,
    "name": "Akatozo",
    "latitude": -0.86667,
    "longitude": 31.15,
    "category": "Mountain",
    "subcategory": "Mountain",
    "featured": false,
    "priority": 50
  },
  {
    "geonameId": 8694130,
    "name": "Aki",
    "latitude": 3.3987,
    "longitude": 33.60779,
    "category": "Mountain",
    "subcategory": "Mountain",
    "featured": false,
    "priority": 50
  },
  {
    "geonameId": 8695754,
    "name": "Akidoyi",
    "latitude": 3.71131,
    "longitude": 33.60147,
    "category": "Mountain",
    "subcategory": "Mountain",
    "featured": false,
    "priority": 50
  },
  {
    "geonameId": 235350,
    "name": "Akika Island",
    "latitude": -0.05,
    "longitude": 30.16667,
    "category": "Island",
    "subcategory": "Island",
    "featured": false,
    "priority": 50
  },
  {
    "geonameId": 235344,
    "name": "Akisim",
    "latitude": 2.11667,
    "longitude": 34.2,
    "category": "Mountain",
    "subcategory": "Mountain",
    "featured": false,
    "priority": 50
  },
  {
    "geonameId": 235335,
    "name": "Akor",
    "latitude": 2.68333,
    "longitude": 33.63333,
    "category": "Mountain",
    "subcategory": "Mountain",
    "featured": false,
    "priority": 50
  },
  {
    "geonameId": 235319,
    "name": "Akur",
    "latitude": 2.68333,
    "longitude": 33.68333,
    "category": "Mountain",
    "subcategory": "Mountain",
    "featured": false,
    "priority": 50
  },
  {
    "geonameId": 235293,
    "name": "Alebtong",
    "latitude": 2.24472,
    "longitude": 33.25472,
    "category": "City",
    "subcategory": "County Seat",
    "featured": false,
    "priority": 50
  },
  {
    "geonameId": 7909178,
    "name": "Alexandra",
    "latitude": 0.38417,
    "longitude": 29.87198,
    "category": "Mountain",
    "subcategory": "Peak",
    "featured": false,
    "priority": 50
  },
  {
    "geonameId": 235203,
    "name": "Amolatar",
    "latitude": 1.61556,
    "longitude": 32.83972,
    "category": "City",
    "subcategory": "County Seat",
    "featured": false,
    "priority": 50
  },
  {
    "geonameId": 235191,
    "name": "Amudat",
    "latitude": 1.95,
    "longitude": 34.95,
    "category": "City",
    "subcategory": "County Seat",
    "featured": false,
    "priority": 50
  },
  {
    "geonameId": 235186,
    "name": "Amuria",
    "latitude": 2.00361,
    "longitude": 33.65111,
    "category": "City",
    "subcategory": "County Seat",
    "featured": false,
    "priority": 50
  },
  {
    "geonameId": 8015635,
    "name": "Amuru",
    "latitude": 2.81388,
    "longitude": 31.93868,
    "category": "City",
    "subcategory": "County Seat",
    "featured": false,
    "priority": 50
  },
  {
    "geonameId": 235183,
    "name": "Amusiata Island",
    "latitude": 1.51667,
    "longitude": 34.2,
    "category": "Island",
    "subcategory": "Island",
    "featured": false,
    "priority": 50
  },
  {
    "geonameId": 235178,
    "name": "Anaka",
    "latitude": 2.60114,
    "longitude": 31.94749,
    "category": "City",
    "subcategory": "City",
    "featured": false,
    "priority": 50
  },
  {
    "geonameId": 235163,
    "name": "Angolebwal",
    "latitude": 2.56667,
    "longitude": 33.83333,
    "category": "Mountain",
    "subcategory": "Mountain",
    "featured": false,
    "priority": 50
  },
  {
    "geonameId": 11525215,
    "name": "Anok Island",
    "latitude": 1.76129,
    "longitude": 32.69676,
    "category": "Island",
    "subcategory": "Island",
    "featured": false,
    "priority": 50
  },
  {
    "geonameId": 8142381,
    "name": "Anyi Island",
    "latitude": 3.50772,
    "longitude": 31.72246,
    "category": "Island",
    "subcategory": "Island",
    "featured": false,
    "priority": 50
  },
  {
    "geonameId": 235130,
    "name": "Apac",
    "latitude": 1.97556,
    "longitude": 32.53861,
    "category": "City",
    "subcategory": "County Seat",
    "featured": false,
    "priority": 50
  },
  {
    "geonameId": 235065,
    "name": "Arebe",
    "latitude": 3.11289,
    "longitude": 31.92866,
    "category": "Mountain",
    "subcategory": "Mountain",
    "featured": false,
    "priority": 50
  },
  {
    "geonameId": 235039,
    "name": "Arua",
    "latitude": 3.02013,
    "longitude": 30.91105,
    "category": "City",
    "subcategory": "County Seat",
    "featured": false,
    "priority": 50
  },
  {
    "geonameId": 234924,
    "name": "Ayass",
    "latitude": 1.8,
    "longitude": 34.81667,
    "category": "Mountain",
    "subcategory": "Mountain",
    "featured": false,
    "priority": 50
  },
  {
    "geonameId": 8142249,
    "name": "Ayugi",
    "latitude": 3.14475,
    "longitude": 31.77798,
    "category": "Mountain",
    "subcategory": "Mountain",
    "featured": false,
    "priority": 50
  },
  {
    "geonameId": 234898,
    "name": "Baga Island",
    "latitude": -0.08333,
    "longitude": 33.36667,
    "category": "Island",
    "subcategory": "Island",
    "featured": false,
    "priority": 50
  },
  {
    "geonameId": 234893,
    "name": "Bagwe Island",
    "latitude": 0.36667,
    "longitude": 31.91667,
    "category": "Island",
    "subcategory": "Island",
    "featured": false,
    "priority": 50
  },
  {
    "geonameId": 234887,
    "name": "Baker",
    "latitude": 0.3655,
    "longitude": 29.89281,
    "category": "Mountain",
    "subcategory": "Mountain",
    "featured": false,
    "priority": 50
  },
  {
    "geonameId": 234886,
    "name": "Bakers View",
    "latitude": 1.23333,
    "longitude": 30.76667,
    "category": "Mountain",
    "subcategory": "Mountain",
    "featured": false,
    "priority": 50
  },
  {
    "geonameId": 234853,
    "name": "Banda Island",
    "latitude": -0.25,
    "longitude": 32.4,
    "category": "Island",
    "subcategory": "Island",
    "featured": false,
    "priority": 50
  },
  {
    "geonameId": 234834,
    "name": "Batoda",
    "latitude": 0.28333,
    "longitude": 29.86667,
    "category": "Mountain",
    "subcategory": "Peak",
    "featured": false,
    "priority": 50
  },
  {
    "geonameId": 11357760,
    "name": "Batwala",
    "latitude": -0.00022,
    "longitude": 32.75067,
    "category": "Island",
    "subcategory": "Island",
    "featured": false,
    "priority": 50
  },
  {
    "geonameId": 234815,
    "name": "Bichuba",
    "latitude": -0.93333,
    "longitude": 30.73333,
    "category": "Mountain",
    "subcategory": "Mountain",
    "featured": false,
    "priority": 50
  },
  {
    "geonameId": 234797,
    "name": "Bihangire",
    "latitude": -1.03333,
    "longitude": 29.88333,
    "category": "Mountain",
    "subcategory": "Mountain",
    "featured": false,
    "priority": 50
  },
  {
    "geonameId": 234792,
    "name": "Bikari",
    "latitude": -1.35,
    "longitude": 30.08333,
    "category": "Mountain",
    "subcategory": "Mountain",
    "featured": false,
    "priority": 50
  },
  {
    "geonameId": 234776,
    "name": "Biniga",
    "latitude": -1.06667,
    "longitude": 29.61667,
    "category": "Mountain",
    "subcategory": "Mountain",
    "featured": false,
    "priority": 50
  },
  {
    "geonameId": 234769,
    "name": "Binyiny",
    "latitude": 1.41667,
    "longitude": 34.53333,
    "category": "City",
    "subcategory": "County Seat",
    "featured": false,
    "priority": 50
  },
  {
    "geonameId": 234765,
    "name": "Birala",
    "latitude": -1.2,
    "longitude": 29.73333,
    "category": "Mountain",
    "subcategory": "Mountain",
    "featured": false,
    "priority": 50
  },
  {
    "geonameId": 234734,
    "name": "Bituntu",
    "latitude": -0.83333,
    "longitude": 30.5,
    "category": "Mountain",
    "subcategory": "Mountain",
    "featured": false,
    "priority": 50
  },
  {
    "geonameId": 234733,
    "name": "Bivungu",
    "latitude": -0.96667,
    "longitude": 30.58333,
    "category": "Mountain",
    "subcategory": "Mountain",
    "featured": false,
    "priority": 50
  },
  {
    "geonameId": 234717,
    "name": "Bombo",
    "latitude": 0.57387,
    "longitude": 32.51545,
    "category": "City",
    "subcategory": "City",
    "featured": false,
    "priority": 50
  },
  {
    "geonameId": 7909187,
    "name": "Bottego",
    "latitude": 0.42916,
    "longitude": 29.9152,
    "category": "Mountain",
    "subcategory": "Peak",
    "featured": false,
    "priority": 50
  },
  {
    "geonameId": 234475,
    "name": "Bu Island",
    "latitude": 0.00098,
    "longitude": 32.93874,
    "category": "Island",
    "subcategory": "Island",
    "featured": false,
    "priority": 50
  },
  {
    "geonameId": 234697,
    "name": "Bubale",
    "latitude": -1.1,
    "longitude": 29.71667,
    "category": "Mountain",
    "subcategory": "Mountain",
    "featured": false,
    "priority": 50
  },
  {
    "geonameId": 234686,
    "name": "Bubeke Island",
    "latitude": -0.29944,
    "longitude": 32.57028,
    "category": "Island",
    "subcategory": "Island",
    "featured": false,
    "priority": 50
  },
  {
    "geonameId": 234685,
    "name": "Bubembe Island",
    "latitude": -0.42417,
    "longitude": 32.30806,
    "category": "Island",
    "subcategory": "Island",
    "featured": false,
    "priority": 50
  },
  {
    "geonameId": 234660,
    "name": "Budadiri",
    "latitude": 1.14806,
    "longitude": 34.32611,
    "category": "City",
    "subcategory": "City",
    "featured": false,
    "priority": 50
  },
  {
    "geonameId": 234658,
    "name": "Budaka",
    "latitude": 1.00389,
    "longitude": 33.92556,
    "category": "City",
    "subcategory": "County Seat",
    "featured": false,
    "priority": 50
  },
  {
    "geonameId": 234637,
    "name": "Bududa",
    "latitude": 1.01118,
    "longitude": 34.33112,
    "category": "City",
    "subcategory": "County Seat",
    "featured": false,
    "priority": 50
  },
  {
    "geonameId": 234624,
    "name": "Bufumira Island",
    "latitude": -0.33972,
    "longitude": 32.42417,
    "category": "Island",
    "subcategory": "Island",
    "featured": false,
    "priority": 50
  },
  {
    "geonameId": 234619,
    "name": "Bugaba Island",
    "latitude": -0.37861,
    "longitude": 32.34694,
    "category": "Island",
    "subcategory": "Island",
    "featured": false,
    "priority": 50
  },
  {
    "geonameId": 234612,
    "name": "Bugaia Island",
    "latitude": 0.04591,
    "longitude": 33.26958,
    "category": "Island",
    "subcategory": "Island",
    "featured": false,
    "priority": 50
  },
  {
    "geonameId": 234609,
    "name": "Bugala Island",
    "latitude": -0.63861,
    "longitude": 32.31194,
    "category": "Island",
    "subcategory": "Island",
    "featured": false,
    "priority": 50
  },
  {
    "geonameId": 234603,
    "name": "Bugamba",
    "latitude": -0.75,
    "longitude": 30.46667,
    "category": "Mountain",
    "subcategory": "Mountain",
    "featured": false,
    "priority": 50
  },
  {
    "geonameId": 234595,
    "name": "Bugana Island",
    "latitude": 1.18333,
    "longitude": 33.81667,
    "category": "Island",
    "subcategory": "Island",
    "featured": false,
    "priority": 50
  },
  {
    "geonameId": 234578,
    "name": "Bugembe",
    "latitude": 0.48213,
    "longitude": 33.24065,
    "category": "City",
    "subcategory": "City",
    "featured": false,
    "priority": 50
  },
  {
    "geonameId": 234559,
    "name": "Bugiri",
    "latitude": -1.16667,
    "longitude": 29.9,
    "category": "Mountain",
    "subcategory": "Mountain",
    "featured": false,
    "priority": 50
  },
  {
    "geonameId": 11401728,
    "name": "Buhamya",
    "latitude": 0.69513,
    "longitude": 30.15023,
    "category": "Mountain",
    "subcategory": "Peak",
    "featured": false,
    "priority": 50
  },
  {
    "geonameId": 234497,
    "name": "Buhesi",
    "latitude": 0.58105,
    "longitude": 30.21011,
    "category": "City",
    "subcategory": "City",
    "featured": false,
    "priority": 50
  },
  {
    "geonameId": 234496,
    "name": "Buhimba",
    "latitude": 1.34722,
    "longitude": 31.30806,
    "category": "City",
    "subcategory": "City",
    "featured": false,
    "priority": 50
  },
  {
    "geonameId": 234485,
    "name": "Buhungurua",
    "latitude": -0.83333,
    "longitude": 30.75,
    "category": "Mountain",
    "subcategory": "Mountain",
    "featured": false,
    "priority": 50
  },
  {
    "geonameId": 8261527,
    "name": "Buhweju",
    "latitude": -0.35027,
    "longitude": 30.30029,
    "category": "City",
    "subcategory": "County Seat",
    "featured": false,
    "priority": 50
  },
  {
    "geonameId": 234481,
    "name": "Buiga Island",
    "latitude": 0.09176,
    "longitude": 32.33072,
    "category": "Island",
    "subcategory": "Island",
    "featured": false,
    "priority": 50
  },
  {
    "geonameId": 234480,
    "name": "Buikwe",
    "latitude": 0.3375,
    "longitude": 33.01056,
    "category": "City",
    "subcategory": "County Seat",
    "featured": false,
    "priority": 50
  },
  {
    "geonameId": 234419,
    "name": "Bukasa Island",
    "latitude": -0.40722,
    "longitude": 32.47806,
    "category": "Island",
    "subcategory": "Island",
    "featured": false,
    "priority": 50
  },
  {
    "geonameId": 234412,
    "name": "Bukedea",
    "latitude": 1.31694,
    "longitude": 34.05056,
    "category": "City",
    "subcategory": "County Seat",
    "featured": false,
    "priority": 50
  },
  {
    "geonameId": 234371,
    "name": "Bukomansimbi",
    "latitude": -0.15778,
    "longitude": 31.60417,
    "category": "City",
    "subcategory": "County Seat",
    "featured": false,
    "priority": 50
  },
  {
    "geonameId": 234368,
    "name": "Bukomero",
    "latitude": 0.6975,
    "longitude": 32.02861,
    "category": "City",
    "subcategory": "City",
    "featured": false,
    "priority": 50
  },
  {
    "geonameId": 234363,
    "name": "Bukone Island",
    "latitude": -0.23333,
    "longitude": 32.33333,
    "category": "Island",
    "subcategory": "Island",
    "featured": false,
    "priority": 50
  },
  {
    "geonameId": 234334,
    "name": "Bukusu",
    "latitude": 0.87097,
    "longitude": 34.27095,
    "category": "Mountain",
    "subcategory": "Mountain",
    "featured": false,
    "priority": 50
  },
  {
    "geonameId": 234329,
    "name": "Bukuya",
    "latitude": 0.67861,
    "longitude": 31.81972,
    "category": "City",
    "subcategory": "City",
    "featured": false,
    "priority": 50
  },
  {
    "geonameId": 234328,
    "name": "Bukwa",
    "latitude": 1.25917,
    "longitude": 34.75389,
    "category": "City",
    "subcategory": "County Seat",
    "featured": false,
    "priority": 50
  },
  {
    "geonameId": 234323,
    "name": "Bukwaya Island",
    "latitude": 0.16528,
    "longitude": 33.15833,
    "category": "Island",
    "subcategory": "Island",
    "featured": false,
    "priority": 50
  },
  {
    "geonameId": 234317,
    "name": "Bulago Island",
    "latitude": -0.06417,
    "longitude": 32.58361,
    "category": "Island",
    "subcategory": "Island",
    "featured": false,
    "priority": 50
  },
  {
    "geonameId": 234306,
    "name": "Bulambuli",
    "latitude": 1.309,
    "longitude": 34.283,
    "category": "City",
    "subcategory": "County Seat",
    "featured": false,
    "priority": 50
  },
  {
    "geonameId": 11356294,
    "name": "Bulanku Island",
    "latitude": 0.17717,
    "longitude": 33.15463,
    "category": "Island",
    "subcategory": "Island",
    "featured": false,
    "priority": 50
  },
  {
    "geonameId": 234259,
    "name": "Buliisa",
    "latitude": 2.11781,
    "longitude": 31.41163,
    "category": "City",
    "subcategory": "County Seat",
    "featured": false,
    "priority": 50
  },
  {
    "geonameId": 234260,
    "name": "Bulingugwe Island",
    "latitude": 0.22392,
    "longitude": 32.63052,
    "category": "Island",
    "subcategory": "Island",
    "featured": false,
    "priority": 50
  },
  {
    "geonameId": 11865274,
    "name": "Bulongo Island",
    "latitude": 1.62244,
    "longitude": 33.23325,
    "category": "Island",
    "subcategory": "Island",
    "featured": false,
    "priority": 50
  },
  {
    "geonameId": 234194,
    "name": "Bumondo",
    "latitude": -0.95,
    "longitude": 30.33333,
    "category": "Mountain",
    "subcategory": "Mountain",
    "featured": false,
    "priority": 50
  },
  {
    "geonameId": 234179,
    "name": "Bunamwaya",
    "latitude": 0.25344,
    "longitude": 32.55723,
    "category": "City",
    "subcategory": "City",
    "featured": false,
    "priority": 50
  },
  {
    "geonameId": 234178,
    "name": "Bundibugyo",
    "latitude": 0.71117,
    "longitude": 30.06469,
    "category": "City",
    "subcategory": "County Seat",
    "featured": false,
    "priority": 50
  },
  {
    "geonameId": 234164,
    "name": "Bunjako Island",
    "latitude": 0.00278,
    "longitude": 32.13444,
    "category": "Island",
    "subcategory": "Island",
    "featured": false,
    "priority": 50
  },
  {
    "geonameId": 234162,
    "name": "Bunjazi Island",
    "latitude": -0.35,
    "longitude": 32.51667,
    "category": "Island",
    "subcategory": "Island",
    "featured": false,
    "priority": 50
  },
  {
    "geonameId": 234155,
    "name": "Bunyama Island",
    "latitude": -0.39224,
    "longitude": 32.30667,
    "category": "Island",
    "subcategory": "Island",
    "featured": false,
    "priority": 50
  },
  {
    "geonameId": 234140,
    "name": "Bupoto",
    "latitude": 0.90611,
    "longitude": 34.35778,
    "category": "City",
    "subcategory": "Local Seat",
    "featured": false,
    "priority": 50
  },
  {
    "geonameId": 234132,
    "name": "Buranga Pass",
    "latitude": 0.83701,
    "longitude": 30.20846,
    "category": "Mountain",
    "subcategory": "Mountain Pass",
    "featured": false,
    "priority": 50
  },
  {
    "geonameId": 234127,
    "name": "Burimbi",
    "latitude": -0.98333,
    "longitude": 29.83333,
    "category": "Mountain",
    "subcategory": "Mountain",
    "featured": false,
    "priority": 50
  },
  {
    "geonameId": 234092,
    "name": "Busembatia",
    "latitude": 0.77725,
    "longitude": 33.62364,
    "category": "City",
    "subcategory": "City",
    "featured": false,
    "priority": 50
  },
  {
    "geonameId": 234088,
    "name": "Busesa",
    "latitude": 0.62631,
    "longitude": 33.60027,
    "category": "City",
    "subcategory": "City",
    "featured": false,
    "priority": 50
  },
  {
    "geonameId": 234081,
    "name": "Bushenyi",
    "latitude": -0.53695,
    "longitude": 30.18579,
    "category": "City",
    "subcategory": "County Seat",
    "featured": false,
    "priority": 50
  },
  {
    "geonameId": 234077,
    "name": "Busia",
    "latitude": 0.46588,
    "longitude": 34.09221,
    "category": "City",
    "subcategory": "County Seat",
    "featured": false,
    "priority": 50
  },
  {
    "geonameId": 234043,
    "name": "Busolwe",
    "latitude": 0.85007,
    "longitude": 33.92624,
    "category": "City",
    "subcategory": "City",
    "featured": false,
    "priority": 50
  },
  {
    "geonameId": 234035,
    "name": "Busowa Falls",
    "latitude": 0.58333,
    "longitude": 33.07444,
    "category": "Waterfall",
    "subcategory": "Waterfall",
    "featured": false,
    "priority": 50
  },
  {
    "geonameId": 234034,
    "name": "Bussi Island",
    "latitude": 0.04917,
    "longitude": 32.32667,
    "category": "Island",
    "subcategory": "Island",
    "featured": false,
    "priority": 50
  },
  {
    "geonameId": 11401774,
    "name": "Busunga",
    "latitude": 0.64071,
    "longitude": 29.9642,
    "category": "Mountain",
    "subcategory": "Peak",
    "featured": false,
    "priority": 50
  },
  {
    "geonameId": 234021,
    "name": "Busungwe Island",
    "latitude": -0.95,
    "longitude": 31.78333,
    "category": "Island",
    "subcategory": "Island",
    "featured": false,
    "priority": 50
  },
  {
    "geonameId": 234004,
    "name": "Butaleja",
    "latitude": 0.91194,
    "longitude": 33.95111,
    "category": "City",
    "subcategory": "County Seat",
    "featured": false,
    "priority": 50
  },
  {
    "geonameId": 233982,
    "name": "Butebo",
    "latitude": 1.19417,
    "longitude": 33.92222,
    "category": "City",
    "subcategory": "County Seat",
    "featured": false,
    "priority": 50
  },
  {
    "geonameId": 233975,
    "name": "Butemba",
    "latitude": 1.15944,
    "longitude": 31.61083,
    "category": "City",
    "subcategory": "City",
    "featured": false,
    "priority": 50
  },
  {
    "geonameId": 233954,
    "name": "Butimba",
    "latitude": -0.71667,
    "longitude": 30.5,
    "category": "Mountain",
    "subcategory": "Mountain",
    "featured": false,
    "priority": 50
  },
  {
    "geonameId": 233946,
    "name": "Butobole",
    "latitude": -1.2,
    "longitude": 29.9,
    "category": "Mountain",
    "subcategory": "Mountain",
    "featured": false,
    "priority": 50
  },
  {
    "geonameId": 13132713,
    "name": "Butunduzi",
    "latitude": 0.55473,
    "longitude": 30.85485,
    "category": "City",
    "subcategory": "City",
    "featured": false,
    "priority": 50
  },
  {
    "geonameId": 233931,
    "name": "Buturume Island",
    "latitude": -0.59333,
    "longitude": 32.22583,
    "category": "Island",
    "subcategory": "Island",
    "featured": false,
    "priority": 50
  },
  {
    "geonameId": 233923,
    "name": "Buvu Island",
    "latitude": -0.14972,
    "longitude": 32.24944,
    "category": "Island",
    "subcategory": "Island",
    "featured": false,
    "priority": 50
  },
  {
    "geonameId": 233918,
    "name": "Buvuma Island",
    "latitude": 0.22444,
    "longitude": 33.27333,
    "category": "Island",
    "subcategory": "Island",
    "featured": false,
    "priority": 50
  },
  {
    "geonameId": 233886,
    "name": "Buwenge",
    "latitude": 0.64996,
    "longitude": 33.17128,
    "category": "City",
    "subcategory": "City",
    "featured": false,
    "priority": 50
  },
  {
    "geonameId": 8261621,
    "name": "Buyale",
    "latitude": 1.93421,
    "longitude": 32.11643,
    "category": "City",
    "subcategory": "City",
    "featured": false,
    "priority": 50
  },
  {
    "geonameId": 233851,
    "name": "Buyange Island",
    "latitude": -0.33139,
    "longitude": 32.54944,
    "category": "Island",
    "subcategory": "Island",
    "featured": false,
    "priority": 50
  },
  {
    "geonameId": 233840,
    "name": "Buyende",
    "latitude": 1.15167,
    "longitude": 33.155,
    "category": "City",
    "subcategory": "County Seat",
    "featured": false,
    "priority": 50
  },
  {
    "geonameId": 233822,
    "name": "Buyovu Island",
    "latitude": -0.3275,
    "longitude": 32.50139,
    "category": "Island",
    "subcategory": "Island",
    "featured": false,
    "priority": 50
  },
  {
    "geonameId": 233806,
    "name": "Buziranjovu Island",
    "latitude": 0.28119,
    "longitude": 32.72819,
    "category": "Island",
    "subcategory": "Island",
    "featured": false,
    "priority": 50
  },
  {
    "geonameId": 233805,
    "name": "Buziri Island",
    "latitude": 0.14483,
    "longitude": 33.16847,
    "category": "Island",
    "subcategory": "Island",
    "featured": false,
    "priority": 50
  },
  {
    "geonameId": 233800,
    "name": "Bwahwa",
    "latitude": -0.21667,
    "longitude": 30.5,
    "category": "Mountain",
    "subcategory": "Mountain",
    "featured": false,
    "priority": 50
  },
  {
    "geonameId": 233788,
    "name": "Bwamba Pass",
    "latitude": 0.6701,
    "longitude": 30.13461,
    "category": "Mountain",
    "subcategory": "Mountain Pass",
    "featured": false,
    "priority": 50
  },
  {
    "geonameId": 233781,
    "name": "Bwangyiro",
    "latitude": -1.01667,
    "longitude": 29.76667,
    "category": "Mountain",
    "subcategory": "Mountain",
    "featured": false,
    "priority": 50
  },
  {
    "geonameId": 233768,
    "name": "Bwema Island",
    "latitude": 0.09887,
    "longitude": 33.09818,
    "category": "Island",
    "subcategory": "Island",
    "featured": false,
    "priority": 50
  },
  {
    "geonameId": 233738,
    "name": "Bweyogerere",
    "latitude": 0.35773,
    "longitude": 32.66332,
    "category": "City",
    "subcategory": "City",
    "featured": false,
    "priority": 50
  },
  {
    "geonameId": 233736,
    "name": "Bwigi Island",
    "latitude": -0.48333,
    "longitude": 32.33333,
    "category": "Island",
    "subcategory": "Island",
    "featured": false,
    "priority": 50
  },
  {
    "geonameId": 6940507,
    "name": "Bwindi Impenetrable National Park",
    "latitude": -1.08056,
    "longitude": 29.66139,
    "category": "Park",
    "subcategory": "Park",
    "featured": false,
    "priority": 50
  },
  {
    "geonameId": 233730,
    "name": "Bwizibwera",
    "latitude": -0.59167,
    "longitude": 30.62861,
    "category": "City",
    "subcategory": "City",
    "featured": false,
    "priority": 50
  },
  {
    "geonameId": 233725,
    "name": "Byakabanda",
    "latitude": -0.7425,
    "longitude": 31.40639,
    "category": "City",
    "subcategory": "City",
    "featured": false,
    "priority": 50
  },
  {
    "geonameId": 7909200,
    "name": "Cagni",
    "latitude": 0.36117,
    "longitude": 29.91927,
    "category": "Mountain",
    "subcategory": "Peak",
    "featured": false,
    "priority": 50
  },
  {
    "geonameId": 233714,
    "name": "Calyabong",
    "latitude": 2.6,
    "longitude": 33.7,
    "category": "Mountain",
    "subcategory": "Mountain",
    "featured": false,
    "priority": 50
  },
  {
    "geonameId": 233694,
    "name": "Chamsokera",
    "latitude": -1.08333,
    "longitude": 30.05,
    "category": "Mountain",
    "subcategory": "Mountain",
    "featured": false,
    "priority": 50
  },
  {
    "geonameId": 233660,
    "name": "Chikunda",
    "latitude": -0.8,
    "longitude": 30.55,
    "category": "Mountain",
    "subcategory": "Mountain",
    "featured": false,
    "priority": 50
  },
  {
    "geonameId": 233659,
    "name": "Chimondo",
    "latitude": -0.8,
    "longitude": 30.33333,
    "category": "Mountain",
    "subcategory": "Mountain",
    "featured": false,
    "priority": 50
  },
  {
    "geonameId": 233657,
    "name": "Chirongu",
    "latitude": -0.88333,
    "longitude": 30.55,
    "category": "Mountain",
    "subcategory": "Mountain",
    "featured": false,
    "priority": 50
  },
  {
    "geonameId": 233621,
    "name": "Dagusi Island",
    "latitude": 0.13552,
    "longitude": 33.5751,
    "category": "Island",
    "subcategory": "Island",
    "featured": false,
    "priority": 50
  },
  {
    "geonameId": 233613,
    "name": "Damba Island",
    "latitude": 0.01356,
    "longitude": 32.79516,
    "category": "Island",
    "subcategory": "Island",
    "featured": false,
    "priority": 50
  },
  {
    "geonameId": 233589,
    "name": "Dinzira Island",
    "latitude": -0.46667,
    "longitude": 32.38333,
    "category": "Island",
    "subcategory": "Island",
    "featured": false,
    "priority": 50
  },
  {
    "geonameId": 233563,
    "name": "Dokolo",
    "latitude": 1.89833,
    "longitude": 33.1775,
    "category": "City",
    "subcategory": "County Seat",
    "featured": false,
    "priority": 50
  },
  {
    "geonameId": 233588,
    "name": "Duwach",
    "latitude": -0.85,
    "longitude": 30.65,
    "category": "Mountain",
    "subcategory": "Mountain",
    "featured": false,
    "priority": 50
  },
  {
    "geonameId": 233586,
    "name": "Duweru Island",
    "latitude": -0.33333,
    "longitude": 33.06667,
    "category": "Island",
    "subcategory": "Island",
    "featured": false,
    "priority": 50
  },
  {
    "geonameId": 233582,
    "name": "Dwanga Mukulu",
    "latitude": -0.08333,
    "longitude": 32.81667,
    "category": "Island",
    "subcategory": "Island",
    "featured": false,
    "priority": 50
  },
  {
    "geonameId": 233581,
    "name": "Dwanga Muto",
    "latitude": -0.05,
    "longitude": 32.81667,
    "category": "Island",
    "subcategory": "Island",
    "featured": false,
    "priority": 50
  },
  {
    "geonameId": 233580,
    "name": "Dwasendwe Island",
    "latitude": -0.05,
    "longitude": 32.81667,
    "category": "Island",
    "subcategory": "Island",
    "featured": false,
    "priority": 50
  },
  {
    "geonameId": 233576,
    "name": "Dyabalume Island",
    "latitude": 0.09718,
    "longitude": 32.86183,
    "category": "Island",
    "subcategory": "Island",
    "featured": false,
    "priority": 50
  },
  {
    "geonameId": 8695874,
    "name": "Echku",
    "latitude": 3.51977,
    "longitude": 33.7181,
    "category": "Mountain",
    "subcategory": "Peak",
    "featured": false,
    "priority": 50
  },
  {
    "geonameId": 7909192,
    "name": "Edward",
    "latitude": 0.36113,
    "longitude": 29.89299,
    "category": "Mountain",
    "subcategory": "Peak",
    "featured": false,
    "priority": 50
  },
  {
    "geonameId": 233508,
    "name": "Entebbe",
    "latitude": 0.05621,
    "longitude": 32.47949,
    "category": "City",
    "subcategory": "City",
    "featured": false,
    "priority": 50
  },
  {
    "geonameId": 233494,
    "name": "Erusi",
    "latitude": 2.33089,
    "longitude": 31.08771,
    "category": "Mountain",
    "subcategory": "Mountain",
    "featured": false,
    "priority": 50
  },
  {
    "geonameId": 233495,
    "name": "Erusi East",
    "latitude": 2.33399,
    "longitude": 31.1213,
    "category": "Mountain",
    "subcategory": "Mountain",
    "featured": false,
    "priority": 50
  },
  {
    "geonameId": 233476,
    "name": "Fort Portal",
    "latitude": 0.66174,
    "longitude": 30.2748,
    "category": "City",
    "subcategory": "County Seat",
    "featured": false,
    "priority": 50
  },
  {
    "geonameId": 7909195,
    "name": "Freshfield Pass",
    "latitude": 0.34611,
    "longitude": 29.89331,
    "category": "Mountain",
    "subcategory": "Mountain Pass",
    "featured": false,
    "priority": 50
  },
  {
    "geonameId": 233474,
    "name": "Fuluma",
    "latitude": 0.92097,
    "longitude": 34.26273,
    "category": "Mountain",
    "subcategory": "Mountain",
    "featured": false,
    "priority": 50
  },
  {
    "geonameId": 233469,
    "name": "Funve Island",
    "latitude": -0.47861,
    "longitude": 32.28583,
    "category": "Island",
    "subcategory": "Island",
    "featured": false,
    "priority": 50
  },
  {
    "geonameId": 11357692,
    "name": "Galo Island",
    "latitude": 0.07031,
    "longitude": 32.92556,
    "category": "Island",
    "subcategory": "Island",
    "featured": false,
    "priority": 50
  },
  {
    "geonameId": 233382,
    "name": "Gombe",
    "latitude": 0.20333,
    "longitude": 32.08806,
    "category": "City",
    "subcategory": "County Seat",
    "featured": false,
    "priority": 50
  },
  {
    "geonameId": 233364,
    "name": "Gortheg",
    "latitude": 1.31667,
    "longitude": 34.68333,
    "category": "Mountain",
    "subcategory": "Mountain",
    "featured": false,
    "priority": 50
  },
  {
    "geonameId": 233359,
    "name": "Goula",
    "latitude": 3.79758,
    "longitude": 32.85392,
    "category": "Mountain",
    "subcategory": "Mountain",
    "featured": false,
    "priority": 50
  },
  {
    "geonameId": 11357160,
    "name": "Griffin Falls",
    "latitude": 0.44677,
    "longitude": 32.95343,
    "category": "Waterfall",
    "subcategory": "Waterfall",
    "featured": false,
    "priority": 50
  },
  {
    "geonameId": 233346,
    "name": "Gulu",
    "latitude": 2.77457,
    "longitude": 32.29899,
    "category": "City",
    "subcategory": "Regional Capital",
    "featured": false,
    "priority": 50
  },
  {
    "geonameId": 233322,
    "name": "Hambuga",
    "latitude": -0.33333,
    "longitude": 30.46667,
    "category": "Mountain",
    "subcategory": "Mountain",
    "featured": false,
    "priority": 50
  },
  {
    "geonameId": 233315,
    "name": "Hima",
    "latitude": 0.34889,
    "longitude": 30.16222,
    "category": "City",
    "subcategory": "City",
    "featured": false,
    "priority": 50
  },
  {
    "geonameId": 233312,
    "name": "Hoima",
    "latitude": 1.43314,
    "longitude": 31.35241,
    "category": "City",
    "subcategory": "County Seat",
    "featured": false,
    "priority": 50
  },
  {
    "geonameId": 448339,
    "name": "Holic",
    "latitude": 3.78167,
    "longitude": 32.91944,
    "category": "Mountain",
    "subcategory": "Mountain",
    "featured": false,
    "priority": 50
  },
  {
    "geonameId": 233297,
    "name": "Ibanda",
    "latitude": -0.11667,
    "longitude": 30.48333,
    "category": "Mountain",
    "subcategory": "Mountain",
    "featured": false,
    "priority": 50
  },
  {
    "geonameId": 233291,
    "name": "Ibok",
    "latitude": 3.22011,
    "longitude": 34.39856,
    "category": "Mountain",
    "subcategory": "Mountain",
    "featured": false,
    "priority": 50
  },
  {
    "geonameId": 233288,
    "name": "Iborogya Falls",
    "latitude": 1.60316,
    "longitude": 31.19187,
    "category": "Waterfall",
    "subcategory": "Waterfall",
    "featured": false,
    "priority": 50
  },
  {
    "geonameId": 233275,
    "name": "Iganga",
    "latitude": 0.60917,
    "longitude": 33.46861,
    "category": "City",
    "subcategory": "County Seat",
    "featured": false,
    "priority": 50
  },
  {
    "geonameId": 233270,
    "name": "Igisi",
    "latitude": 1.98747,
    "longitude": 31.73498,
    "category": "Mountain",
    "subcategory": "Mountain",
    "featured": false,
    "priority": 50
  },
  {
    "geonameId": 233267,
    "name": "Igorora",
    "latitude": -0.86667,
    "longitude": 30.41667,
    "category": "Mountain",
    "subcategory": "Mountain",
    "featured": false,
    "priority": 50
  },
  {
    "geonameId": 233265,
    "name": "Igurua",
    "latitude": -0.95,
    "longitude": 30.36667,
    "category": "Mountain",
    "subcategory": "Mountain",
    "featured": false,
    "priority": 50
  },
  {
    "geonameId": 233253,
    "name": "Ihunga",
    "latitude": -1.11667,
    "longitude": 29.78333,
    "category": "Mountain",
    "subcategory": "Mountain",
    "featured": false,
    "priority": 50
  },
  {
    "geonameId": 11525302,
    "name": "Ijinga Island",
    "latitude": 1.54559,
    "longitude": 32.7867,
    "category": "Island",
    "subcategory": "Island",
    "featured": false,
    "priority": 50
  },
  {
    "geonameId": 227152,
    "name": "Ikolong",
    "latitude": 3.61097,
    "longitude": 33.18023,
    "category": "Mountain",
    "subcategory": "Mountain",
    "featured": false,
    "priority": 50
  },
  {
    "geonameId": 383364,
    "name": "Ikunyu Island",
    "latitude": 0.35694,
    "longitude": 33.35583,
    "category": "Island",
    "subcategory": "Island",
    "featured": false,
    "priority": 50
  },
  {
    "geonameId": 233236,
    "name": "Ilo",
    "latitude": 3.66667,
    "longitude": 31.9,
    "category": "Mountain",
    "subcategory": "Mountain",
    "featured": false,
    "priority": 50
  },
  {
    "geonameId": 233220,
    "name": "Iramba Island",
    "latitude": -0.11667,
    "longitude": 33.21667,
    "category": "Island",
    "subcategory": "Island",
    "featured": false,
    "priority": 50
  },
  {
    "geonameId": 233218,
    "name": "Irangara Island",
    "latitude": 0.05,
    "longitude": 30.13333,
    "category": "Island",
    "subcategory": "Island",
    "featured": false,
    "priority": 50
  },
  {
    "geonameId": 233217,
    "name": "Irashagye",
    "latitude": -0.73333,
    "longitude": 30.28333,
    "category": "Mountain",
    "subcategory": "Mountain",
    "featured": false,
    "priority": 50
  },
  {
    "geonameId": 233216,
    "name": "Irembezi",
    "latitude": -0.5,
    "longitude": 30.23333,
    "category": "Mountain",
    "subcategory": "Mountain",
    "featured": false,
    "priority": 50
  },
  {
    "geonameId": 233194,
    "name": "Iryango",
    "latitude": -0.96667,
    "longitude": 30.6,
    "category": "City",
    "subcategory": "City",
    "featured": false,
    "priority": 50
  },
  {
    "geonameId": 233190,
    "name": "Isamba Island",
    "latitude": -0.13333,
    "longitude": 33.21667,
    "category": "Island",
    "subcategory": "Island",
    "featured": false,
    "priority": 50
  },
  {
    "geonameId": 448001,
    "name": "Ishaka",
    "latitude": -0.54306,
    "longitude": 30.13694,
    "category": "City",
    "subcategory": "City",
    "featured": false,
    "priority": 50
  },
  {
    "geonameId": 7911405,
    "name": "Isingiro",
    "latitude": -0.86864,
    "longitude": 30.83019,
    "category": "City",
    "subcategory": "County Seat",
    "featured": false,
    "priority": 50
  },
  {
    "geonameId": 233174,
    "name": "Isioro",
    "latitude": 3.70125,
    "longitude": 33.56796,
    "category": "Mountain",
    "subcategory": "Mountain",
    "featured": false,
    "priority": 50
  },
  {
    "geonameId": 233172,
    "name": "Isozi",
    "latitude": -0.83333,
    "longitude": 30.81667,
    "category": "Mountain",
    "subcategory": "Mountain",
    "featured": false,
    "priority": 50
  },
  {
    "geonameId": 233136,
    "name": "Izinga Island",
    "latitude": -0.16667,
    "longitude": 29.86667,
    "category": "Island",
    "subcategory": "Island",
    "featured": false,
    "priority": 50
  },
  {
    "geonameId": 233132,
    "name": "Jacksons Summit",
    "latitude": 1.10278,
    "longitude": 34.52583,
    "category": "Mountain",
    "subcategory": "Peak",
    "featured": false,
    "priority": 50
  },
  {
    "geonameId": 233129,
    "name": "Jana Island",
    "latitude": -0.19806,
    "longitude": 32.55222,
    "category": "Island",
    "subcategory": "Island",
    "featured": false,
    "priority": 50
  },
  {
    "geonameId": 233122,
    "name": "Jatat",
    "latitude": 3.77002,
    "longitude": 34.2197,
    "category": "Mountain",
    "subcategory": "Mountain",
    "featured": false,
    "priority": 50
  },
  {
    "geonameId": 233114,
    "name": "Jinja",
    "latitude": 0.43902,
    "longitude": 33.20317,
    "category": "City",
    "subcategory": "Regional Capital",
    "featured": false,
    "priority": 50
  },
  {
    "geonameId": 233093,
    "name": "Kaabong",
    "latitude": 3.48361,
    "longitude": 34.14917,
    "category": "City",
    "subcategory": "County Seat",
    "featured": false,
    "priority": 50
  },
  {
    "geonameId": 233088,
    "name": "Kabaganja Island",
    "latitude": 0.32333,
    "longitude": 33.45778,
    "category": "Island",
    "subcategory": "Island",
    "featured": false,
    "priority": 50
  },
  {
    "geonameId": 233070,
    "name": "Kabale",
    "latitude": -1.24857,
    "longitude": 29.98993,
    "category": "City",
    "subcategory": "County Seat",
    "featured": false,
    "priority": 50
  },
  {
    "geonameId": 233061,
    "name": "Kabale Island",
    "latitude": -0.26667,
    "longitude": 32.43333,
    "category": "Island",
    "subcategory": "Island",
    "featured": false,
    "priority": 50
  },
  {
    "geonameId": 233062,
    "name": "Kabalega Falls National Park",
    "latitude": 2.16003,
    "longitude": 31.75909,
    "category": "Park",
    "subcategory": "Park",
    "featured": false,
    "priority": 50
  },
  {
    "geonameId": 233029,
    "name": "Kabazimu Island",
    "latitude": -0.16667,
    "longitude": 29.86667,
    "category": "Island",
    "subcategory": "Island",
    "featured": false,
    "priority": 50
  },
  {
    "geonameId": 233019,
    "name": "Kaberamaido",
    "latitude": 1.73889,
    "longitude": 33.15944,
    "category": "City",
    "subcategory": "County Seat",
    "featured": false,
    "priority": 50
  },
  {
    "geonameId": 232971,
    "name": "Kabuga",
    "latitude": -1.01667,
    "longitude": 29.96667,
    "category": "Mountain",
    "subcategory": "Mountain",
    "featured": false,
    "priority": 50
  },
  {
    "geonameId": 232966,
    "name": "Kabuguza Islets",
    "latitude": -0.16667,
    "longitude": 33.18333,
    "category": "Island",
    "subcategory": "Island Group",
    "featured": false,
    "priority": 50
  },
  {
    "geonameId": 11357763,
    "name": "Kabulataka Island",
    "latitude": 0.12511,
    "longitude": 32.64058,
    "category": "Island",
    "subcategory": "Island",
    "featured": false,
    "priority": 50
  },
  {
    "geonameId": 232926,
    "name": "Kabutim",
    "latitude": 1.43333,
    "longitude": 34.58333,
    "category": "Mountain",
    "subcategory": "Mountain",
    "featured": false,
    "priority": 50
  },
  {
    "geonameId": 8695870,
    "name": "Kachera",
    "latitude": 3.53131,
    "longitude": 33.68473,
    "category": "Mountain",
    "subcategory": "Mountain",
    "featured": false,
    "priority": 50
  },
  {
    "geonameId": 232882,
    "name": "Kadam",
    "latitude": 1.72194,
    "longitude": 34.71361,
    "category": "Mountain",
    "subcategory": "Mountain",
    "featured": false,
    "priority": 50
  },
  {
    "geonameId": 232834,
    "name": "Kagadi",
    "latitude": 0.93778,
    "longitude": 30.80889,
    "category": "City",
    "subcategory": "County Seat",
    "featured": false,
    "priority": 50
  },
  {
    "geonameId": 232816,
    "name": "Kagarama",
    "latitude": -0.78333,
    "longitude": 30.75,
    "category": "Mountain",
    "subcategory": "Mountain",
    "featured": false,
    "priority": 50
  },
  {
    "geonameId": 232774,
    "name": "Kagulumu Island",
    "latitude": 0.9,
    "longitude": 32.15,
    "category": "Island",
    "subcategory": "Island",
    "featured": false,
    "priority": 50
  },
  {
    "geonameId": 232733,
    "name": "Kaiirere",
    "latitude": -0.43333,
    "longitude": 30.3,
    "category": "Mountain",
    "subcategory": "Mountain",
    "featured": false,
    "priority": 50
  },
  {
    "geonameId": 232727,
    "name": "Kaina Island",
    "latitude": -0.15,
    "longitude": 33.9,
    "category": "Island",
    "subcategory": "Island",
    "featured": false,
    "priority": 50
  },
  {
    "geonameId": 232719,
    "name": "Kaivali Island",
    "latitude": 0.40132,
    "longitude": 33.27627,
    "category": "Island",
    "subcategory": "Island",
    "featured": false,
    "priority": 50
  },
  {
    "geonameId": 232713,
    "name": "Kajansi",
    "latitude": 0.21548,
    "longitude": 32.53453,
    "category": "City",
    "subcategory": "City",
    "featured": false,
    "priority": 50
  },
  {
    "geonameId": 232698,
    "name": "Kakaka",
    "latitude": 0.50406,
    "longitude": 30.04181,
    "category": "Mountain",
    "subcategory": "Peak",
    "featured": false,
    "priority": 50
  },
  {
    "geonameId": 232694,
    "name": "Kakal",
    "latitude": 2.8,
    "longitude": 33.73333,
    "category": "Mountain",
    "subcategory": "Mountain",
    "featured": false,
    "priority": 50
  },
  {
    "geonameId": 232661,
    "name": "Kakira",
    "latitude": 0.50833,
    "longitude": 33.28778,
    "category": "City",
    "subcategory": "City",
    "featured": false,
    "priority": 50
  },
  {
    "geonameId": 232652,
    "name": "Kakiri",
    "latitude": 0.41989,
    "longitude": 32.39127,
    "category": "City",
    "subcategory": "City",
    "featured": false,
    "priority": 50
  },
  {
    "geonameId": 232624,
    "name": "Kakuka",
    "latitude": 0.43678,
    "longitude": 29.95264,
    "category": "Mountain",
    "subcategory": "Peak",
    "featured": false,
    "priority": 50
  },
  {
    "geonameId": 232619,
    "name": "Kakumiro",
    "latitude": 0.78056,
    "longitude": 31.32361,
    "category": "City",
    "subcategory": "County Seat",
    "featured": false,
    "priority": 50
  },
  {
    "geonameId": 232613,
    "name": "Kakunyu",
    "latitude": -0.58333,
    "longitude": 30.88333,
    "category": "Mountain",
    "subcategory": "Mountain",
    "featured": false,
    "priority": 50
  },
  {
    "geonameId": 232575,
    "name": "Kalambide Island",
    "latitude": -0.46667,
    "longitude": 32.31667,
    "category": "Island",
    "subcategory": "Island",
    "featured": false,
    "priority": 50
  },
  {
    "geonameId": 232571,
    "name": "Kalangala",
    "latitude": -0.30889,
    "longitude": 32.225,
    "category": "City",
    "subcategory": "County Seat",
    "featured": false,
    "priority": 50
  },
  {
    "geonameId": 232552,
    "name": "Kalengili",
    "latitude": 0.48333,
    "longitude": 30.01667,
    "category": "Mountain",
    "subcategory": "Peak",
    "featured": false,
    "priority": 50
  },
  {
    "geonameId": 232545,
    "name": "Kaleri",
    "latitude": 3.59136,
    "longitude": 33.6023,
    "category": "Mountain",
    "subcategory": "Mountain",
    "featured": false,
    "priority": 50
  },
  {
    "geonameId": 232542,
    "name": "Kaleveru",
    "latitude": 0.22542,
    "longitude": 29.95625,
    "category": "Mountain",
    "subcategory": "Peak",
    "featured": false,
    "priority": 50
  },
  {
    "geonameId": 232536,
    "name": "Kalimon",
    "latitude": 3.7,
    "longitude": 33.85,
    "category": "Mountain",
    "subcategory": "Mountain",
    "featured": false,
    "priority": 50
  },
  {
    "geonameId": 232526,
    "name": "Kaliro",
    "latitude": 0.89444,
    "longitude": 33.49944,
    "category": "City",
    "subcategory": "County Seat",
    "featured": false,
    "priority": 50
  },
  {
    "geonameId": 232522,
    "name": "Kalisizo",
    "latitude": -0.53639,
    "longitude": 31.62139,
    "category": "City",
    "subcategory": "City",
    "featured": false,
    "priority": 50
  },
  {
    "geonameId": 232583,
    "name": "Kalokoliputh",
    "latitude": 3.84418,
    "longitude": 34.20369,
    "category": "Mountain",
    "subcategory": "Mountain",
    "featured": false,
    "priority": 50
  },
  {
    "geonameId": 232513,
    "name": "Kalonge",
    "latitude": 0.19806,
    "longitude": 29.9545,
    "category": "Mountain",
    "subcategory": "Peak",
    "featured": false,
    "priority": 50
  },
  {
    "geonameId": 8695794,
    "name": "Kalukuloyi",
    "latitude": 3.70379,
    "longitude": 33.61069,
    "category": "Mountain",
    "subcategory": "Mountain",
    "featured": false,
    "priority": 50
  },
  {
    "geonameId": 232490,
    "name": "Kalungu",
    "latitude": -0.16969,
    "longitude": 31.75847,
    "category": "City",
    "subcategory": "County Seat",
    "featured": false,
    "priority": 50
  },
  {
    "geonameId": 232454,
    "name": "Kamalinyang",
    "latitude": 3.39423,
    "longitude": 33.76249,
    "category": "Mountain",
    "subcategory": "Mountain",
    "featured": false,
    "priority": 50
  },
  {
    "geonameId": 232441,
    "name": "Kamena",
    "latitude": -1.15,
    "longitude": 29.73333,
    "category": "Mountain",
    "subcategory": "Mountain",
    "featured": false,
    "priority": 50
  },
  {
    "geonameId": 232422,
    "name": "Kampala",
    "latitude": 0.31628,
    "longitude": 32.58219,
    "category": "City",
    "subcategory": "Capital",
    "featured": false,
    "priority": 50
  },
  {
    "geonameId": 8629026,
    "name": "Kampala Central Division",
    "latitude": 0.32467,
    "longitude": 32.5747,
    "category": "City",
    "subcategory": "District Seat",
    "featured": false,
    "priority": 50
  },
  {
    "geonameId": 232409,
    "name": "Kamuge Island",
    "latitude": 1.53333,
    "longitude": 34.21667,
    "category": "Island",
    "subcategory": "Island",
    "featured": false,
    "priority": 50
  },
  {
    "geonameId": 232404,
    "name": "Kamukulu Island",
    "latitude": -0.48333,
    "longitude": 32.48333,
    "category": "Island",
    "subcategory": "Island",
    "featured": false,
    "priority": 50
  },
  {
    "geonameId": 232397,
    "name": "Kamuli",
    "latitude": 0.94722,
    "longitude": 33.11972,
    "category": "City",
    "subcategory": "County Seat",
    "featured": false,
    "priority": 50
  },
  {
    "geonameId": 232377,
    "name": "Kamusiri",
    "latitude": 1.33333,
    "longitude": 30.85,
    "category": "Mountain",
    "subcategory": "Mountain",
    "featured": false,
    "priority": 50
  },
  {
    "geonameId": 11401725,
    "name": "Kamutebe",
    "latitude": 0.68006,
    "longitude": 30.21753,
    "category": "Lake",
    "subcategory": "Lake",
    "featured": false,
    "priority": 50
  },
  {
    "geonameId": 232376,
    "name": "Kamutenga Island",
    "latitude": -0.05,
    "longitude": 32.21667,
    "category": "Island",
    "subcategory": "Island",
    "featured": false,
    "priority": 50
  },
  {
    "geonameId": 232371,
    "name": "Kamwenge",
    "latitude": 0.1866,
    "longitude": 30.45393,
    "category": "City",
    "subcategory": "County Seat",
    "featured": false,
    "priority": 50
  },
  {
    "geonameId": 232362,
    "name": "Kanachom",
    "latitude": 3.64512,
    "longitude": 34.44018,
    "category": "Mountain",
    "subcategory": "Mountain",
    "featured": false,
    "priority": 50
  },
  {
    "geonameId": 232361,
    "name": "Kanadap",
    "latitude": 3.63553,
    "longitude": 34.37293,
    "category": "Mountain",
    "subcategory": "Mountain",
    "featured": false,
    "priority": 50
  },
  {
    "geonameId": 232357,
    "name": "Kanakapamor",
    "latitude": 3.27818,
    "longitude": 34.40036,
    "category": "Mountain",
    "subcategory": "Mountain",
    "featured": false,
    "priority": 50
  },
  {
    "geonameId": 232332,
    "name": "Kangathep",
    "latitude": 3.54889,
    "longitude": 34.33501,
    "category": "Mountain",
    "subcategory": "Mountain",
    "featured": false,
    "priority": 50
  },
  {
    "geonameId": 11357752,
    "name": "Kankindu",
    "latitude": 0.04578,
    "longitude": 32.79678,
    "category": "Island",
    "subcategory": "Island",
    "featured": false,
    "priority": 50
  },
  {
    "geonameId": 232313,
    "name": "Kankuranga Island",
    "latitude": 0,
    "longitude": 30.15,
    "category": "Island",
    "subcategory": "Island",
    "featured": false,
    "priority": 50
  },
  {
    "geonameId": 232307,
    "name": "Kanoni",
    "latitude": 0.17722,
    "longitude": 31.88111,
    "category": "City",
    "subcategory": "County Seat",
    "featured": false,
    "priority": 50
  },
  {
    "geonameId": 232293,
    "name": "Kansove Islets",
    "latitude": -0.55,
    "longitude": 32.18333,
    "category": "Island",
    "subcategory": "Island Group",
    "featured": false,
    "priority": 50
  },
  {
    "geonameId": 232287,
    "name": "Kanungu",
    "latitude": -0.9575,
    "longitude": 29.78972,
    "category": "City",
    "subcategory": "County Seat",
    "featured": false,
    "priority": 50
  },
  {
    "geonameId": 232235,
    "name": "Kapchorwa",
    "latitude": 1.40096,
    "longitude": 34.45038,
    "category": "City",
    "subcategory": "County Seat",
    "featured": false,
    "priority": 50
  },
  {
    "geonameId": 8695891,
    "name": "Kapedo",
    "latitude": 3.69012,
    "longitude": 33.96448,
    "category": "Mountain",
    "subcategory": "Peak",
    "featured": false,
    "priority": 50
  },
  {
    "geonameId": 230639,
    "name": "Kapoth",
    "latitude": 3.71312,
    "longitude": 33.55421,
    "category": "Mountain",
    "subcategory": "Mountain",
    "featured": false,
    "priority": 50
  },
  {
    "geonameId": 232197,
    "name": "Karangora",
    "latitude": 0.6336,
    "longitude": 30.12213,
    "category": "Mountain",
    "subcategory": "Peak",
    "featured": false,
    "priority": 50
  },
  {
    "geonameId": 8695872,
    "name": "Karapochomo",
    "latitude": 3.52269,
    "longitude": 33.67735,
    "category": "Mountain",
    "subcategory": "Mountain",
    "featured": false,
    "priority": 50
  },
  {
    "geonameId": 8695861,
    "name": "Karenga",
    "latitude": 3.57089,
    "longitude": 33.68925,
    "category": "Mountain",
    "subcategory": "Mountain",
    "featured": false,
    "priority": 50
  },
  {
    "geonameId": 232177,
    "name": "Karuma Falls",
    "latitude": 2.24414,
    "longitude": 32.23171,
    "category": "Waterfall",
    "subcategory": "Waterfall",
    "featured": false,
    "priority": 50
  },
  {
    "geonameId": 232146,
    "name": "Kasaali",
    "latitude": -0.61667,
    "longitude": 31.55,
    "category": "City",
    "subcategory": "Local Seat",
    "featured": false,
    "priority": 50
  },
  {
    "geonameId": 232137,
    "name": "Kasambya",
    "latitude": 0.43333,
    "longitude": 31.23333,
    "category": "City",
    "subcategory": "City",
    "featured": false,
    "priority": 50
  },
  {
    "geonameId": 232115,
    "name": "Kasanda",
    "latitude": 0.55667,
    "longitude": 31.80222,
    "category": "City",
    "subcategory": "City",
    "featured": false,
    "priority": 50
  },
  {
    "geonameId": 232110,
    "name": "Kasangati",
    "latitude": 0.43803,
    "longitude": 32.60246,
    "category": "City",
    "subcategory": "City",
    "featured": false,
    "priority": 50
  },
  {
    "geonameId": 232107,
    "name": "Kasanje",
    "latitude": 0.15334,
    "longitude": 32.40088,
    "category": "City",
    "subcategory": "City",
    "featured": false,
    "priority": 50
  },
  {
    "geonameId": 232092,
    "name": "Kasatora",
    "latitude": -1.06667,
    "longitude": 29.65,
    "category": "Mountain",
    "subcategory": "Mountain",
    "featured": false,
    "priority": 50
  },
  {
    "geonameId": 232067,
    "name": "Kaserwa Island",
    "latitude": -0.58333,
    "longitude": 32.28333,
    "category": "Island",
    "subcategory": "Island",
    "featured": false,
    "priority": 50
  },
  {
    "geonameId": 232066,
    "name": "Kasese",
    "latitude": 0.18333,
    "longitude": 30.08333,
    "category": "City",
    "subcategory": "County Seat",
    "featured": false,
    "priority": 50
  },
  {
    "geonameId": 232051,
    "name": "Kashasha",
    "latitude": -0.76667,
    "longitude": 30.41667,
    "category": "Mountain",
    "subcategory": "Mountain",
    "featured": false,
    "priority": 50
  },
  {
    "geonameId": 232046,
    "name": "Kashekye",
    "latitude": -1.11667,
    "longitude": 29.95,
    "category": "Mountain",
    "subcategory": "Mountain",
    "featured": false,
    "priority": 50
  },
  {
    "geonameId": 232022,
    "name": "Kasiru",
    "latitude": -1.03333,
    "longitude": 29.65,
    "category": "Mountain",
    "subcategory": "Mountain",
    "featured": false,
    "priority": 50
  },
  {
    "geonameId": 231993,
    "name": "Kasoni",
    "latitude": -1.16667,
    "longitude": 29.71667,
    "category": "Mountain",
    "subcategory": "Mountain",
    "featured": false,
    "priority": 50
  },
  {
    "geonameId": 231990,
    "name": "Kasozi",
    "latitude": 0.02,
    "longitude": 30.49861,
    "category": "City",
    "subcategory": "City",
    "featured": false,
    "priority": 50
  },
  {
    "geonameId": 231969,
    "name": "Kasunju",
    "latitude": -0.32292,
    "longitude": 30.08208,
    "category": "Mountain",
    "subcategory": "Mountain",
    "featured": false,
    "priority": 50
  },
  {
    "geonameId": 231968,
    "name": "Kasuro",
    "latitude": -0.73333,
    "longitude": 30.35,
    "category": "Mountain",
    "subcategory": "Mountain",
    "featured": false,
    "priority": 50
  },
  {
    "geonameId": 231963,
    "name": "Kataba",
    "latitude": 2.66667,
    "longitude": 33.68333,
    "category": "Mountain",
    "subcategory": "Mountain",
    "featured": false,
    "priority": 50
  },
  {
    "geonameId": 231957,
    "name": "Katabarua",
    "latitude": 0.41667,
    "longitude": 30.03333,
    "category": "Mountain",
    "subcategory": "Mountain",
    "featured": false,
    "priority": 50
  },
  {
    "geonameId": 231954,
    "name": "Katabi",
    "latitude": 0.08411,
    "longitude": 32.46972,
    "category": "City",
    "subcategory": "City",
    "featured": false,
    "priority": 50
  },
  {
    "geonameId": 231951,
    "name": "Katabwa",
    "latitude": 0.54094,
    "longitude": 30.07184,
    "category": "Mountain",
    "subcategory": "Peak",
    "featured": false,
    "priority": 50
  },
  {
    "geonameId": 231947,
    "name": "Katakwi",
    "latitude": 1.89111,
    "longitude": 33.96611,
    "category": "City",
    "subcategory": "County Seat",
    "featured": false,
    "priority": 50
  },
  {
    "geonameId": 231937,
    "name": "Katanga Island",
    "latitude": -0.58333,
    "longitude": 32.2,
    "category": "Island",
    "subcategory": "Island",
    "featured": false,
    "priority": 50
  },
  {
    "geonameId": 231931,
    "name": "Katanzi",
    "latitude": -0.93333,
    "longitude": 30.68333,
    "category": "Mountain",
    "subcategory": "Mountain",
    "featured": false,
    "priority": 50
  },
  {
    "geonameId": 231911,
    "name": "Katendere",
    "latitude": -1.08333,
    "longitude": 29.91667,
    "category": "Mountain",
    "subcategory": "Mountain",
    "featured": false,
    "priority": 50
  },
  {
    "geonameId": 231908,
    "name": "Katenga",
    "latitude": -1.36667,
    "longitude": 29.93333,
    "category": "Mountain",
    "subcategory": "Mountain",
    "featured": false,
    "priority": 50
  },
  {
    "geonameId": 8695776,
    "name": "Kathelem",
    "latitude": 3.67097,
    "longitude": 33.50458,
    "category": "Mountain",
    "subcategory": "Mountain",
    "featured": false,
    "priority": 50
  },
  {
    "geonameId": 231848,
    "name": "Katoke",
    "latitude": 0.75833,
    "longitude": 30.6825,
    "category": "City",
    "subcategory": "City",
    "featured": false,
    "priority": 50
  },
  {
    "geonameId": 231835,
    "name": "Katoma",
    "latitude": -1.08333,
    "longitude": 29.86667,
    "category": "Mountain",
    "subcategory": "Mountain",
    "featured": false,
    "priority": 50
  },
  {
    "geonameId": 7870036,
    "name": "Katonga Game Reserve",
    "latitude": 0.238,
    "longitude": 30.782,
    "category": "Park",
    "subcategory": "Nature Reserve",
    "featured": false,
    "priority": 50
  },
  {
    "geonameId": 231828,
    "name": "Katorosa",
    "latitude": 3.59866,
    "longitude": 34.39196,
    "category": "Mountain",
    "subcategory": "Mountain",
    "featured": false,
    "priority": 50
  },
  {
    "geonameId": 231797,
    "name": "Katunguru",
    "latitude": 0.3,
    "longitude": 30.01667,
    "category": "Mountain",
    "subcategory": "Peak",
    "featured": false,
    "priority": 50
  },
  {
    "geonameId": 231787,
    "name": "Katwekembwa",
    "latitude": -0.96667,
    "longitude": 29.9,
    "category": "Mountain",
    "subcategory": "Mountain",
    "featured": false,
    "priority": 50
  },
  {
    "geonameId": 231770,
    "name": "Kawalakol",
    "latitude": 3.8021,
    "longitude": 33.90562,
    "category": "Mountain",
    "subcategory": "Mountain",
    "featured": false,
    "priority": 50
  },
  {
    "geonameId": 231757,
    "name": "Kaweri Island",
    "latitude": 1.63501,
    "longitude": 33.2419,
    "category": "Island",
    "subcategory": "Island",
    "featured": false,
    "priority": 50
  },
  {
    "geonameId": 231728,
    "name": "Kayanja Island",
    "latitude": -0.21667,
    "longitude": 32.35,
    "category": "Island",
    "subcategory": "Island",
    "featured": false,
    "priority": 50
  },
  {
    "geonameId": 231696,
    "name": "Kayunga",
    "latitude": 0.7025,
    "longitude": 32.88861,
    "category": "City",
    "subcategory": "County Seat",
    "featured": false,
    "priority": 50
  },
  {
    "geonameId": 231692,
    "name": "Kaza Island",
    "latitude": 0.10945,
    "longitude": 33.60112,
    "category": "Island",
    "subcategory": "Island",
    "featured": false,
    "priority": 50
  },
  {
    "geonameId": 231687,
    "name": "Kazikizi",
    "latitude": -1.13333,
    "longitude": 29.98333,
    "category": "Mountain",
    "subcategory": "Mountain",
    "featured": false,
    "priority": 50
  },
  {
    "geonameId": 231670,
    "name": "Kazo",
    "latitude": -0.07444,
    "longitude": 30.78528,
    "category": "City",
    "subcategory": "City",
    "featured": false,
    "priority": 50
  },
  {
    "geonameId": 231667,
    "name": "Kebisoni",
    "latitude": -0.92111,
    "longitude": 30.03667,
    "category": "City",
    "subcategory": "City",
    "featured": false,
    "priority": 50
  },
  {
    "geonameId": 231652,
    "name": "Kem",
    "latitude": 2.66667,
    "longitude": 33.78333,
    "category": "Mountain",
    "subcategory": "Mountain",
    "featured": false,
    "priority": 50
  },
  {
    "geonameId": 231639,
    "name": "Kerenge Island",
    "latitude": 0.06351,
    "longitude": 33.00583,
    "category": "Island",
    "subcategory": "Island",
    "featured": false,
    "priority": 50
  },
  {
    "geonameId": 231630,
    "name": "Kianamo",
    "latitude": 0.31667,
    "longitude": 29.96667,
    "category": "Mountain",
    "subcategory": "Peak",
    "featured": false,
    "priority": 50
  },
  {
    "geonameId": 231626,
    "name": "Kiara",
    "latitude": -0.71667,
    "longitude": 30.21667,
    "category": "Mountain",
    "subcategory": "Mountain",
    "featured": false,
    "priority": 50
  },
  {
    "geonameId": 231617,
    "name": "Kibale",
    "latitude": 0.8,
    "longitude": 31.06667,
    "category": "City",
    "subcategory": "County Seat",
    "featured": false,
    "priority": 50
  },
  {
    "geonameId": 7839168,
    "name": "Kibale National Park",
    "latitude": 0.5,
    "longitude": 30.4,
    "category": "Park",
    "subcategory": "Park",
    "featured": false,
    "priority": 50
  },
  {
    "geonameId": 231570,
    "name": "Kibengo",
    "latitude": 0.63333,
    "longitude": 30.78333,
    "category": "Mountain",
    "subcategory": "Mountain",
    "featured": false,
    "priority": 50
  },
  {
    "geonameId": 231565,
    "name": "Kibibi Island",
    "latitude": 0.0974,
    "longitude": 33.03785,
    "category": "Island",
    "subcategory": "Island",
    "featured": false,
    "priority": 50
  },
  {
    "geonameId": 231564,
    "name": "Kibibi North Island",
    "latitude": -0.23333,
    "longitude": 32.3,
    "category": "Island",
    "subcategory": "Island",
    "featured": false,
    "priority": 50
  },
  {
    "geonameId": 231563,
    "name": "Kibibi South Island",
    "latitude": -0.38333,
    "longitude": 32.2,
    "category": "Island",
    "subcategory": "Island",
    "featured": false,
    "priority": 50
  },
  {
    "geonameId": 231562,
    "name": "Kibiito",
    "latitude": 0.47722,
    "longitude": 30.1925,
    "category": "City",
    "subcategory": "Local Seat",
    "featured": false,
    "priority": 50
  },
  {
    "geonameId": 231554,
    "name": "Kibingo",
    "latitude": -0.62602,
    "longitude": 30.43594,
    "category": "City",
    "subcategory": "County Seat",
    "featured": false,
    "priority": 50
  },
  {
    "geonameId": 231550,
    "name": "Kiboga",
    "latitude": 0.91611,
    "longitude": 31.77417,
    "category": "City",
    "subcategory": "County Seat",
    "featured": false,
    "priority": 50
  },
  {
    "geonameId": 231532,
    "name": "Kibuku",
    "latitude": 1.04333,
    "longitude": 33.7975,
    "category": "City",
    "subcategory": "County Seat",
    "featured": false,
    "priority": 50
  },
  {
    "geonameId": 231520,
    "name": "Kibuzige",
    "latitude": -1.16667,
    "longitude": 29.88333,
    "category": "Mountain",
    "subcategory": "Mountain",
    "featured": false,
    "priority": 50
  },
  {
    "geonameId": 231512,
    "name": "Kichok",
    "latitude": 3.45764,
    "longitude": 33.74772,
    "category": "Mountain",
    "subcategory": "Mountain",
    "featured": false,
    "priority": 50
  },
  {
    "geonameId": 231497,
    "name": "Kidepo National Park",
    "latitude": 3.80919,
    "longitude": 33.63187,
    "category": "Park",
    "subcategory": "Park",
    "featured": false,
    "priority": 50
  },
  {
    "geonameId": 231426,
    "name": "Kigorobya",
    "latitude": 1.6162,
    "longitude": 31.3089,
    "category": "City",
    "subcategory": "City",
    "featured": false,
    "priority": 50
  },
  {
    "geonameId": 11865273,
    "name": "Kigoti Island",
    "latitude": 1.62738,
    "longitude": 33.23264,
    "category": "Island",
    "subcategory": "Island",
    "featured": false,
    "priority": 50
  },
  {
    "geonameId": 231406,
    "name": "Kigumba",
    "latitude": 1.80838,
    "longitude": 32.00502,
    "category": "City",
    "subcategory": "City",
    "featured": false,
    "priority": 50
  },
  {
    "geonameId": 231384,
    "name": "Kihate",
    "latitude": -1.18333,
    "longitude": 29.71667,
    "category": "Mountain",
    "subcategory": "Mountain",
    "featured": false,
    "priority": 50
  },
  {
    "geonameId": 231383,
    "name": "Kihihi",
    "latitude": -0.75,
    "longitude": 29.7,
    "category": "City",
    "subcategory": "City",
    "featured": false,
    "priority": 50
  },
  {
    "geonameId": 7909188,
    "name": "Kihuma",
    "latitude": 0.40409,
    "longitude": 29.95869,
    "category": "Mountain",
    "subcategory": "Peak",
    "featured": false,
    "priority": 50
  },
  {
    "geonameId": 231280,
    "name": "Kikube",
    "latitude": 1.35639,
    "longitude": 31.22222,
    "category": "City",
    "subcategory": "City",
    "featured": false,
    "priority": 50
  },
  {
    "geonameId": 230175,
    "name": "Kilak",
    "latitude": 3.0357,
    "longitude": 31.97326,
    "category": "Mountain",
    "subcategory": "Mountain",
    "featured": false,
    "priority": 50
  },
  {
    "geonameId": 8142252,
    "name": "Kilak I",
    "latitude": 3.0424,
    "longitude": 31.9752,
    "category": "Mountain",
    "subcategory": "Peak",
    "featured": false,
    "priority": 50
  },
  {
    "geonameId": 8142253,
    "name": "Kilak II",
    "latitude": 3.03018,
    "longitude": 31.97715,
    "category": "Mountain",
    "subcategory": "Peak",
    "featured": false,
    "priority": 50
  },
  {
    "geonameId": 231250,
    "name": "Kilembe",
    "latitude": 0.19835,
    "longitude": 30.01302,
    "category": "City",
    "subcategory": "City",
    "featured": false,
    "priority": 50
  },
  {
    "geonameId": 231228,
    "name": "Kimi Island",
    "latitude": -0.08333,
    "longitude": 32.65,
    "category": "Island",
    "subcategory": "Island",
    "featured": false,
    "priority": 50
  },
  {
    "geonameId": 230797,
    "name": "Kinera",
    "latitude": 0.56855,
    "longitude": 30.08017,
    "category": "Mountain",
    "subcategory": "Peak",
    "featured": false,
    "priority": 50
  },
  {
    "geonameId": 231197,
    "name": "Kinoni",
    "latitude": -0.70111,
    "longitude": 30.49389,
    "category": "City",
    "subcategory": "City",
    "featured": false,
    "priority": 50
  },
  {
    "geonameId": 231192,
    "name": "Kinoni Island",
    "latitude": -0.68333,
    "longitude": 31.3,
    "category": "Island",
    "subcategory": "Island",
    "featured": false,
    "priority": 50
  },
  {
    "geonameId": 7909189,
    "name": "Kinyangoma",
    "latitude": 0.36673,
    "longitude": 29.92638,
    "category": "Mountain",
    "subcategory": "Peak",
    "featured": false,
    "priority": 50
  },
  {
    "geonameId": 231165,
    "name": "Kira",
    "latitude": 0.4,
    "longitude": 32.63333,
    "category": "City",
    "subcategory": "City",
    "featured": false,
    "priority": 50
  },
  {
    "geonameId": 231144,
    "name": "Kiraza Island",
    "latitude": 0.35,
    "longitude": 31.93333,
    "category": "Island",
    "subcategory": "Island",
    "featured": false,
    "priority": 50
  },
  {
    "geonameId": 231140,
    "name": "Kiregi Island",
    "latitude": 0.10159,
    "longitude": 33.47446,
    "category": "Island",
    "subcategory": "Island",
    "featured": false,
    "priority": 50
  },
  {
    "geonameId": 231139,
    "name": "Kireka",
    "latitude": 0.3475,
    "longitude": 32.64917,
    "category": "City",
    "subcategory": "City",
    "featured": false,
    "priority": 50
  },
  {
    "geonameId": 231104,
    "name": "Kirugu Island",
    "latitude": -0.62028,
    "longitude": 32.28694,
    "category": "Island",
    "subcategory": "Island",
    "featured": false,
    "priority": 50
  },
  {
    "geonameId": 231103,
    "name": "Kiruhura",
    "latitude": -0.19664,
    "longitude": 30.84446,
    "category": "City",
    "subcategory": "County Seat",
    "featured": false,
    "priority": 50
  },
  {
    "geonameId": 231083,
    "name": "Kiryandongo",
    "latitude": 1.87633,
    "longitude": 32.06225,
    "category": "City",
    "subcategory": "County Seat",
    "featured": false,
    "priority": 50
  },
  {
    "geonameId": 13132714,
    "name": "Kiryandongo Refugee Camp",
    "latitude": 1.9399,
    "longitude": 32.16605,
    "category": "City",
    "subcategory": "City",
    "featured": false,
    "priority": 50
  },
  {
    "geonameId": 231057,
    "name": "Kisana",
    "latitude": -0.68333,
    "longitude": 30.4,
    "category": "Mountain",
    "subcategory": "Mountain",
    "featured": false,
    "priority": 50
  },
  {
    "geonameId": 231053,
    "name": "Kisasa",
    "latitude": -1.38333,
    "longitude": 30.01667,
    "category": "Mountain",
    "subcategory": "Mountain",
    "featured": false,
    "priority": 50
  },
  {
    "geonameId": 11401834,
    "name": "Kisengerwa",
    "latitude": 0.67302,
    "longitude": 30.24626,
    "category": "Lake",
    "subcategory": "Lake",
    "featured": false,
    "priority": 50
  },
  {
    "geonameId": 231032,
    "name": "Kishasha II",
    "latitude": -0.5,
    "longitude": 30.68333,
    "category": "Mountain",
    "subcategory": "Mountain",
    "featured": false,
    "priority": 50
  },
  {
    "geonameId": 231025,
    "name": "Kisima Island",
    "latitude": -0.03333,
    "longitude": 32.63333,
    "category": "Island",
    "subcategory": "Island",
    "featured": false,
    "priority": 50
  },
  {
    "geonameId": 8629023,
    "name": "Kisinga",
    "latitude": 0.07684,
    "longitude": 29.86832,
    "category": "City",
    "subcategory": "City",
    "featured": false,
    "priority": 50
  },
  {
    "geonameId": 11430049,
    "name": "Kisiro Island",
    "latitude": 0.9412,
    "longitude": 33.78303,
    "category": "Island",
    "subcategory": "Island",
    "featured": false,
    "priority": 50
  },
  {
    "geonameId": 230993,
    "name": "Kisoro",
    "latitude": -1.28538,
    "longitude": 29.68497,
    "category": "City",
    "subcategory": "County Seat",
    "featured": false,
    "priority": 50
  },
  {
    "geonameId": 230984,
    "name": "Kisozi Island",
    "latitude": -0.68333,
    "longitude": 31.26667,
    "category": "Island",
    "subcategory": "Island",
    "featured": false,
    "priority": 50
  },
  {
    "geonameId": 230949,
    "name": "Kitako Island",
    "latitude": -0.15,
    "longitude": 29.9,
    "category": "Island",
    "subcategory": "Island",
    "featured": false,
    "priority": 50
  },
  {
    "geonameId": 8051533,
    "name": "Kitamilo",
    "latitude": 0.22215,
    "longitude": 33.20608,
    "category": "City",
    "subcategory": "County Seat",
    "featured": false,
    "priority": 50
  },
  {
    "geonameId": 7909197,
    "name": "Kitandara Lakes",
    "latitude": 0.35016,
    "longitude": 29.88655,
    "category": "Lake",
    "subcategory": "Lake",
    "featured": false,
    "priority": 50
  },
  {
    "geonameId": 230907,
    "name": "Kiteny",
    "latitude": 3.53991,
    "longitude": 33.40616,
    "category": "Mountain",
    "subcategory": "Mountain",
    "featured": false,
    "priority": 50
  },
  {
    "geonameId": 230893,
    "name": "Kitgum",
    "latitude": 3.27833,
    "longitude": 32.88667,
    "category": "City",
    "subcategory": "County Seat",
    "featured": false,
    "priority": 50
  },
  {
    "geonameId": 230883,
    "name": "Kitobo Island",
    "latitude": -0.25,
    "longitude": 32.43333,
    "category": "Island",
    "subcategory": "Island",
    "featured": false,
    "priority": 50
  },
  {
    "geonameId": 230835,
    "name": "Kitwa",
    "latitude": -0.98333,
    "longitude": 29.78333,
    "category": "Mountain",
    "subcategory": "Mountain",
    "featured": false,
    "priority": 50
  },
  {
    "geonameId": 230811,
    "name": "Kiwa Island",
    "latitude": 0.04782,
    "longitude": 33.04264,
    "category": "Island",
    "subcategory": "Island",
    "featured": false,
    "priority": 50
  },
  {
    "geonameId": 230769,
    "name": "Kiyebe",
    "latitude": -1.05,
    "longitude": 29.83333,
    "category": "Mountain",
    "subcategory": "Mountain",
    "featured": false,
    "priority": 50
  },
  {
    "geonameId": 230756,
    "name": "Kizhuro",
    "latitude": -0.76667,
    "longitude": 30.23333,
    "category": "Mountain",
    "subcategory": "Mountain",
    "featured": false,
    "priority": 50
  },
  {
    "geonameId": 230753,
    "name": "Kiziba",
    "latitude": 0.51389,
    "longitude": 32.35056,
    "category": "City",
    "subcategory": "City",
    "featured": false,
    "priority": 50
  },
  {
    "geonameId": 230725,
    "name": "Koboko",
    "latitude": 3.41364,
    "longitude": 30.95994,
    "category": "City",
    "subcategory": "County Seat",
    "featured": false,
    "priority": 50
  },
  {
    "geonameId": 230717,
    "name": "Kochemaluk",
    "latitude": 2.18333,
    "longitude": 34.35,
    "category": "Mountain",
    "subcategory": "Mountain",
    "featured": false,
    "priority": 50
  },
  {
    "geonameId": 230708,
    "name": "Kochomin",
    "latitude": 2.04472,
    "longitude": 34.31167,
    "category": "Mountain",
    "subcategory": "Mountain",
    "featured": false,
    "priority": 50
  },
  {
    "geonameId": 230706,
    "name": "Kodiakori",
    "latitude": 2.11667,
    "longitude": 34.33333,
    "category": "Mountain",
    "subcategory": "Mountain",
    "featured": false,
    "priority": 50
  },
  {
    "geonameId": 230687,
    "name": "Kokoro",
    "latitude": 3.75898,
    "longitude": 33.96813,
    "category": "Mountain",
    "subcategory": "Mountain",
    "featured": false,
    "priority": 50
  },
  {
    "geonameId": 8051535,
    "name": "Kole",
    "latitude": 2.40015,
    "longitude": 32.80034,
    "category": "City",
    "subcategory": "County Seat",
    "featured": false,
    "priority": 50
  },
  {
    "geonameId": 230668,
    "name": "Kome Island",
    "latitude": -0.06139,
    "longitude": 32.73417,
    "category": "Island",
    "subcategory": "Island",
    "featured": false,
    "priority": 50
  },
  {
    "geonameId": 230663,
    "name": "Komogwe Island",
    "latitude": -0.2,
    "longitude": 33.9,
    "category": "Island",
    "subcategory": "Island",
    "featured": false,
    "priority": 50
  },
  {
    "geonameId": 230642,
    "name": "Kopiyo",
    "latitude": 2.55,
    "longitude": 33.9,
    "category": "Mountain",
    "subcategory": "Mountain",
    "featured": false,
    "priority": 50
  },
  {
    "geonameId": 8694134,
    "name": "Korkopyo",
    "latitude": 3.34099,
    "longitude": 33.56976,
    "category": "Mountain",
    "subcategory": "Mountain",
    "featured": false,
    "priority": 50
  },
  {
    "geonameId": 230621,
    "name": "Koten",
    "latitude": 3.08044,
    "longitude": 34.44303,
    "category": "Mountain",
    "subcategory": "Mountain",
    "featured": false,
    "priority": 50
  },
  {
    "geonameId": 230617,
    "name": "Kotido",
    "latitude": 2.98056,
    "longitude": 34.13306,
    "category": "City",
    "subcategory": "County Seat",
    "featured": false,
    "priority": 50
  },
  {
    "geonameId": 230603,
    "name": "Kuiye Island",
    "latitude": -0.61194,
    "longitude": 32.33417,
    "category": "Island",
    "subcategory": "Island",
    "featured": false,
    "priority": 50
  },
  {
    "geonameId": 230584,
    "name": "Kumi",
    "latitude": 1.46083,
    "longitude": 33.93611,
    "category": "City",
    "subcategory": "County Seat",
    "featured": false,
    "priority": 50
  },
  {
    "geonameId": 11356516,
    "name": "Kyabirwa Falls",
    "latitude": 0.49001,
    "longitude": 33.15011,
    "category": "Waterfall",
    "subcategory": "Waterfall",
    "featured": false,
    "priority": 50
  },
  {
    "geonameId": 230519,
    "name": "Kyabwageya",
    "latitude": 0.58333,
    "longitude": 30.08333,
    "category": "Mountain",
    "subcategory": "Peak",
    "featured": false,
    "priority": 50
  },
  {
    "geonameId": 13132715,
    "name": "Kyaka II Refugee Camp",
    "latitude": 0.36738,
    "longitude": 31.10817,
    "category": "City",
    "subcategory": "City",
    "featured": false,
    "priority": 50
  },
  {
    "geonameId": 230476,
    "name": "Kyamahungu",
    "latitude": -0.45139,
    "longitude": 30.11333,
    "category": "City",
    "subcategory": "City",
    "featured": false,
    "priority": 50
  },
  {
    "geonameId": 11357716,
    "name": "Kyanga Island",
    "latitude": 0.04422,
    "longitude": 32.98761,
    "category": "Island",
    "subcategory": "Island",
    "featured": false,
    "priority": 50
  },
  {
    "geonameId": 230413,
    "name": "Kyangabo",
    "latitude": -1.21667,
    "longitude": 30.05,
    "category": "Mountain",
    "subcategory": "Mountain",
    "featured": false,
    "priority": 50
  },
  {
    "geonameId": 13132716,
    "name": "Kyangwali Refugee Camp",
    "latitude": 1.18807,
    "longitude": 30.78281,
    "category": "City",
    "subcategory": "City",
    "featured": false,
    "priority": 50
  },
  {
    "geonameId": 8051534,
    "name": "Kyankwanzi",
    "latitude": 1.20061,
    "longitude": 31.80063,
    "category": "City",
    "subcategory": "County Seat",
    "featured": false,
    "priority": 50
  },
  {
    "geonameId": 230370,
    "name": "Kyarusozi",
    "latitude": 0.78417,
    "longitude": 30.53111,
    "category": "City",
    "subcategory": "City",
    "featured": false,
    "priority": 50
  },
  {
    "geonameId": 230348,
    "name": "Kyazanga",
    "latitude": -0.38333,
    "longitude": 31.35,
    "category": "City",
    "subcategory": "City",
    "featured": false,
    "priority": 50
  },
  {
    "geonameId": 230331,
    "name": "Kyegegwa",
    "latitude": 0.50222,
    "longitude": 31.04139,
    "category": "City",
    "subcategory": "County Seat",
    "featured": false,
    "priority": 50
  },
  {
    "geonameId": 10858926,
    "name": "Kyengera",
    "latitude": 0.29517,
    "longitude": 32.50159,
    "category": "City",
    "subcategory": "City",
    "featured": false,
    "priority": 50
  },
  {
    "geonameId": 230299,
    "name": "Kyenjojo",
    "latitude": 0.63278,
    "longitude": 30.62139,
    "category": "City",
    "subcategory": "County Seat",
    "featured": false,
    "priority": 50
  },
  {
    "geonameId": 230256,
    "name": "Kyotera",
    "latitude": -0.61556,
    "longitude": 31.5175,
    "category": "City",
    "subcategory": "City",
    "featured": false,
    "priority": 50
  },
  {
    "geonameId": 230235,
    "name": "Lagorlukuju",
    "latitude": 3.81871,
    "longitude": 32.94318,
    "category": "Mountain",
    "subcategory": "Mountain",
    "featured": false,
    "priority": 50
  },
  {
    "geonameId": 230231,
    "name": "Lakalale",
    "latitude": 2.65,
    "longitude": 33.86667,
    "category": "Mountain",
    "subcategory": "Mountain",
    "featured": false,
    "priority": 50
  },
  {
    "geonameId": 235484,
    "name": "Lake Adois",
    "latitude": 1.35,
    "longitude": 33.55,
    "category": "Lake",
    "subcategory": "Lake",
    "featured": false,
    "priority": 50
  },
  {
    "geonameId": 235410,
    "name": "Lake Aibapet",
    "latitude": 1.84579,
    "longitude": 33.87814,
    "category": "Lake",
    "subcategory": "Lake",
    "featured": false,
    "priority": 50
  },
  {
    "geonameId": 235399,
    "name": "Lake Ajama",
    "latitude": 1.6425,
    "longitude": 33.74109,
    "category": "Lake",
    "subcategory": "Lake",
    "featured": false,
    "priority": 50
  },
  {
    "geonameId": 226414,
    "name": "Lake Bisina",
    "latitude": 1.64618,
    "longitude": 33.91487,
    "category": "Lake",
    "subcategory": "Lake",
    "featured": false,
    "priority": 50
  },
  {
    "geonameId": 234144,
    "name": "Lake Bunyonyi",
    "latitude": -1.28333,
    "longitude": 29.91806,
    "category": "Lake",
    "subcategory": "Lake",
    "featured": false,
    "priority": 50
  },
  {
    "geonameId": 233776,
    "name": "Lake Bwara",
    "latitude": -0.66667,
    "longitude": 31.05,
    "category": "Lake",
    "subcategory": "Lake",
    "featured": false,
    "priority": 50
  },
  {
    "geonameId": 233705,
    "name": "Lake Chahafi",
    "latitude": -1.35,
    "longitude": 29.78333,
    "category": "Lake",
    "subcategory": "Lake",
    "featured": false,
    "priority": 50
  },
  {
    "geonameId": 233684,
    "name": "Lake Chazhengye",
    "latitude": -1.25,
    "longitude": 29.76667,
    "category": "Lake",
    "subcategory": "Lake",
    "featured": false,
    "priority": 50
  },
  {
    "geonameId": 233438,
    "name": "Lake Gawa",
    "latitude": 1.43333,
    "longitude": 33.7,
    "category": "Lake",
    "subcategory": "Lake",
    "featured": false,
    "priority": 50
  },
  {
    "geonameId": 233418,
    "name": "Lake Geme",
    "latitude": 1.28333,
    "longitude": 33.6,
    "category": "Lake",
    "subcategory": "Lake",
    "featured": false,
    "priority": 50
  },
  {
    "geonameId": 233416,
    "name": "Lake George",
    "latitude": 0.04389,
    "longitude": 30.14944,
    "category": "Lake",
    "subcategory": "Lake",
    "featured": false,
    "priority": 50
  },
  {
    "geonameId": 233408,
    "name": "Lake Gigati",
    "latitude": 1.3,
    "longitude": 33.53333,
    "category": "Lake",
    "subcategory": "Lake",
    "featured": false,
    "priority": 50
  },
  {
    "geonameId": 233060,
    "name": "Lake Kabaleka",
    "latitude": 0.25,
    "longitude": 30.25,
    "category": "Lake",
    "subcategory": "Lake",
    "featured": false,
    "priority": 50
  },
  {
    "geonameId": 232904,
    "name": "Lake Kachira",
    "latitude": -0.55892,
    "longitude": 31.13182,
    "category": "Lake",
    "subcategory": "Lake",
    "featured": false,
    "priority": 50
  },
  {
    "geonameId": 232871,
    "name": "Lake Kadiko",
    "latitude": 1.29278,
    "longitude": 33.51722,
    "category": "Lake",
    "subcategory": "Lake",
    "featured": false,
    "priority": 50
  },
  {
    "geonameId": 232190,
    "name": "Lake Karengye",
    "latitude": -0.90583,
    "longitude": 30.12972,
    "category": "Lake",
    "subcategory": "Lake",
    "featured": false,
    "priority": 50
  },
  {
    "geonameId": 232183,
    "name": "Lake Karitima",
    "latitude": -0.71667,
    "longitude": 31.03333,
    "category": "Lake",
    "subcategory": "Lake",
    "featured": false,
    "priority": 50
  },
  {
    "geonameId": 232175,
    "name": "Lake Karunga",
    "latitude": -0.71667,
    "longitude": 31.16667,
    "category": "Lake",
    "subcategory": "Lake",
    "featured": false,
    "priority": 50
  },
  {
    "geonameId": 232160,
    "name": "Lake Kasago",
    "latitude": 1.57048,
    "longitude": 33.74746,
    "category": "Lake",
    "subcategory": "Lake",
    "featured": false,
    "priority": 50
  },
  {
    "geonameId": 232097,
    "name": "Lake Kasasa",
    "latitude": -0.73333,
    "longitude": 30.95,
    "category": "Lake",
    "subcategory": "Lake",
    "featured": false,
    "priority": 50
  },
  {
    "geonameId": 231753,
    "name": "Lake Kawi",
    "latitude": 1.18611,
    "longitude": 33.63056,
    "category": "Lake",
    "subcategory": "Lake",
    "featured": false,
    "priority": 50
  },
  {
    "geonameId": 231730,
    "name": "Lake Kayanja",
    "latitude": -0.28333,
    "longitude": 31.86667,
    "category": "Lake",
    "subcategory": "Lake",
    "featured": false,
    "priority": 50
  },
  {
    "geonameId": 231700,
    "name": "Lake Kayumba",
    "latitude": -1.33333,
    "longitude": 29.78333,
    "category": "Lake",
    "subcategory": "Lake",
    "featured": false,
    "priority": 50
  },
  {
    "geonameId": 231669,
    "name": "Lake Kazuma",
    "latitude": -0.68333,
    "longitude": 31.01667,
    "category": "Lake",
    "subcategory": "Lake",
    "featured": false,
    "priority": 50
  },
  {
    "geonameId": 231361,
    "name": "Lake Kijanebalola",
    "latitude": -0.69417,
    "longitude": 31.29694,
    "category": "Lake",
    "subcategory": "Lake",
    "featured": false,
    "priority": 50
  },
  {
    "geonameId": 231169,
    "name": "Lake Kiondo",
    "latitude": 1.38333,
    "longitude": 33.4,
    "category": "Lake",
    "subcategory": "Lake",
    "featured": false,
    "priority": 50
  },
  {
    "geonameId": 231157,
    "name": "Lake Kiretwa",
    "latitude": -0.73333,
    "longitude": 30.93333,
    "category": "Lake",
    "subcategory": "Lake",
    "featured": false,
    "priority": 50
  },
  {
    "geonameId": 231113,
    "name": "Lake Kirkpatrick",
    "latitude": 2.38333,
    "longitude": 33.9,
    "category": "Lake",
    "subcategory": "Lake",
    "featured": false,
    "priority": 50
  },
  {
    "geonameId": 230841,
    "name": "Lake Kitunda",
    "latitude": -0.63333,
    "longitude": 31.73333,
    "category": "Lake",
    "subcategory": "Lake",
    "featured": false,
    "priority": 50
  },
  {
    "geonameId": 11357749,
    "name": "Lake Kizzi",
    "latitude": 0.01903,
    "longitude": 32.80461,
    "category": "Lake",
    "subcategory": "Lake",
    "featured": false,
    "priority": 50
  },
  {
    "geonameId": 230715,
    "name": "Lake Kochobo",
    "latitude": 1.49263,
    "longitude": 33.70983,
    "category": "Lake",
    "subcategory": "Lake",
    "featured": false,
    "priority": 50
  },
  {
    "geonameId": 230696,
    "name": "Lake Kojweri",
    "latitude": 1.66667,
    "longitude": 33.35,
    "category": "Lake",
    "subcategory": "Lake",
    "featured": false,
    "priority": 50
  },
  {
    "geonameId": 230654,
    "name": "Lake Komunua",
    "latitude": 1.28333,
    "longitude": 33.65,
    "category": "Lake",
    "subcategory": "Lake",
    "featured": false,
    "priority": 50
  },
  {
    "geonameId": 230611,
    "name": "Lake Kowidi",
    "latitude": 1.73333,
    "longitude": 33.41667,
    "category": "Lake",
    "subcategory": "Lake",
    "featured": false,
    "priority": 50
  },
  {
    "geonameId": 230564,
    "name": "Lake Kwania",
    "latitude": 1.71583,
    "longitude": 32.70056,
    "category": "Lake",
    "subcategory": "Lake",
    "featured": false,
    "priority": 50
  },
  {
    "geonameId": 230268,
    "name": "Lake Kyoga",
    "latitude": 1.4875,
    "longitude": 32.845,
    "category": "Lake",
    "subcategory": "Lake",
    "featured": false,
    "priority": 50
  },
  {
    "geonameId": 230182,
    "name": "Lake Lemwa",
    "latitude": 1.10944,
    "longitude": 33.68722,
    "category": "Lake",
    "subcategory": "Lake",
    "featured": false,
    "priority": 50
  },
  {
    "geonameId": 229572,
    "name": "Lake Mabira",
    "latitude": -0.48333,
    "longitude": 30.55,
    "category": "Lake",
    "subcategory": "Lake",
    "featured": false,
    "priority": 50
  },
  {
    "geonameId": 229399,
    "name": "Lake Manywa",
    "latitude": -0.33333,
    "longitude": 31.83333,
    "category": "Lake",
    "subcategory": "Lake",
    "featured": false,
    "priority": 50
  },
  {
    "geonameId": 229235,
    "name": "Lake Mburo",
    "latitude": -0.65889,
    "longitude": 30.93139,
    "category": "Lake",
    "subcategory": "Lake",
    "featured": false,
    "priority": 50
  },
  {
    "geonameId": 7839148,
    "name": "Lake Mburo National Park",
    "latitude": -0.61349,
    "longitude": 30.94174,
    "category": "Park",
    "subcategory": "Nature Reserve",
    "featured": false,
    "priority": 50
  },
  {
    "geonameId": 229228,
    "name": "Lake Meito",
    "latitude": 1.33333,
    "longitude": 33.58333,
    "category": "Lake",
    "subcategory": "Lake",
    "featured": false,
    "priority": 50
  },
  {
    "geonameId": 229161,
    "name": "Lake Mishera",
    "latitude": -0.73333,
    "longitude": 30.98333,
    "category": "Lake",
    "subcategory": "Lake",
    "featured": false,
    "priority": 50
  },
  {
    "geonameId": 228821,
    "name": "Lake Mulehe",
    "latitude": -1.21806,
    "longitude": 29.72139,
    "category": "Lake",
    "subcategory": "Lake",
    "featured": false,
    "priority": 50
  },
  {
    "geonameId": 228777,
    "name": "Lake Murlu",
    "latitude": 1.3,
    "longitude": 33.4,
    "category": "Lake",
    "subcategory": "Lake",
    "featured": false,
    "priority": 50
  },
  {
    "geonameId": 228713,
    "name": "Lake Mutanda",
    "latitude": -1.20861,
    "longitude": 29.67528,
    "category": "Lake",
    "subcategory": "Lake",
    "featured": false,
    "priority": 50
  },
  {
    "geonameId": 228697,
    "name": "Lake Mutukura",
    "latitude": -0.68333,
    "longitude": 30.98333,
    "category": "Lake",
    "subcategory": "Lake",
    "featured": false,
    "priority": 50
  },
  {
    "geonameId": 228600,
    "name": "Lake Nabigaga",
    "latitude": 1.23333,
    "longitude": 33.01667,
    "category": "Lake",
    "subcategory": "Lake",
    "featured": false,
    "priority": 50
  },
  {
    "geonameId": 228551,
    "name": "Lake Nabugabo",
    "latitude": -0.35705,
    "longitude": 31.91254,
    "category": "Lake",
    "subcategory": "Lake",
    "featured": false,
    "priority": 50
  },
  {
    "geonameId": 228432,
    "name": "Lake Nakasanda",
    "latitude": -0.83333,
    "longitude": 30,
    "category": "Lake",
    "subcategory": "Lake",
    "featured": false,
    "priority": 50
  },
  {
    "geonameId": 228415,
    "name": "Lake Nakatenga",
    "latitude": 1.16667,
    "longitude": 33.55,
    "category": "Lake",
    "subcategory": "Lake",
    "featured": false,
    "priority": 50
  },
  {
    "geonameId": 228344,
    "name": "Lake Nakivali",
    "latitude": -0.79374,
    "longitude": 30.87364,
    "category": "Lake",
    "subcategory": "Lake",
    "featured": false,
    "priority": 50
  },
  {
    "geonameId": 228329,
    "name": "Lake Nakuwa",
    "latitude": 1.16667,
    "longitude": 33.46667,
    "category": "Lake",
    "subcategory": "Lake",
    "featured": false,
    "priority": 50
  },
  {
    "geonameId": 228236,
    "name": "Lake Namasajeri",
    "latitude": 1.35,
    "longitude": 33.38333,
    "category": "Lake",
    "subcategory": "Lake",
    "featured": false,
    "priority": 50
  },
  {
    "geonameId": 228040,
    "name": "Lake Nansonko",
    "latitude": 1.03333,
    "longitude": 33.71667,
    "category": "Lake",
    "subcategory": "Lake",
    "featured": false,
    "priority": 50
  },
  {
    "geonameId": 228021,
    "name": "Lake Naragaga",
    "latitude": 1.36778,
    "longitude": 33.44806,
    "category": "Lake",
    "subcategory": "Lake",
    "featured": false,
    "priority": 50
  },
  {
    "geonameId": 227973,
    "name": "Lake Nawampasa",
    "latitude": 1.26667,
    "longitude": 33.35,
    "category": "Lake",
    "subcategory": "Lake",
    "featured": false,
    "priority": 50
  },
  {
    "geonameId": 10375719,
    "name": "Lake Nkuruba",
    "latitude": 0.51679,
    "longitude": 30.30297,
    "category": "Lake",
    "subcategory": "Lake",
    "featured": false,
    "priority": 50
  },
  {
    "geonameId": 11401703,
    "name": "Lake Nyabikora",
    "latitude": 0.69573,
    "longitude": 30.22206,
    "category": "Lake",
    "subcategory": "Lake",
    "featured": false,
    "priority": 50
  },
  {
    "geonameId": 227526,
    "name": "Lake Nyaguo",
    "latitude": 1.325,
    "longitude": 33.72278,
    "category": "Lake",
    "subcategory": "Lake",
    "featured": false,
    "priority": 50
  },
  {
    "geonameId": 11402552,
    "name": "Lake Nyahirya",
    "latitude": 0.49895,
    "longitude": 30.28644,
    "category": "Lake",
    "subcategory": "Lake",
    "featured": false,
    "priority": 50
  },
  {
    "geonameId": 11402512,
    "name": "Lake Nyamirima",
    "latitude": 0.51959,
    "longitude": 30.31842,
    "category": "Lake",
    "subcategory": "Lake",
    "featured": false,
    "priority": 50
  },
  {
    "geonameId": 227390,
    "name": "Lake Nyamunuka",
    "latitude": -0.08333,
    "longitude": 29.98333,
    "category": "Lake",
    "subcategory": "Lake",
    "featured": false,
    "priority": 50
  },
  {
    "geonameId": 11402550,
    "name": "Lake Nyanswiga",
    "latitude": 0.50656,
    "longitude": 30.2875,
    "category": "Lake",
    "subcategory": "Lake",
    "featured": false,
    "priority": 50
  },
  {
    "geonameId": 227338,
    "name": "Lake Nyasala",
    "latitude": 1.33333,
    "longitude": 33.65,
    "category": "Lake",
    "subcategory": "Lake",
    "featured": false,
    "priority": 50
  },
  {
    "geonameId": 11402555,
    "name": "Lake Nyinabulita",
    "latitude": 0.51072,
    "longitude": 30.32337,
    "category": "Lake",
    "subcategory": "Lake",
    "featured": false,
    "priority": 50
  },
  {
    "geonameId": 227223,
    "name": "Lake Odwali",
    "latitude": 1.61521,
    "longitude": 33.75154,
    "category": "Lake",
    "subcategory": "Lake",
    "featured": false,
    "priority": 50
  },
  {
    "geonameId": 11498004,
    "name": "Lake Ojonga",
    "latitude": 1.79761,
    "longitude": 33.81096,
    "category": "Lake",
    "subcategory": "Lake",
    "featured": false,
    "priority": 50
  },
  {
    "geonameId": 226988,
    "name": "Lake Opare",
    "latitude": 1.57083,
    "longitude": 33.66471,
    "category": "Lake",
    "subcategory": "Lake",
    "featured": false,
    "priority": 50
  },
  {
    "geonameId": 226984,
    "name": "Lake Opeta",
    "latitude": 1.625,
    "longitude": 34.19167,
    "category": "Lake",
    "subcategory": "Lake",
    "featured": false,
    "priority": 50
  },
  {
    "geonameId": 226896,
    "name": "Lake Owapet",
    "latitude": 1.75567,
    "longitude": 33.88914,
    "category": "Lake",
    "subcategory": "Lake",
    "featured": false,
    "priority": 50
  },
  {
    "geonameId": 226868,
    "name": "Lake Pachoto",
    "latitude": 1.35,
    "longitude": 33.48333,
    "category": "Lake",
    "subcategory": "Lake",
    "featured": false,
    "priority": 50
  },
  {
    "geonameId": 226680,
    "name": "Lake Rubi",
    "latitude": 2.65142,
    "longitude": 31.43512,
    "category": "Lake",
    "subcategory": "Lake",
    "featured": false,
    "priority": 50
  },
  {
    "geonameId": 226672,
    "name": "Lake Rubondo",
    "latitude": -0.7,
    "longitude": 31.06667,
    "category": "Lake",
    "subcategory": "Lake",
    "featured": false,
    "priority": 50
  },
  {
    "geonameId": 226598,
    "name": "Lake Ruma",
    "latitude": -0.71667,
    "longitude": 31.01667,
    "category": "Lake",
    "subcategory": "Lake",
    "featured": false,
    "priority": 50
  },
  {
    "geonameId": 226426,
    "name": "Lake Saka",
    "latitude": 0.69188,
    "longitude": 30.243,
    "category": "Lake",
    "subcategory": "Lake",
    "featured": false,
    "priority": 50
  },
  {
    "geonameId": 226359,
    "name": "Lake Semere",
    "latitude": 1.63692,
    "longitude": 33.76983,
    "category": "Lake",
    "subcategory": "Lake",
    "featured": false,
    "priority": 50
  },
  {
    "geonameId": 225943,
    "name": "Lake Wamala",
    "latitude": 0.32833,
    "longitude": 31.84056,
    "category": "Lake",
    "subcategory": "Lake",
    "featured": false,
    "priority": 50
  },
  {
    "geonameId": 230224,
    "name": "Lalak",
    "latitude": 3.61648,
    "longitude": 32.76714,
    "category": "Mountain",
    "subcategory": "Mountain",
    "featured": false,
    "priority": 50
  },
  {
    "geonameId": 230219,
    "name": "Lambu Island",
    "latitude": -0.31667,
    "longitude": 32.03333,
    "category": "Island",
    "subcategory": "Island",
    "featured": false,
    "priority": 50
  },
  {
    "geonameId": 230184,
    "name": "Lamej",
    "latitude": 3.76368,
    "longitude": 33.82533,
    "category": "Mountain",
    "subcategory": "Mountain",
    "featured": false,
    "priority": 50
  },
  {
    "geonameId": 230211,
    "name": "Lamwo",
    "latitude": 3.64999,
    "longitude": 32.89252,
    "category": "Mountain",
    "subcategory": "Mountain",
    "featured": false,
    "priority": 50
  },
  {
    "geonameId": 11433199,
    "name": "Laso Falls",
    "latitude": 0.89411,
    "longitude": 34.39646,
    "category": "Waterfall",
    "subcategory": "Waterfall",
    "featured": false,
    "priority": 50
  },
  {
    "geonameId": 230189,
    "name": "Lebu Island",
    "latitude": -0.25,
    "longitude": 33.08333,
    "category": "Island",
    "subcategory": "Island",
    "featured": false,
    "priority": 50
  },
  {
    "geonameId": 230173,
    "name": "Limaiba Island",
    "latitude": -0.31667,
    "longitude": 32.46667,
    "category": "Island",
    "subcategory": "Island",
    "featured": false,
    "priority": 50
  },
  {
    "geonameId": 230170,
    "name": "Linga Island",
    "latitude": -0.58333,
    "longitude": 32.2,
    "category": "Island",
    "subcategory": "Island",
    "featured": false,
    "priority": 50
  },
  {
    "geonameId": 230169,
    "name": "Lingira Island",
    "latitude": 0.31831,
    "longitude": 33.34615,
    "category": "Island",
    "subcategory": "Island",
    "featured": false,
    "priority": 50
  },
  {
    "geonameId": 230166,
    "name": "Lira",
    "latitude": 2.2499,
    "longitude": 32.89985,
    "category": "City",
    "subcategory": "County Seat",
    "featured": false,
    "priority": 50
  },
  {
    "geonameId": 230161,
    "name": "Liru",
    "latitude": 3.34915,
    "longitude": 31.02278,
    "category": "Mountain",
    "subcategory": "Mountain",
    "featured": false,
    "priority": 50
  },
  {
    "geonameId": 230160,
    "name": "Lobaale",
    "latitude": 3.11768,
    "longitude": 34.4694,
    "category": "Mountain",
    "subcategory": "Mountain",
    "featured": false,
    "priority": 50
  },
  {
    "geonameId": 230157,
    "name": "Lobeluna",
    "latitude": 3.68874,
    "longitude": 33.97801,
    "category": "Mountain",
    "subcategory": "Mountain",
    "featured": false,
    "priority": 50
  },
  {
    "geonameId": 8695793,
    "name": "Lochibil",
    "latitude": 3.69361,
    "longitude": 33.56376,
    "category": "Mountain",
    "subcategory": "Mountain",
    "featured": false,
    "priority": 50
  },
  {
    "geonameId": 8694126,
    "name": "Lochomo",
    "latitude": 3.43746,
    "longitude": 33.64542,
    "category": "Mountain",
    "subcategory": "Mountain",
    "featured": false,
    "priority": 50
  },
  {
    "geonameId": 230141,
    "name": "Lodaja",
    "latitude": 3.80169,
    "longitude": 32.94239,
    "category": "Mountain",
    "subcategory": "Mountain",
    "featured": false,
    "priority": 50
  },