[
  {
    "geonameId": 5856516,
    "name": "‘Āhuimanu",
    "latitude": 21.44472,
    "longitude": -157.83778,
    "category": "City",
    "subcategory": "City",
    "admin1": "HI",
    "population": 8810,
    "featured": false,
    "priority": 50
  },
  {
    "geonameId": 5856430,
    "name": "‘Aiea",
    "latitude": 21.38222,
    "longitude": -157.93361,
    "category": "City",
    "subcategory": "City",
    "admin1": "HI",
    "population": 9338,
    "featured": false,
    "priority": 50
  },
  {
    "geonameId": 5857020,
    "name": "‘Aiea Heights",
    "latitude": 21.39083,
    "longitude": -157.92053,
    "category": "City",
    "subcategory": "City",
    "admin1": "HI",
    "population": 5487,
    "featured": false,
    "priority": 50
  },
  {
    "geonameId": 5855051,
    "name": "‘Ewa Beach",
    "latitude": 21.31556,
    "longitude": -158.00722,
    "category": "City",
    "subcategory": "City",
    "admin1": "HI",
    "population": 16415,
    "featured": false,
    "priority": 50
  },
  {
    "geonameId": 5855070,
    "name": "‘Ewa Gentry",
    "latitude": 21.33999,
    "longitude": -158.03039,
    "category": "City",
    "subcategory": "City",
    "admin1": "HI",
    "population": 22690,
    "featured": false,
    "priority": 50
  },
  {
    "geonameId": 5855073,
    "name": "‘Ewa Villages",
    "latitude": 21.34127,
    "longitude": -158.0397,
    "category": "City",
    "subcategory": "City",
    "admin1": "HI",
    "population": 6108,
    "featured": false,
    "priority": 50
  },
  {
    "geonameId": 4314295,
    "name": "Abbeville",
    "latitude": 29.97465,
    "longitude": -92.13429,
    "category": "City",
    "subcategory": "County Seat",
    "admin1": "LA",
    "population": 12434,
    "featured": false,
    "priority": 50
  },
  {
    "geonameId": 4346913,
    "name": "Aberdeen",
    "latitude": 39.50956,
    "longitude": -76.16412,
    "category": "City",
    "subcategory": "City",
    "admin1": "MD",
    "population": 15580,
    "featured": false,
    "priority": 50
  },
  {
    "geonameId": 4267354,
    "name": "Abilene",
    "latitude": 38.91722,
    "longitude": -97.21391,
    "category": "City",
    "subcategory": "County Seat",
    "admin1": "KS",
    "population": 6558,
    "featured": false,
    "priority": 50
  },
  {
    "geonameId": 4743815,
    "name": "Abingdon",
    "latitude": 36.70983,
    "longitude": -81.97735,
    "category": "City",
    "subcategory": "County Seat",
    "admin1": "VA",
    "population": 8119,
    "featured": false,
    "priority": 50
  },
  {
    "geonameId": 4928662,
    "name": "Abington",
    "latitude": 42.10482,
    "longitude": -70.94532,
    "category": "City",
    "subcategory": "City",
    "admin1": "MA",
    "population": 15985,
    "featured": false,
    "priority": 50
  },
  {
    "geonameId": 4500458,
    "name": "Absecon",
    "latitude": 39.42845,
    "longitude": -74.49571,
    "category": "City",
    "subcategory": "City",
    "admin1": "NJ",
    "population": 8317,
    "featured": false,
    "priority": 50
  },
  {
    "geonameId": 4346952,
    "name": "Accokeek",
    "latitude": 38.66762,
    "longitude": -77.02831,
    "category": "City",
    "subcategory": "City",
    "admin1": "MD",
    "population": 10573,
    "featured": false,
    "priority": 50
  },
  {
    "geonameId": 4928703,
    "name": "Acton",
    "latitude": 42.48509,
    "longitude": -71.43284,
    "category": "City",
    "subcategory": "City",
    "admin1": "MA",
    "population": 20897,
    "featured": false,
    "priority": 50
  },
  {
    "geonameId": 4928720,
    "name": "Acushnet",
    "latitude": 41.68066,
    "longitude": -70.90782,
    "category": "City",
    "subcategory": "City",
    "admin1": "MA",
    "population": 10850,
    "featured": false,
    "priority": 50
  },
  {
    "geonameId": 4179074,
    "name": "Acworth",
    "latitude": 34.06635,
    "longitude": -84.67837,
    "category": "City",
    "subcategory": "City",
    "admin1": "GA",
    "population": 22131,
    "featured": false,
    "priority": 50
  },
  {
    "geonameId": 4529096,
    "name": "Ada",
    "latitude": 34.77453,
    "longitude": -96.67834,
    "category": "City",
    "subcategory": "County Seat",
    "admin1": "OK",
    "population": 17303,
    "featured": false,
    "priority": 50
  },
  {
    "geonameId": 4928733,
    "name": "Adams",
    "latitude": 42.62425,
    "longitude": -73.1176,
    "category": "City",
    "subcategory": "City",
    "admin1": "MA",
    "population": 5515,
    "featured": false,
    "priority": 50
  },
  {
    "geonameId": 4137457,
    "name": "Adams Morgan",
    "latitude": 38.9215,
    "longitude": -77.0422,
    "category": "City",
    "subcategory": "City",
    "admin1": "DC",
    "population": 15830,
    "featured": false,
    "priority": 50
  },
  {
    "geonameId": 4669828,
    "name": "Addison",
    "latitude": 32.96179,
    "longitude": -96.82917,
    "category": "City",
    "subcategory": "City",
    "admin1": "TX",
    "population": 15518,
    "featured": false,
    "priority": 50
  },
  {
    "geonameId": 4179193,
    "name": "Adel",
    "latitude": 31.13727,
    "longitude": -83.42408,
    "category": "City",
    "subcategory": "County Seat",
    "admin1": "GA",
    "population": 5316,
    "featured": false,
    "priority": 50
  },
  {
    "geonameId": 5322400,
    "name": "Adelanto",
    "latitude": 34.58277,
    "longitude": -117.40922,
    "category": "City",
    "subcategory": "City",
    "admin1": "CA",
    "population": 33166,
    "featured": false,
    "priority": 50
  },
  {
    "geonameId": 4346991,
    "name": "Adelphi",
    "latitude": 39.00317,
    "longitude": -76.97192,
    "category": "City",
    "subcategory": "City",
    "admin1": "MD",
    "population": 15086,
    "featured": false,
    "priority": 50
  },
  {
    "geonameId": 4983811,
    "name": "Adrian",
    "latitude": 41.89755,
    "longitude": -84.03717,
    "category": "City",
    "subcategory": "County Seat",
    "admin1": "MI",
    "population": 20691,
    "featured": false,
    "priority": 50
  },
  {
    "geonameId": 4374513,
    "name": "Affton",
    "latitude": 38.55061,
    "longitude": -90.33317,
    "category": "City",
    "subcategory": "City",
    "admin1": "MO",
    "population": 20307,
    "featured": false,
    "priority": 50
  },
  {
    "geonameId": 5710669,
    "name": "Agate Beach",
    "latitude": 44.67734,
    "longitude": -124.06178,
    "category": "City",
    "subcategory": "City",
    "admin1": "OR",
    "population": 12351,
    "featured": false,
    "priority": 50
  },
  {
    "geonameId": 4928788,
    "name": "Agawam",
    "latitude": 42.06954,
    "longitude": -72.61481,
    "category": "City",
    "subcategory": "City",
    "admin1": "MA",
    "population": 28761,
    "featured": false,
    "priority": 50
  },
  {
    "geonameId": 5322551,
    "name": "Agoura",
    "latitude": 34.14306,
    "longitude": -118.73787,
    "category": "City",
    "subcategory": "City",
    "admin1": "CA",
    "population": 20537,
    "featured": false,
    "priority": 50
  },
  {
    "geonameId": 5322553,
    "name": "Agoura Hills",
    "latitude": 34.13639,
    "longitude": -118.77453,
    "category": "City",
    "subcategory": "City",
    "admin1": "CA",
    "population": 20915,
    "featured": false,
    "priority": 50
  },
  {
    "geonameId": 5322571,
    "name": "Agua Caliente",
    "latitude": 38.32408,
    "longitude": -122.48804,
    "category": "City",
    "subcategory": "City",
    "admin1": "CA",
    "population": 27090,
    "featured": false,
    "priority": 50
  },
  {
    "geonameId": 4569067,
    "name": "Aiken",
    "latitude": 33.56042,
    "longitude": -81.71955,
    "category": "City",
    "subcategory": "County Seat",
    "admin1": "SC",
    "population": 30604,
    "featured": false,
    "priority": 50
  },
  {
    "geonameId": 7260752,
    "name": "Air Force Academy",
    "latitude": 38.99425,
    "longitude": -104.86375,
    "category": "City",
    "subcategory": "City",
    "admin1": "CO",
    "population": 6680,
    "featured": false,
    "priority": 50
  },
  {
    "geonameId": 5106817,
    "name": "Airmont",
    "latitude": 41.10093,
    "longitude": -74.11625,
    "category": "City",
    "subcategory": "City",
    "admin1": "NY",
    "population": 8891,
    "featured": false,
    "priority": 50
  },
  {
    "geonameId": 5785378,
    "name": "Airway Heights",
    "latitude": 47.64461,
    "longitude": -117.59327,
    "category": "City",
    "subcategory": "City",
    "admin1": "WA",
    "population": 6639,
    "featured": false,
    "priority": 50
  },
  {
    "geonameId": 5145476,
    "name": "Akron",
    "latitude": 41.08144,
    "longitude": -81.51901,
    "category": "City",
    "subcategory": "County Seat",
    "admin1": "OH",
    "population": 197542,
    "featured": false,
    "priority": 50
  },
  {
    "geonameId": 4829762,
    "name": "Alabaster",
    "latitude": 33.24428,
    "longitude": -86.81638,
    "category": "City",
    "subcategory": "City",
    "admin1": "AL",
    "population": 32707,
    "featured": false,
    "priority": 50
  },
  {
    "geonameId": 4145719,
    "name": "Alachua",
    "latitude": 29.75163,
    "longitude": -82.42483,
    "category": "City",
    "subcategory": "City",
    "admin1": "FL",
    "population": 9757,
    "featured": false,
    "priority": 50
  },
  {
    "geonameId": 6332439,
    "name": "Alafaya",
    "latitude": 28.5641,
    "longitude": -81.2114,
    "category": "City",
    "subcategory": "City",
    "admin1": "FL",
    "population": 78113,
    "featured": false,
    "priority": 50
  },
  {
    "geonameId": 5322737,
    "name": "Alameda",
    "latitude": 37.77099,
    "longitude": -122.26087,
    "category": "City",
    "subcategory": "City",
    "admin1": "CA",
    "population": 78630,
    "featured": false,
    "priority": 50
  },
  {
    "geonameId": 4670074,
    "name": "Alamo",
    "latitude": 26.18369,
    "longitude": -98.12306,
    "category": "City",
    "subcategory": "City",
    "admin1": "TX",
    "population": 19246,
    "featured": false,
    "priority": 50
  },
  {
    "geonameId": 5454627,
    "name": "Alamogordo",
    "latitude": 32.89953,
    "longitude": -105.96027,
    "category": "City",
    "subcategory": "County Seat",
    "admin1": "NM",
    "population": 30753,
    "featured": false,
    "priority": 50
  },
  {
    "geonameId": 5411479,
    "name": "Alamosa",
    "latitude": 37.46945,
    "longitude": -105.87002,
    "category": "City",
    "subcategory": "County Seat",
    "admin1": "CO",
    "population": 9819,
    "featured": false,
    "priority": 50
  },
  {
    "geonameId": 4179320,
    "name": "Albany",
    "latitude": 31.57851,
    "longitude": -84.15574,
    "category": "City",
    "subcategory": "County Seat",
    "admin1": "GA",
    "population": 74843,
    "featured": false,
    "priority": 50
  },
  {
    "geonameId": 4452303,
    "name": "Albemarle",
    "latitude": 35.35014,
    "longitude": -80.20006,
    "category": "City",
    "subcategory": "County Seat",
    "admin1": "NC",
    "population": 16003,
    "featured": false,
    "priority": 50
  },
  {
    "geonameId": 5016024,
    "name": "Albert Lea",
    "latitude": 43.64801,
    "longitude": -93.36827,
    "category": "City",
    "subcategory": "County Seat",
    "admin1": "MN",
    "population": 17674,
    "featured": false,
    "priority": 50
  },
  {
    "geonameId": 5106857,
    "name": "Albertson",
    "latitude": 40.77343,
    "longitude": -73.64318,
    "category": "City",
    "subcategory": "City",
    "admin1": "NY",
    "population": 5182,
    "featured": false,
    "priority": 50
  },
  {
    "geonameId": 4829791,
    "name": "Albertville",
    "latitude": 34.26783,
    "longitude": -86.20878,
    "category": "City",
    "subcategory": "City",
    "admin1": "AL",
    "population": 21462,
    "featured": false,
    "priority": 50
  },
  {
    "geonameId": 4983905,
    "name": "Albion",
    "latitude": 42.2431,
    "longitude": -84.75303,
    "category": "City",
    "subcategory": "City",
    "admin1": "MI",
    "population": 8229,
    "featured": false,
    "priority": 50
  },
  {
    "geonameId": 5454711,
    "name": "Albuquerque",
    "latitude": 35.08449,
    "longitude": -106.65114,
    "category": "City",
    "subcategory": "County Seat",
    "admin1": "NM",
    "population": 564559,
    "featured": false,
    "priority": 50
  },
  {
    "geonameId": 4602181,
    "name": "Alcoa",
    "latitude": 35.78953,
    "longitude": -83.97379,
    "category": "City",
    "subcategory": "City",
    "admin1": "TN",
    "population": 9316,
    "featured": false,
    "priority": 50
  },
  {
    "geonameId": 5785453,
    "name": "Alderwood Manor",
    "latitude": 47.808,
    "longitude": -122.261,
    "category": "City",
    "subcategory": "City",
    "admin1": "WA",
    "population": 8442,
    "featured": false,
    "priority": 50
  },
  {
    "geonameId": 4829843,
    "name": "Alexander City",
    "latitude": 32.94401,
    "longitude": -85.95385,
    "category": "City",
    "subcategory": "City",
    "admin1": "AL",
    "population": 14718,
    "featured": false,
    "priority": 50
  },
  {
    "geonameId": 4282342,
    "name": "Alexandria",
    "latitude": 38.95951,
    "longitude": -84.38799,
    "category": "City",
    "subcategory": "City",
    "admin1": "KY",
    "population": 9009,
    "featured": false,
    "priority": 50
  },
  {
    "geonameId": 4846602,
    "name": "Algona",
    "latitude": 43.06997,
    "longitude": -94.23302,
    "category": "City",
    "subcategory": "County Seat",
    "admin1": "IA",
    "population": 5470,
    "featured": false,
    "priority": 50
  },
  {
    "geonameId": 4883078,
    "name": "Algonquin",
    "latitude": 42.16558,
    "longitude": -88.29425,
    "category": "City",
    "subcategory": "City",
    "admin1": "IL",
    "population": 30571,
    "featured": false,
    "priority": 50
  },
  {
    "geonameId": 5323060,
    "name": "Alhambra",
    "latitude": 34.09529,
    "longitude": -118.12701,
    "category": "City",
    "subcategory": "City",
    "admin1": "CA",
    "population": 85551,
    "featured": false,
    "priority": 50
  },
  {
    "geonameId": 13100433,
    "name": "Aliamanu / Salt Lakes / Foster Village",
    "latitude": 21.36022,
    "longitude": -157.91838,
    "category": "City",
    "subcategory": "City",
    "admin1": "HI",
    "population": 38833,
    "featured": false,
    "priority": 50
  },
  {
    "geonameId": 4670234,
    "name": "Alice",
    "latitude": 27.75225,
    "longitude": -98.06972,
    "category": "City",
    "subcategory": "County Seat",
    "admin1": "TX",
    "population": 19408,
    "featured": false,
    "priority": 50
  },
  {
    "geonameId": 5178027,
    "name": "Aliquippa",
    "latitude": 40.63673,
    "longitude": -80.24006,
    "category": "City",
    "subcategory": "City",
    "admin1": "PA",
    "population": 9197,
    "featured": false,
    "priority": 50
  },
  {
    "geonameId": 5323163,
    "name": "Aliso Viejo",
    "latitude": 33.56504,
    "longitude": -117.72712,
    "category": "City",
    "subcategory": "City",
    "admin1": "CA",
    "population": 50195,
    "featured": false,
    "priority": 50
  },
  {
    "geonameId": 4145805,
    "name": "Allapattah",
    "latitude": 25.81454,
    "longitude": -80.22394,
    "category": "City",
    "subcategory": "City",
    "admin1": "FL",
    "population": 54289,
    "featured": false,
    "priority": 50
  },
  {
    "geonameId": 4983989,
    "name": "Allegan",
    "latitude": 42.5292,
    "longitude": -85.8553,
    "category": "City",
    "subcategory": "County Seat",
    "admin1": "MI",
    "population": 5071,
    "featured": false,
    "priority": 50
  },
  {
    "geonameId": 4670300,
    "name": "Allen",
    "latitude": 33.10317,
    "longitude": -96.67055,
    "category": "City",
    "subcategory": "City",
    "admin1": "TX",
    "population": 98143,
    "featured": false,
    "priority": 50
  },
  {
    "geonameId": 4984016,
    "name": "Allen Park",
    "latitude": 42.25754,
    "longitude": -83.21104,
    "category": "City",
    "subcategory": "City",
    "admin1": "MI",
    "population": 27425,
    "featured": false,
    "priority": 50
  },
  {
    "geonameId": 4984029,
    "name": "Allendale",
    "latitude": 42.97225,
    "longitude": -85.95365,
    "category": "City",
    "subcategory": "City",
    "admin1": "MI",
    "population": 17579,
    "featured": false,
    "priority": 50
  },
  {
    "geonameId": 5178127,
    "name": "Allentown",
    "latitude": 40.60843,
    "longitude": -75.49018,
    "category": "City",
    "subcategory": "County Seat",
    "admin1": "PA",
    "population": 120207,
    "featured": false,
    "priority": 50
  },
  {
    "geonameId": 5145607,
    "name": "Alliance",
    "latitude": 40.91534,
    "longitude": -81.10593,
    "category": "City",
    "subcategory": "City",
    "admin1": "OH",
    "population": 22055,
    "featured": false,
    "priority": 50
  },
  {
    "geonameId": 5178165,
    "name": "Allison Park",
    "latitude": 40.55951,
    "longitude": -79.95867,
    "category": "City",
    "subcategory": "City",
    "admin1": "PA",
    "population": 21552,
    "featured": false,
    "priority": 50
  },
  {
    "geonameId": 5243770,
    "name": "Allouez",
    "latitude": 44.47749,
    "longitude": -88.01621,
    "category": "City",
    "subcategory": "City",
    "admin1": "WI",
    "population": 13930,
    "featured": false,
    "priority": 50
  },
  {
    "geonameId": 4928934,
    "name": "Allston",
    "latitude": 42.35843,
    "longitude": -71.12589,
    "category": "City",
    "subcategory": "City",
    "admin1": "MA",
    "population": 28821,
    "featured": false,
    "priority": 50
  },
  {
    "geonameId": 4099296,
    "name": "Alma",
    "latitude": 35.47787,
    "longitude": -94.22188,
    "category": "City",
    "subcategory": "City",
    "admin1": "AR",
    "population": 5575,
    "featured": false,
    "priority": 50
  },
  {
    "geonameId": 5711099,
    "name": "Aloha",
    "latitude": 45.49428,
    "longitude": -122.86705,
    "category": "City",
    "subcategory": "City",
    "admin1": "OR",
    "population": 49425,
    "featured": false,
    "priority": 50
  },
  {
    "geonameId": 5323371,
    "name": "Alondra Park",
    "latitude": 33.88946,
    "longitude": -118.33091,
    "category": "City",
    "subcategory": "City",
    "admin1": "CA",
    "population": 8592,
    "featured": false,
    "priority": 50
  },
  {
    "geonameId": 4984075,
    "name": "Alpena",
    "latitude": 45.06168,
    "longitude": -83.43275,
    "category": "City",
    "subcategory": "County Seat",
    "admin1": "MI",
    "population": 10175,
    "featured": false,
    "priority": 50
  },
  {
    "geonameId": 4179574,
    "name": "Alpharetta",
    "latitude": 34.07538,
    "longitude": -84.29409,
    "category": "City",
    "subcategory": "City",
    "admin1": "GA",
    "population": 63693,
    "featured": false,
    "priority": 50
  },
  {
    "geonameId": 5323401,
    "name": "Alpine",
    "latitude": 32.83505,
    "longitude": -116.76641,
    "category": "City",
    "subcategory": "City",
    "admin1": "CA",
    "population": 14236,
    "featured": false,
    "priority": 50
  },
  {
    "geonameId": 4883207,
    "name": "Alsip",
    "latitude": 41.66892,
    "longitude": -87.73866,
    "category": "City",
    "subcategory": "City",
    "admin1": "IL",
    "population": 19346,
    "featured": false,
    "priority": 50
  },
  {
    "geonameId": 5323499,
    "name": "Alta Sierra",
    "latitude": 35.73126,
    "longitude": -118.5539,
    "category": "City",
    "subcategory": "City",
    "admin1": "CA",
    "population": 7047,
    "featured": false,
    "priority": 50
  },
  {
    "geonameId": 5323525,
    "name": "Altadena",
    "latitude": 34.18973,
    "longitude": -118.13118,
    "category": "City",
    "subcategory": "City",
    "admin1": "CA",
    "population": 42777,
    "featured": false,
    "priority": 50
  },
  {
    "geonameId": 5711149,
    "name": "Altamont",
    "latitude": 42.20681,
    "longitude": -121.73722,
    "category": "City",
    "subcategory": "City",
    "admin1": "OR",
    "population": 19257,
    "featured": false,
    "priority": 50
  },
  {
    "geonameId": 4145941,
    "name": "Altamonte Springs",
    "latitude": 28.66111,
    "longitude": -81.36562,
    "category": "City",
    "subcategory": "City",
    "admin1": "FL",
    "population": 43159,
    "featured": false,
    "priority": 50
  },
  {
    "geonameId": 4232679,
    "name": "Alton",
    "latitude": 38.8906,
    "longitude": -90.18428,
    "category": "City",
    "subcategory": "City",
    "admin1": "IL",
    "population": 27003,
    "featured": false,
    "priority": 50
  },
  {
    "geonameId": 4670562,
    "name": "Alton North (historical)",
    "latitude": 26.29535,
    "longitude": -98.30446,
    "category": "City",
    "subcategory": "City",
    "admin1": "TX",
    "population": 5541,
    "featured": false,
    "priority": 50
  },
  {
    "geonameId": 4846757,
    "name": "Altoona",
    "latitude": 41.64416,
    "longitude": -93.46466,
    "category": "City",
    "subcategory": "City",
    "admin1": "IA",
    "population": 16984,
    "featured": false,
    "priority": 50
  },
  {
    "geonameId": 4529292,
    "name": "Altus",
    "latitude": 34.63813,
    "longitude": -99.33398,
    "category": "City",
    "subcategory": "County Seat",
    "admin1": "OK",
    "population": 19214,
    "featured": false,
    "priority": 50
  },
  {
    "geonameId": 4529308,
    "name": "Alva",
    "latitude": 36.80499,
    "longitude": -98.66718,
    "category": "City",
    "subcategory": "County Seat",
    "admin1": "OK",
    "population": 5180,
    "featured": false,
    "priority": 50
  },
  {
    "geonameId": 4670592,
    "name": "Alvin",
    "latitude": 29.42385,
    "longitude": -95.2441,
    "category": "City",
    "subcategory": "City",
    "admin1": "TX",
    "population": 25791,
    "featured": false,
    "priority": 50
  },
  {
    "geonameId": 5516233,
    "name": "Amarillo",
    "latitude": 35.222,
    "longitude": -101.8313,
    "category": "City",
    "subcategory": "County Seat",
    "admin1": "TX",
    "population": 198645,
    "featured": false,
    "priority": 50
  },
  {
    "geonameId": 5178225,
    "name": "Ambler",
    "latitude": 40.15455,
    "longitude": -75.22157,
    "category": "City",
    "subcategory": "City",
    "admin1": "PA",
    "population": 6505,
    "featured": false,
    "priority": 50
  },
  {
    "geonameId": 5178228,
    "name": "Ambridge",
    "latitude": 40.58923,
    "longitude": -80.22506,
    "category": "City",
    "subcategory": "City",
    "admin1": "PA",
    "population": 6859,
    "featured": false,
    "priority": 50
  },
  {
    "geonameId": 5323694,
    "name": "American Canyon",
    "latitude": 38.17492,
    "longitude": -122.2608,
    "category": "City",
    "subcategory": "City",
    "admin1": "CA",
    "population": 20554,
    "featured": false,
    "priority": 50
  },
  {
    "geonameId": 5844096,
    "name": "American Fork",
    "latitude": 40.3769,
    "longitude": -111.79576,
    "category": "City",
    "subcategory": "City",
    "admin1": "UT",
    "population": 28326,
    "featured": false,
    "priority": 50
  },
  {
    "geonameId": 4179667,
    "name": "Americus",
    "latitude": 32.07239,
    "longitude": -84.23269,
    "category": "City",
    "subcategory": "County Seat",
    "admin1": "GA",
    "population": 16028,
    "featured": false,
    "priority": 50
  },
  {
    "geonameId": 4846834,
    "name": "Ames",
    "latitude": 42.03471,
    "longitude": -93.61994,
    "category": "City",
    "subcategory": "City",
    "admin1": "IA",
    "population": 65060,
    "featured": false,
    "priority": 50
  },
  {
    "geonameId": 4929004,
    "name": "Amesbury",
    "latitude": 42.85842,
    "longitude": -70.93005,
    "category": "City",
    "subcategory": "City",
    "admin1": "MA",
    "population": 18313,
    "featured": false,
    "priority": 50
  },
  {
    "geonameId": 4929022,
    "name": "Amherst",
    "latitude": 42.36723,
    "longitude": -72.51852,
    "category": "City",
    "subcategory": "City",
    "admin1": "MA",
    "population": 39833,
    "featured": false,
    "priority": 50
  },
  {
    "geonameId": 4929023,
    "name": "Amherst Center",
    "latitude": 42.37537,
    "longitude": -72.51925,
    "category": "City",
    "subcategory": "City",
    "admin1": "MA",
    "population": 19065,
    "featured": false,
    "priority": 50
  },
  {
    "geonameId": 5107140,
    "name": "Amityville",
    "latitude": 40.67899,
    "longitude": -73.41707,
    "category": "City",
    "subcategory": "City",
    "admin1": "NY",
    "population": 9486,
    "featured": false,
    "priority": 50
  },
  {
    "geonameId": 5583997,
    "name": "Ammon",
    "latitude": 43.46964,
    "longitude": -111.96664,
    "category": "City",
    "subcategory": "City",
    "admin1": "ID",
    "population": 14960,
    "featured": false,
    "priority": 50
  },
  {
    "geonameId": 4416192,
    "name": "Amory",
    "latitude": 33.98428,
    "longitude": -88.4881,
    "category": "City",
    "subcategory": "City",
    "admin1": "MS",
    "population": 7067,
    "featured": false,
    "priority": 50
  },
  {
    "geonameId": 5107152,
    "name": "Amsterdam",
    "latitude": 42.93869,
    "longitude": -74.18819,
    "category": "City",
    "subcategory": "City",
    "admin1": "NY",
    "population": 18008,
    "featured": false,
    "priority": 50
  },
  {
    "geonameId": 5637146,
    "name": "Anaconda",
    "latitude": 46.12854,
    "longitude": -112.94226,
    "category": "City",
    "subcategory": "County Seat",
    "admin1": "MT",
    "population": 9417,
    "featured": false,
    "priority": 50
  },
  {
    "geonameId": 5785657,
    "name": "Anacortes",
    "latitude": 48.5126,
    "longitude": -122.61267,
    "category": "City",
    "subcategory": "City",
    "admin1": "WA",
    "population": 18103,
    "featured": false,
    "priority": 50
  },
  {
    "geonameId": 4137523,
    "name": "Anacostia",
    "latitude": 38.8665,
    "longitude": -76.98386,
    "category": "City",
    "subcategory": "City",
    "admin1": "DC",
    "population": 11789,
    "featured": false,
    "priority": 50
  },
  {
    "geonameId": 4529353,
    "name": "Anadarko",
    "latitude": 35.07256,
    "longitude": -98.24366,
    "category": "City",
    "subcategory": "County Seat",
    "admin1": "OK",
    "population": 6717,
    "featured": false,
    "priority": 50
  },
  {
    "geonameId": 5323810,
    "name": "Anaheim",
    "latitude": 33.83529,
    "longitude": -117.9145,
    "category": "City",
    "subcategory": "City",
    "admin1": "CA",
    "population": 350742,
    "featured": false,
    "priority": 50
  },
  {
    "geonameId": 4846880,
    "name": "Anamosa",
    "latitude": 42.10834,
    "longitude": -91.28516,
    "category": "City",
    "subcategory": "County Seat",
    "admin1": "IA",
    "population": 5469,
    "featured": false,
    "priority": 50
  },
  {
    "geonameId": 5879400,
    "name": "Anchorage",
    "latitude": 61.21806,
    "longitude": -149.90028,
    "category": "City",
    "subcategory": "County Seat",
    "admin1": "AK",
    "population": 289600,
    "featured": false,
    "priority": 50
  },
  {
    "geonameId": 5178280,
    "name": "Ancient Oaks",
    "latitude": 40.54732,
    "longitude": -75.58935,
    "category": "City",
    "subcategory": "City",
    "admin1": "PA",
    "population": 6661,
    "featured": false,
    "priority": 50
  },
  {
    "geonameId": 4830099,
    "name": "Andalusia",
    "latitude": 31.30808,
    "longitude": -86.48243,
    "category": "City",
    "subcategory": "County Seat",
    "admin1": "AL",
    "population": 9063,
    "featured": false,
    "priority": 50
  },
  {
    "geonameId": 4569298,
    "name": "Anderson",
    "latitude": 34.50344,
    "longitude": -82.65013,
    "category": "City",
    "subcategory": "County Seat",
    "admin1": "SC",
    "population": 27335,
    "featured": false,
    "priority": 50
  },
  {
    "geonameId": 4146039,
    "name": "Andover",
    "latitude": 25.96843,
    "longitude": -80.21283,
    "category": "City",
    "subcategory": "City",
    "admin1": "FL",
    "population": 9877,
    "featured": false,
    "priority": 50
  },
  {
    "geonameId": 5516288,
    "name": "Andrews",
    "latitude": 32.31872,
    "longitude": -102.54572,
    "category": "City",
    "subcategory": "County Seat",
    "admin1": "TX",
    "population": 13816,
    "featured": false,
    "priority": 50
  },
  {
    "geonameId": 4670866,
    "name": "Angleton",
    "latitude": 29.16941,
    "longitude": -95.43188,
    "category": "City",
    "subcategory": "County Seat",
    "admin1": "TX",
    "population": 19429,
    "featured": false,
    "priority": 50
  },
  {
    "geonameId": 4917614,
    "name": "Angola",
    "latitude": 41.63477,
    "longitude": -84.99941,
    "category": "City",
    "subcategory": "County Seat",
    "admin1": "IN",
    "population": 8644,
    "featured": false,
    "priority": 50
  },
  {
    "geonameId": 4846960,
    "name": "Ankeny",
    "latitude": 41.72971,
    "longitude": -93.60577,
    "category": "City",
    "subcategory": "City",
    "admin1": "IA",
    "population": 56764,
    "featured": false,
    "priority": 50
  },
  {
    "geonameId": 4984247,
    "name": "Ann Arbor",
    "latitude": 42.27756,
    "longitude": -83.74088,
    "category": "City",
    "subcategory": "County Seat",
    "admin1": "MI",
    "population": 117070,
    "featured": false,
    "priority": 50
  },
  {
    "geonameId": 4670871,
    "name": "Anna",
    "latitude": 33.349,
    "longitude": -96.5486,
    "category": "City",
    "subcategory": "City",
    "admin1": "TX",
    "population": 11463,
    "featured": false,
    "priority": 50
  },
  {
    "geonameId": 4744468,
    "name": "Annandale",
    "latitude": 38.83039,
    "longitude": -77.19637,
    "category": "City",
    "subcategory": "City",
    "admin1": "VA",
    "population": 41008,
    "featured": false,
    "priority": 50
  },
  {
    "geonameId": 4347242,
    "name": "Annapolis",
    "latitude": 38.97859,
    "longitude": -76.49184,
    "category": "City",
    "subcategory": "Regional Capital",
    "admin1": "MD",
    "population": 40812,
    "featured": false,
    "priority": 50
  },
  {
    "geonameId": 4830198,
    "name": "Anniston",
    "latitude": 33.65983,
    "longitude": -85.83163,
    "category": "City",
    "subcategory": "County Seat",
    "admin1": "AL",
    "population": 22347,
    "featured": false,
    "priority": 50
  },
  {
    "geonameId": 5016450,
    "name": "Anoka",
    "latitude": 45.19774,
    "longitude": -93.38718,
    "category": "City",
    "subcategory": "County Seat",
    "admin1": "MN",
    "population": 17350,
    "featured": false,
    "priority": 50
  },
  {
    "geonameId": 5281551,
    "name": "Ansonia",
    "latitude": 41.34621,
    "longitude": -73.079,
    "category": "City",
    "subcategory": "City",
    "admin1": "CT",
    "population": 18854,
    "featured": false,
    "priority": 50
  },
  {
    "geonameId": 5324105,
    "name": "Antelope",
    "latitude": 38.70824,
    "longitude": -121.32995,
    "category": "City",
    "subcategory": "City",
    "admin1": "CA",
    "population": 45770,
    "featured": false,
    "priority": 50
  },
  {
    "geonameId": 5455381,
    "name": "Anthony",
    "latitude": 32.00399,
    "longitude": -106.60583,
    "category": "City",
    "subcategory": "City",
    "admin1": "NM",
    "population": 9293,
    "featured": false,
    "priority": 50
  },
  {
    "geonameId": 5244010,
    "name": "Antigo",
    "latitude": 45.14025,
    "longitude": -89.15234,
    "category": "City",
    "subcategory": "County Seat",
    "admin1": "WI",
    "population": 7869,
    "featured": false,
    "priority": 50
  },
  {
    "geonameId": 4883393,
    "name": "Antioch",
    "latitude": 42.47724,
    "longitude": -88.09564,
    "category": "City",
    "subcategory": "City",
    "admin1": "IL",
    "population": 14329,
    "featured": false,
    "priority": 50
  },
  {
    "geonameId": 5551535,
    "name": "Apache Junction",
    "latitude": 33.41505,
    "longitude": -111.54958,
    "category": "City",
    "subcategory": "City",
    "admin1": "AZ",
    "population": 38074,
    "featured": false,
    "priority": 50
  },
  {
    "geonameId": 4452808,
    "name": "Apex",
    "latitude": 35.73265,
    "longitude": -78.85029,
    "category": "City",
    "subcategory": "City",
    "admin1": "NC",
    "population": 45585,
    "featured": false,
    "priority": 50
  },
  {
    "geonameId": 4146161,
    "name": "Apollo Beach",
    "latitude": 27.77308,
    "longitude": -82.40759,
    "category": "City",
    "subcategory": "City",
    "admin1": "FL",
    "population": 14055,
    "featured": false,
    "priority": 50
  },
  {
    "geonameId": 4146166,
    "name": "Apopka",
    "latitude": 28.67617,
    "longitude": -81.51186,
    "category": "City",
    "subcategory": "City",
    "admin1": "FL",
    "population": 48382,
    "featured": false,
    "priority": 50
  },
  {
    "geonameId": 5016494,
    "name": "Apple Valley",
    "latitude": 44.73191,
    "longitude": -93.21772,
    "category": "City",
    "subcategory": "City",
    "admin1": "MN",
    "population": 51221,
    "featured": false,
    "priority": 50
  },
  {
    "geonameId": 5244080,
    "name": "Appleton",
    "latitude": 44.26193,
    "longitude": -88.41538,
    "category": "City",
    "subcategory": "County Seat",
    "admin1": "WI",
    "population": 74139,
    "featured": false,
    "priority": 50
  },
  {
    "geonameId": 5412030,
    "name": "Applewood",
    "latitude": 39.75778,
    "longitude": -105.1625,
    "category": "City",
    "subcategory": "City",
    "admin1": "CO",
    "population": 7160,
    "featured": false,
    "priority": 50
  },
  {
    "geonameId": 5324400,
    "name": "Aptos",
    "latitude": 36.97717,
    "longitude": -121.8994,
    "category": "City",
    "subcategory": "City",
    "admin1": "CA",
    "population": 6220,
    "featured": false,
    "priority": 50
  },
  {
    "geonameId": 4744645,
    "name": "Aquia Harbour",
    "latitude": 38.46262,
    "longitude": -77.38887,
    "category": "City",
    "subcategory": "City",
    "admin1": "VA",
    "population": 6727,
    "featured": false,
    "priority": 50
  },
  {
    "geonameId": 4830455,
    "name": "Arab",
    "latitude": 34.31815,
    "longitude": -86.49582,
    "category": "City",
    "subcategory": "City",
    "admin1": "AL",
    "population": 8295,
    "featured": false,
    "priority": 50
  },
  {
    "geonameId": 4671141,
    "name": "Aransas Pass",
    "latitude": 27.90947,
    "longitude": -97.14999,
    "category": "City",
    "subcategory": "City",
    "admin1": "TX",
    "population": 8530,
    "featured": false,
    "priority": 50
  },
  {
    "geonameId": 4347371,
    "name": "Arbutus",
    "latitude": 39.25455,
    "longitude": -76.69997,
    "category": "City",
    "subcategory": "City",
    "admin1": "MD",
    "population": 20483,
    "featured": false,
    "priority": 50
  },
  {
    "geonameId": 4146206,
    "name": "Arcadia",
    "latitude": 27.21588,
    "longitude": -81.85842,
    "category": "City",
    "subcategory": "County Seat",
    "admin1": "FL",
    "population": 7851,
    "featured": false,
    "priority": 50
  },
  {
    "geonameId": 5558953,
    "name": "Arcata",
    "latitude": 40.86652,
    "longitude": -124.08284,
    "category": "City",
    "subcategory": "City",
    "admin1": "CA",
    "population": 17843,
    "featured": false,
    "priority": 50
  },
  {
    "geonameId": 5178450,
    "name": "Archbald",
    "latitude": 41.4948,
    "longitude": -75.53685,
    "category": "City",
    "subcategory": "City",
    "admin1": "PA",
    "population": 6960,
    "featured": false,
    "priority": 50
  },
  {
    "geonameId": 4452871,
    "name": "Archdale",
    "latitude": 35.91458,
    "longitude": -79.97198,
    "category": "City",
    "subcategory": "City",
    "admin1": "NC",
    "population": 11564,
    "featured": false,
    "priority": 50
  },
  {
    "geonameId": 5534542,
    "name": "Arches National Park",
    "latitude": 38.72254,
    "longitude": -109.58635,
    "category": "Park",
    "subcategory": "Park",
    "admin1": "UT",
    "population": 0,
    "featured": false,
    "priority": 50
  },
  {
    "geonameId": 5016553,
    "name": "Arden Hills",
    "latitude": 45.05024,
    "longitude": -93.15661,
    "category": "City",
    "subcategory": "City",
    "admin1": "MN",
    "population": 9951,
    "featured": false,
    "priority": 50
  },
  {
    "geonameId": 7260806,
    "name": "Arden-Arcade",
    "latitude": 38.6025,
    "longitude": -121.37854,
    "category": "City",
    "subcategory": "City",
    "admin1": "CA",
    "population": 92186,
    "featured": false,
    "priority": 50
  },
  {
    "geonameId": 4529469,
    "name": "Ardmore",
    "latitude": 34.17426,
    "longitude": -97.14363,
    "category": "City",
    "subcategory": "County Seat",
    "admin1": "OK",
    "population": 25176,
    "featured": false,
    "priority": 50
  },
  {
    "geonameId": 5551665,
    "name": "Arizona City",
    "latitude": 32.75589,
    "longitude": -111.67096,
    "category": "City",
    "subcategory": "City",
    "admin1": "AZ",
    "population": 10475,
    "featured": false,
    "priority": 50
  },
  {
    "geonameId": 4099647,
    "name": "Arkadelphia",
    "latitude": 34.12093,
    "longitude": -93.05378,
    "category": "City",
    "subcategory": "County Seat",
    "admin1": "AR",
    "population": 10745,
    "featured": false,
    "priority": 50
  },
  {
    "geonameId": 4267661,
    "name": "Arkansas City",
    "latitude": 37.06197,
    "longitude": -97.03837,
    "category": "City",
    "subcategory": "City",
    "admin1": "KS",
    "population": 12136,
    "featured": false,
    "priority": 50
  },
  {
    "geonameId": 4603001,
    "name": "Arlington",
    "latitude": 35.2962,
    "longitude": -89.66147,
    "category": "City",
    "subcategory": "City",
    "admin1": "TN",
    "population": 11625,
    "featured": false,
    "priority": 50
  },
  {
    "geonameId": 4883555,
    "name": "Arlington Heights",
    "latitude": 42.08836,
    "longitude": -87.98063,
    "category": "City",
    "subcategory": "City",
    "admin1": "IL",
    "population": 75926,
    "featured": false,
    "priority": 50
  },
  {
    "geonameId": 4347426,
    "name": "Arnold",
    "latitude": 39.03206,
    "longitude": -76.50274,
    "category": "City",
    "subcategory": "City",
    "admin1": "MD",
    "population": 23106,
    "featured": false,
    "priority": 50
  },
  {
    "geonameId": 5324802,
    "name": "Arroyo Grande",
    "latitude": 35.11859,
    "longitude": -120.59073,
    "category": "City",
    "subcategory": "City",
    "admin1": "CA",
    "population": 18108,
    "featured": false,
    "priority": 50
  },
  {
    "geonameId": 5324862,
    "name": "Artesia",
    "latitude": 33.86585,
    "longitude": -118.08312,
    "category": "City",
    "subcategory": "City",
    "admin1": "CA",
    "population": 16961,
    "featured": false,
    "priority": 50
  },
  {
    "geonameId": 5785909,
    "name": "Artondale",
    "latitude": 47.29954,
    "longitude": -122.62069,
    "category": "City",
    "subcategory": "City",
    "admin1": "WA",
    "population": 12653,
    "featured": false,
    "priority": 50
  },
  {
    "geonameId": 5412199,
    "name": "Arvada",
    "latitude": 39.80276,
    "longitude": -105.08748,
    "category": "City",
    "subcategory": "City",
    "admin1": "CO",
    "population": 115368,
    "featured": false,
    "priority": 50
  },
  {
    "geonameId": 5324903,
    "name": "Arvin",
    "latitude": 35.20913,
    "longitude": -118.82843,
    "category": "City",
    "subcategory": "City",
    "admin1": "CA",
    "population": 20876,
    "featured": false,
    "priority": 50
  },
  {
    "geonameId": 4847226,
    "name": "Asbury",
    "latitude": 42.51445,
    "longitude": -90.75152,
    "category": "City",
    "subcategory": "City",
    "admin1": "IA",
    "population": 5291,
    "featured": false,
    "priority": 50
  },
  {
    "geonameId": 4146302,
    "name": "Asbury Lake",
    "latitude": 30.04913,
    "longitude": -81.82149,
    "category": "City",
    "subcategory": "City",
    "admin1": "FL",
    "population": 8700,
    "featured": false,
    "priority": 50
  },
  {
    "geonameId": 5095281,
    "name": "Asbury Park",
    "latitude": 40.22039,
    "longitude": -74.01208,
    "category": "City",
    "subcategory": "City",
    "admin1": "NJ",
    "population": 15818,
    "featured": false,
    "priority": 50
  },
  {
    "geonameId": 4744870,
    "name": "Ashburn",
    "latitude": 39.04372,
    "longitude": -77.48749,
    "category": "City",
    "subcategory": "City",
    "admin1": "VA",
    "population": 43511,
    "featured": false,
    "priority": 50
  },
  {
    "geonameId": 4929256,
    "name": "Ashburnham",
    "latitude": 42.6362,
    "longitude": -71.90785,
    "category": "City",
    "subcategory": "City",
    "admin1": "MA",
    "population": 5643,
    "featured": false,
    "priority": 50
  },
  {
    "geonameId": 4453035,
    "name": "Asheboro",
    "latitude": 35.70791,
    "longitude": -79.81364,
    "category": "City",
    "subcategory": "County Seat",
    "admin1": "NC",
    "population": 26103,
    "featured": false,
    "priority": 50
  },
  {
    "geonameId": 4453066,
    "name": "Asheville",
    "latitude": 35.60095,
    "longitude": -82.55402,
    "category": "City",
    "subcategory": "County Seat",
    "admin1": "NC",
    "population": 95056,
    "featured": false,
    "priority": 50
  },
  {
    "geonameId": 4282757,
    "name": "Ashland",
    "latitude": 38.47841,
    "longitude": -82.63794,
    "category": "City",
    "subcategory": "City",
    "admin1": "KY",
    "population": 21108,
    "featured": false,
    "priority": 50
  },
  {
    "geonameId": 4929314,
    "name": "Ashmont",
    "latitude": 42.28343,
    "longitude": -71.06894,
    "category": "City",
    "subcategory": "City",
    "admin1": "MA",
    "population": 30000,
    "featured": false,
    "priority": 50
  },
  {
    "geonameId": 5146089,
    "name": "Ashtabula",
    "latitude": 41.86505,
    "longitude": -80.78981,
    "category": "City",
    "subcategory": "City",
    "admin1": "OH",
    "population": 18371,
    "featured": false,
    "priority": 50
  },
  {
    "geonameId": 7257953,
    "name": "Ashton-Sandy Spring",
    "latitude": 39.14976,
    "longitude": -77.00504,
    "category": "City",
    "subcategory": "City",
    "admin1": "MD",
    "population": 5628,
    "featured": false,
    "priority": 50
  },
  {
    "geonameId": 5244267,
    "name": "Ashwaubenon",
    "latitude": 44.48221,
    "longitude": -88.0701,
    "category": "City",
    "subcategory": "City",
    "admin1": "WI",
    "population": 17176,
    "featured": false,
    "priority": 50
  },
  {
    "geonameId": 5412230,
    "name": "Aspen",
    "latitude": 39.1911,
    "longitude": -106.81754,
    "category": "City",
    "subcategory": "County Seat",
    "admin1": "CO",
    "population": 6882,
    "featured": false,
    "priority": 50
  },
  {
    "geonameId": 4347553,
    "name": "Aspen Hill",
    "latitude": 39.07955,
    "longitude": -77.07303,
    "category": "City",
    "subcategory": "City",
    "admin1": "MD",
    "population": 48759,
    "featured": false,
    "priority": 50
  },
  {
    "geonameId": 5711847,
    "name": "Astoria",
    "latitude": 46.18788,
    "longitude": -123.83125,
    "category": "City",
    "subcategory": "County Seat",
    "admin1": "OR",
    "population": 9626,
    "featured": false,
    "priority": 50
  },
  {
    "geonameId": 5325111,
    "name": "Atascadero",
    "latitude": 35.48942,
    "longitude": -120.67073,
    "category": "City",
    "subcategory": "City",
    "admin1": "CA",
    "population": 29819,
    "featured": false,
    "priority": 50
  },
  {
    "geonameId": 4267733,
    "name": "Atchison",
    "latitude": 39.56305,
    "longitude": -95.12164,
    "category": "City",
    "subcategory": "County Seat",
    "admin1": "KS",
    "population": 10712,
    "featured": false,
    "priority": 50
  },
  {
    "geonameId": 4500541,
    "name": "Atco",
    "latitude": 39.76984,
    "longitude": -74.88739,
    "category": "City",
    "subcategory": "City",
    "admin1": "NJ",
    "population": 12350,
    "featured": false,
    "priority": 50
  },
  {
    "geonameId": 4180386,
    "name": "Athens",
    "latitude": 33.96095,
    "longitude": -83.37794,
    "category": "City",
    "subcategory": "County Seat",
    "admin1": "GA",
    "population": 127315,
    "featured": false,
    "priority": 50
  },
  {
    "geonameId": 5325147,
    "name": "Atherton",
    "latitude": 37.46133,
    "longitude": -122.19774,
    "category": "City",
    "subcategory": "City",
    "admin1": "CA",
    "population": 7167,
    "featured": false,
    "priority": 50
  },
  {
    "geonameId": 4929376,
    "name": "Athol",
    "latitude": 42.59592,
    "longitude": -72.22675,
    "category": "City",
    "subcategory": "City",
    "admin1": "MA",
    "population": 8265,
    "featured": false,
    "priority": 50
  },
  {
    "geonameId": 5082790,
    "name": "Atkinson",
    "latitude": 42.83842,
    "longitude": -71.147,
    "category": "City",
    "subcategory": "City",
    "admin1": "NH",
    "population": 6782,
    "featured": false,
    "priority": 50
  },
  {
    "geonameId": 4180439,
    "name": "Atlanta",
    "latitude": 33.749,
    "longitude": -84.38798,
    "category": "City",
    "subcategory": "Regional Capital",
    "admin1": "GA",
    "population": 510823,
    "featured": false,
    "priority": 50
  },
  {
    "geonameId": 4847385,
    "name": "Atlantic",
    "latitude": 41.4036,
    "longitude": -95.01388,
    "category": "City",
    "subcategory": "County Seat",
    "admin1": "IA",
    "population": 6833,
    "featured": false,
    "priority": 50
  },
  {
    "geonameId": 4146354,
    "name": "Atlantic Beach",
    "latitude": 30.33441,
    "longitude": -81.3987,
    "category": "City",
    "subcategory": "City",
    "admin1": "FL",
    "population": 13193,
    "featured": false,
    "priority": 50
  },
  {
    "geonameId": 4500546,
    "name": "Atlantic City",
    "latitude": 39.36415,
    "longitude": -74.42306,
    "category": "City",
    "subcategory": "City",
    "admin1": "NJ",
    "population": 39260,
    "featured": false,
    "priority": 50
  },
  {
    "geonameId": 4830759,
    "name": "Atmore",
    "latitude": 31.02379,
    "longitude": -87.49387,
    "category": "City",
    "subcategory": "City",
    "admin1": "AL",
    "population": 10049,
    "featured": false,
    "priority": 50
  },
  {
    "geonameId": 4603347,
    "name": "Atoka",
    "latitude": 35.44119,
    "longitude": -89.77814,
    "category": "City",
    "subcategory": "City",
    "admin1": "TN",
    "population": 9064,
    "featured": false,
    "priority": 50
  },
  {
    "geonameId": 4830768,
    "name": "Attalla",
    "latitude": 34.02176,
    "longitude": -86.08859,
    "category": "City",
    "subcategory": "City",
    "admin1": "AL",
    "population": 5899,
    "featured": false,
    "priority": 50
  },
  {
    "geonameId": 4929399,
    "name": "Attleboro",
    "latitude": 41.94454,
    "longitude": -71.28561,
    "category": "City",
    "subcategory": "City",
    "admin1": "MA",
    "population": 44284,
    "featured": false,
    "priority": 50
  },
  {
    "geonameId": 5325187,
    "name": "Atwater",
    "latitude": 37.34772,
    "longitude": -120.60908,
    "category": "City",
    "subcategory": "City",
    "admin1": "CA",
    "population": 29237,
    "featured": false,
    "priority": 50
  },
  {
    "geonameId": 4180512,
    "name": "Auburn",
    "latitude": 34.01372,
    "longitude": -83.82768,
    "category": "City",
    "subcategory": "City",
    "admin1": "GA",
    "population": 7524,
    "featured": false,
    "priority": 50
  },
  {
    "geonameId": 4984565,
    "name": "Auburn Hills",
    "latitude": 42.68753,
    "longitude": -83.2341,
    "category": "City",
    "subcategory": "City",
    "admin1": "MI",
    "population": 22672,
    "featured": false,
    "priority": 50
  },
  {
    "geonameId": 4146389,
    "name": "Auburndale",
    "latitude": 28.0653,
    "longitude": -81.78869,
    "category": "City",
    "subcategory": "City",
    "admin1": "FL",
    "population": 15035,
    "featured": false,
    "priority": 50
  },
  {
    "geonameId": 4500572,
    "name": "Audubon",
    "latitude": 39.89095,
    "longitude": -75.07295,
    "category": "City",
    "subcategory": "City",
    "admin1": "NJ",
    "population": 8730,
    "featured": false,
    "priority": 50
  },
  {
    "geonameId": 5325256,
    "name": "August",
    "latitude": 37.97881,
    "longitude": -121.26217,
    "category": "City",
    "subcategory": "City",
    "admin1": "CA",
    "population": 8390,
    "featured": false,
    "priority": 50
  },
  {
    "geonameId": 4180531,
    "name": "Augusta",
    "latitude": 33.47097,
    "longitude": -81.97484,
    "category": "City",
    "subcategory": "County Seat",
    "admin1": "GA",
    "population": 43459,
    "featured": false,
    "priority": 50
  },
  {
    "geonameId": 4375349,
    "name": "Aurora",
    "latitude": 36.97089,
    "longitude": -93.71798,
    "category": "City",
    "subcategory": "City",
    "admin1": "MO",
    "population": 7477,
    "featured": false,
    "priority": 50
  },
  {
    "geonameId": 4180564,
    "name": "Austell",
    "latitude": 33.81261,
    "longitude": -84.63438,
    "category": "City",
    "subcategory": "City",
    "admin1": "GA",
    "population": 7107,
    "featured": false,
    "priority": 50
  },
  {
    "geonameId": 4671654,
    "name": "Austin",
    "latitude": 30.26715,
    "longitude": -97.74306,
    "category": "City",
    "subcategory": "Regional Capital",
    "admin1": "TX",
    "population": 974447,
    "featured": false,
    "priority": 50
  },
  {
    "geonameId": 5146256,
    "name": "Austintown",
    "latitude": 41.10172,
    "longitude": -80.76452,
    "category": "City",
    "subcategory": "City",
    "admin1": "OH",
    "population": 29677,
    "featured": false,
    "priority": 50
  },
  {
    "geonameId": 4146428,
    "name": "Ave Maria",
    "latitude": 26.33667,
    "longitude": -81.43806,
    "category": "City",
    "subcategory": "City",
    "admin1": "FL",
    "population": 6242,
    "featured": false,
    "priority": 50
  },
  {
    "geonameId": 5325327,
    "name": "Avenal",
    "latitude": 36.00412,
    "longitude": -120.12903,
    "category": "City",
    "subcategory": "City",
    "admin1": "CA",
    "population": 13301,
    "featured": false,
    "priority": 50
  },
  {
    "geonameId": 5095325,
    "name": "Avenel",
    "latitude": 40.58038,
    "longitude": -74.28515,
    "category": "City",
    "subcategory": "City",
    "admin1": "NJ",
    "population": 17011,
    "featured": false,
    "priority": 50
  },
  {
    "geonameId": 4146429,
    "name": "Aventura",
    "latitude": 25.95648,
    "longitude": -80.13921,
    "category": "City",
    "subcategory": "City",
    "admin1": "FL",
    "population": 37649,
    "featured": false,
    "priority": 50
  },
  {
    "geonameId": 5325372,
    "name": "Avocado Heights",
    "latitude": 34.03612,
    "longitude": -117.99118,
    "category": "City",
    "subcategory": "City",
    "admin1": "CA",
    "population": 15411,
    "featured": false,
    "priority": 50
  },
  {
    "geonameId": 4254021,
    "name": "Avon",
    "latitude": 39.76282,
    "longitude": -86.39972,
    "category": "City",
    "subcategory": "City",
    "admin1": "IN",
    "population": 16451,
    "featured": false,
    "priority": 50
  },
  {
    "geonameId": 5146282,
    "name": "Avon Center",
    "latitude": 41.45976,
    "longitude": -82.01959,
    "category": "City",
    "subcategory": "City",
    "admin1": "OH",
    "population": 15724,
    "featured": false,
    "priority": 50
  },
  {
    "geonameId": 5146286,
    "name": "Avon Lake",
    "latitude": 41.50532,
    "longitude": -82.0282,
    "category": "City",
    "subcategory": "City",
    "admin1": "OH",
    "population": 23453,
    "featured": false,
    "priority": 50
  },
  {
    "geonameId": 4146440,
    "name": "Avon Park",
    "latitude": 27.59587,
    "longitude": -81.50619,
    "category": "City",
    "subcategory": "City",
    "admin1": "FL",
    "population": 10086,
    "featured": false,
    "priority": 50
  },
  {
    "geonameId": 5552301,
    "name": "Avondale",
    "latitude": 33.4356,
    "longitude": -112.3496,
    "category": "City",
    "subcategory": "City",
    "admin1": "AZ",
    "population": 80684,
    "featured": false,
    "priority": 50
  },
  {
    "geonameId": 5552323,
    "name": "Avra Valley",
    "latitude": 32.43785,
    "longitude": -111.31539,
    "category": "City",
    "subcategory": "City",
    "admin1": "AZ",
    "population": 6050,
    "featured": false,
    "priority": 50
  },
  {
    "geonameId": 4453271,
    "name": "Ayden",
    "latitude": 35.47266,
    "longitude": -77.41552,
    "category": "City",
    "subcategory": "City",
    "admin1": "NC",
    "population": 5053,
    "featured": false,
    "priority": 50
  },
  {
    "geonameId": 4146464,
    "name": "Azalea Park",
    "latitude": 28.54111,
    "longitude": -81.30062,
    "category": "City",
    "subcategory": "City",
    "admin1": "FL",
    "population": 12556,
    "featured": false,
    "priority": 50
  },
  {
    "geonameId": 4671800,
    "name": "Azle",
    "latitude": 32.89513,
    "longitude": -97.54586,
    "category": "City",
    "subcategory": "City",
    "admin1": "TX",
    "population": 11693,
    "featured": false,
    "priority": 50
  },
  {
    "geonameId": 5456049,
    "name": "Aztec",
    "latitude": 36.82223,
    "longitude": -107.99285,
    "category": "City",
    "subcategory": "County Seat",
    "admin1": "NM",
    "population": 6147,
    "featured": false,
    "priority": 50
  },
  {
    "geonameId": 5325423,
    "name": "Azusa",
    "latitude": 34.13362,
    "longitude": -117.90756,
    "category": "City",
    "subcategory": "City",
    "admin1": "CA",
    "population": 49690,
    "featured": false,
    "priority": 50
  },
  {
    "geonameId": 5107612,
    "name": "Babylon",
    "latitude": 40.69566,
    "longitude": -73.32568,
    "category": "City",
    "subcategory": "City",
    "admin1": "NY",
    "population": 12161,
    "featured": false,
    "priority": 50
  },
  {
    "geonameId": 4929532,
    "name": "Back Bay",
    "latitude": 42.3501,
    "longitude": -71.087,
    "category": "City",
    "subcategory": "City",
    "admin1": "MA",
    "population": 17577,
    "featured": false,
    "priority": 50
  },
  {
    "geonameId": 5178800,
    "name": "Back Mountain",
    "latitude": 41.33591,
    "longitude": -75.99631,
    "category": "City",
    "subcategory": "City",
    "admin1": "PA",
    "population": 26973,
    "featured": false,
    "priority": 50
  },
  {
    "geonameId": 13286803,
    "name": "Back of the Hill",
    "latitude": 42.32926,
    "longitude": -71.11102,
    "category": "City",
    "subcategory": "City",
    "admin1": "MA",
    "population": 6272,
    "featured": false,
    "priority": 50
  },
  {
    "geonameId": 4671895,
    "name": "Bacliff",
    "latitude": 29.5069,
    "longitude": -94.99243,
    "category": "City",
    "subcategory": "City",
    "admin1": "TX",
    "population": 8619,
    "featured": false,
    "priority": 50
  },
  {
    "geonameId": 5879898,
    "name": "Badger",
    "latitude": 64.8,
    "longitude": -147.53333,
    "category": "City",
    "subcategory": "City",
    "admin1": "AK",
    "population": 19482,
    "featured": false,
    "priority": 50
  },
  {
    "geonameId": 5412500,
    "name": "Bailey",
    "latitude": 39.40554,
    "longitude": -105.47333,
    "category": "City",
    "subcategory": "City",
    "admin1": "CO",
    "population": 8042,
    "featured": false,
    "priority": 50
  },
  {
    "geonameId": 4745272,
    "name": "Baileys Crossroads",
    "latitude": 38.85039,
    "longitude": -77.1297,
    "category": "City",
    "subcategory": "City",
    "admin1": "VA",
    "population": 23643,
    "featured": false,
    "priority": 50
  },
  {
    "geonameId": 4180775,
    "name": "Bainbridge",
    "latitude": 30.9038,
    "longitude": -84.57547,
    "category": "City",
    "subcategory": "County Seat",
    "admin1": "GA",
    "population": 12507,
    "featured": false,
    "priority": 50
  },
  {
    "geonameId": 5816320,
    "name": "Bainbridge Island",
    "latitude": 47.62621,
    "longitude": -122.52124,
    "category": "City",
    "subcategory": "City",
    "admin1": "WA",
    "population": 23840,
    "featured": false,
    "priority": 50
  },
  {
    "geonameId": 4315312,
    "name": "Baker",
    "latitude": 30.58824,
    "longitude": -91.16816,
    "category": "City",
    "subcategory": "City",
    "admin1": "LA",
    "population": 13695,
    "featured": false,
    "priority": 50
  },
  {
    "geonameId": 5712169,
    "name": "Baker City",
    "latitude": 44.77487,
    "longitude": -117.83438,
    "category": "City",
    "subcategory": "County Seat",
    "admin1": "OR",
    "population": 9752,
    "featured": false,
    "priority": 50
  },
  {
    "geonameId": 5325738,
    "name": "Bakersfield",
    "latitude": 35.37329,
    "longitude": -119.01871,
    "category": "City",
    "subcategory": "County Seat",
    "admin1": "CA",
    "population": 373640,
    "featured": false,
    "priority": 50
  },
  {
    "geonameId": 5178892,
    "name": "Bala Cynwyd",
    "latitude": 40.00761,
    "longitude": -75.23407,
    "category": "City",
    "subcategory": "City",
    "admin1": "PA",
    "population": 9299,
    "featured": false,
    "priority": 50
  },
  {
    "geonameId": 4672059,
    "name": "Balch Springs",
    "latitude": 32.72874,
    "longitude": -96.62277,
    "category": "City",
    "subcategory": "City",
    "admin1": "TX",
    "population": 25210,
    "featured": false,
    "priority": 50
  },
  {
    "geonameId": 5107760,
    "name": "Baldwin",
    "latitude": 40.65649,
    "longitude": -73.6093,
    "category": "City",
    "subcategory": "City",
    "admin1": "NY",
    "population": 24033,
    "featured": false,
    "priority": 50
  },
  {
    "geonameId": 5107771,
    "name": "Baldwin Harbor",
    "latitude": 40.63955,
    "longitude": -73.60846,
    "category": "City",
    "subcategory": "City",
    "admin1": "NY",
    "population": 8102,
    "featured": false,
    "priority": 50
  },
  {
    "geonameId": 5325866,
    "name": "Baldwin Park",
    "latitude": 34.08529,
    "longitude": -117.9609,
    "category": "City",
    "subcategory": "City",
    "admin1": "CA",
    "population": 77071,
    "featured": false,
    "priority": 50
  },
  {
    "geonameId": 5107785,
    "name": "Baldwinsville",
    "latitude": 43.15868,
    "longitude": -76.33271,
    "category": "City",
    "subcategory": "City",
    "admin1": "NY",
    "population": 7770,
    "featured": false,
    "priority": 50
  },
  {
    "geonameId": 4347839,
    "name": "Ballenger Creek",
    "latitude": 39.3726,
    "longitude": -77.43526,
    "category": "City",
    "subcategory": "City",
    "admin1": "MD",
    "population": 18274,
    "featured": false,
    "priority": 50
  },
  {
    "geonameId": 5107811,
    "name": "Ballston Lake",
    "latitude": 42.91174,
    "longitude": -73.86818,
    "category": "City",
    "subcategory": "City",
    "admin1": "NY",
    "population": 9776,
    "featured": false,
    "priority": 50
  },
  {
    "geonameId": 5107812,
    "name": "Ballston Spa",
    "latitude": 43.00091,
    "longitude": -73.84901,
    "category": "City",
    "subcategory": "County Seat",
    "admin1": "NY",
    "population": 5375,
    "featured": false,
    "priority": 50
  },
  {
    "geonameId": 4375663,
    "name": "Ballwin",
    "latitude": 38.59505,
    "longitude": -90.54623,
    "category": "City",
    "subcategory": "City",
    "admin1": "MO",
    "population": 30577,
    "featured": false,
    "priority": 50
  },
  {
    "geonameId": 4347778,
    "name": "Baltimore",
    "latitude": 39.29038,
    "longitude": -76.61219,
    "category": "City",
    "subcategory": "County Seat",
    "admin1": "MD",
    "population": 585708,
    "featured": false,
    "priority": 50
  },
  {
    "geonameId": 4347800,
    "name": "Baltimore Highlands",
    "latitude": 39.23316,
    "longitude": -76.63663,
    "category": "City",
    "subcategory": "City",
    "admin1": "MD",
    "population": 7019,
    "featured": false,
    "priority": 50
  },
  {
    "geonameId": 4957280,
    "name": "Bangor",
    "latitude": 44.79884,
    "longitude": -68.77265,
    "category": "City",
    "subcategory": "County Seat",
    "admin1": "ME",
    "population": 32391,
    "featured": false,
    "priority": 50
  },
  {
    "geonameId": 7260845,
    "name": "Bangor Trident Base",
    "latitude": 47.72274,
    "longitude": -122.71446,
    "category": "City",
    "subcategory": "City",
    "admin1": "WA",
    "population": 6054,
    "featured": false,
    "priority": 50
  },
  {
    "geonameId": 5326032,
    "name": "Banning",
    "latitude": 33.92557,
    "longitude": -116.87641,
    "category": "City",
    "subcategory": "City",
    "admin1": "CA",
    "population": 30945,
    "featured": false,
    "priority": 50
  },
  {
    "geonameId": 5244638,
    "name": "Baraboo",
    "latitude": 43.47109,
    "longitude": -89.74429,
    "category": "City",
    "subcategory": "County Seat",
    "admin1": "WI",
    "population": 12155,
    "featured": false,
    "priority": 50
  },
  {
    "geonameId": 5146491,
    "name": "Barberton",
    "latitude": 41.01283,
    "longitude": -81.60512,
    "category": "City",
    "subcategory": "City",
    "admin1": "OH",
    "population": 26234,
    "featured": false,
    "priority": 50
  },
  {
    "geonameId": 4283133,
    "name": "Bardstown",
    "latitude": 37.80923,
    "longitude": -85.4669,
    "category": "City",
    "subcategory": "County Seat",
    "admin1": "KY",
    "population": 13091,
    "featured": false,
    "priority": 50
  },
  {
    "geonameId": 4254124,
    "name": "Bargersville",
    "latitude": 39.52088,
    "longitude": -86.16777,
    "category": "City",
    "subcategory": "City",
    "admin1": "IN",
    "population": 6846,
    "featured": false,
    "priority": 50
  },
  {
    "geonameId": 4181110,
    "name": "Barnesville",
    "latitude": 33.05457,
    "longitude": -84.15575,
    "category": "City",
    "subcategory": "County Seat",
    "admin1": "GA",
    "population": 6625,
    "featured": false,
    "priority": 50
  },
  {
    "geonameId": 4375832,
    "name": "Barnhart",
    "latitude": 38.34422,
    "longitude": -90.39345,
    "category": "City",
    "subcategory": "City",
    "admin1": "MO",
    "population": 5682,
    "featured": false,
    "priority": 50
  },
  {
    "geonameId": 4929771,
    "name": "Barnstable",
    "latitude": 41.70011,
    "longitude": -70.29947,
    "category": "City",
    "subcategory": "County Seat",
    "admin1": "MA",
    "population": 47821,
    "featured": false,
    "priority": 50
  },
  {
    "geonameId": 13526883,
    "name": "Barracks Row",
    "latitude": 38.88128,
    "longitude": -76.995,
    "category": "City",
    "subcategory": "City",
    "admin1": "DC",
    "population": 14080,
    "featured": false,
    "priority": 50
  },
  {
    "geonameId": 5233500,
    "name": "Barre",
    "latitude": 44.19701,
    "longitude": -72.50205,
    "category": "City",
    "subcategory": "City",
    "admin1": "VT",
    "population": 8746,
    "featured": false,
    "priority": 50
  },
  {
    "geonameId": 4500653,
    "name": "Barrington",
    "latitude": 39.86484,
    "longitude": -75.05517,
    "category": "City",
    "subcategory": "City",
    "admin1": "NJ",
    "population": 6817,
    "featured": false,
    "priority": 50
  },
  {
    "geonameId": 5326297,
    "name": "Barstow",
    "latitude": 34.89859,
    "longitude": -117.02282,
    "category": "City",
    "subcategory": "City",
    "admin1": "CA",
    "population": 23692,
    "featured": false,
    "priority": 50
  },
  {
    "geonameId": 5326305,
    "name": "Barstow Heights",
    "latitude": 34.86971,
    "longitude": -117.05615,
    "category": "City",
    "subcategory": "City",
    "admin1": "CA",
    "population": 24202,
    "featured": false,
    "priority": 50
  },
  {
    "geonameId": 4529987,
    "name": "Bartlesville",
    "latitude": 36.74731,
    "longitude": -95.98082,
    "category": "City",
    "subcategory": "County Seat",
    "admin1": "OK",
    "population": 36595,
    "featured": false,
    "priority": 50
  },
  {
    "geonameId": 4604183,
    "name": "Bartlett",
    "latitude": 35.20453,
    "longitude": -89.87398,
    "category": "City",
    "subcategory": "City",
    "admin1": "TN",
    "population": 58579,
    "featured": false,
    "priority": 50
  },
  {
    "geonameId": 4884161,
    "name": "Bartonville",
    "latitude": 40.65032,
    "longitude": -89.65205,
    "category": "City",
    "subcategory": "City",
    "admin1": "IL",
    "population": 6382,
    "featured": false,
    "priority": 50
  },
  {
    "geonameId": 4146723,
    "name": "Bartow",
    "latitude": 27.89641,
    "longitude": -81.84314,
    "category": "City",
    "subcategory": "County Seat",
    "admin1": "FL",
    "population": 18972,
    "featured": false,
    "priority": 50
  },
  {
    "geonameId": 4267944,
    "name": "Basehor",
    "latitude": 39.14167,
    "longitude": -94.93858,
    "category": "City",
    "subcategory": "City",
    "admin1": "KS",
    "population": 5402,
    "featured": false,
    "priority": 50
  },
  {
    "geonameId": 5095409,
    "name": "Basking Ridge",
    "latitude": 40.70621,
    "longitude": -74.54932,
    "category": "City",
    "subcategory": "City",
    "admin1": "NJ",
    "population": 21424,
    "featured": false,
    "priority": 50
  },
  {
    "geonameId": 4315535,
    "name": "Bastrop",
    "latitude": 32.77828,
    "longitude": -91.91144,
    "category": "City",
    "subcategory": "County Seat",
    "admin1": "LA",
    "population": 10713,
    "featured": false,
    "priority": 50
  },
  {
    "geonameId": 4884192,
    "name": "Batavia",
    "latitude": 41.85003,
    "longitude": -88.31257,
    "category": "City",
    "subcategory": "City",
    "admin1": "IL",
    "population": 26495,
    "featured": false,
    "priority": 50
  },
  {
    "geonameId": 4570117,
    "name": "Batesburg-Leesville",
    "latitude": 33.91014,
    "longitude": -81.53733,
    "category": "City",
    "subcategory": "City",
    "admin1": "SC",
    "population": 5441,
    "featured": false,
    "priority": 50
  },
  {
    "geonameId": 4100525,
    "name": "Batesville",
    "latitude": 35.7698,
    "longitude": -91.64097,
    "category": "City",
    "subcategory": "County Seat",
    "admin1": "AR",
    "population": 10668,
    "featured": false,
    "priority": 50
  },
  {
    "geonameId": 4957570,
    "name": "Bath",
    "latitude": 43.91064,
    "longitude": -69.8206,
    "category": "City",
    "subcategory": "County Seat",
    "admin1": "ME",
    "population": 8305,
    "featured": false,
    "priority": 50
  },
  {
    "geonameId": 4315588,
    "name": "Baton Rouge",
    "latitude": 30.44332,
    "longitude": -91.18747,
    "category": "City",
    "subcategory": "Regional Capital",
    "admin1": "LA",
    "population": 227470,
    "featured": false,
    "priority": 50
  },
  {
    "geonameId": 4985153,
    "name": "Battle Creek",
    "latitude": 42.3173,
    "longitude": -85.17816,
    "category": "City",
    "subcategory": "City",
    "admin1": "MI",
    "population": 51589,
    "featured": false,
    "priority": 50
  },
  {
    "geonameId": 5786485,
    "name": "Battle Ground",
    "latitude": 45.78095,
    "longitude": -122.53343,
    "category": "City",
    "subcategory": "City",
    "admin1": "WA",
    "population": 19407,
    "featured": false,
    "priority": 50
  },
  {
    "geonameId": 4375979,
    "name": "Battlefield",
    "latitude": 37.11561,
    "longitude": -93.37019,
    "category": "City",
    "subcategory": "City",
    "admin1": "MO",
    "population": 6001,
    "featured": false,
    "priority": 50
  },
  {
    "geonameId": 5017396,
    "name": "Baxter",
    "latitude": 46.3433,
    "longitude": -94.28667,
    "category": "City",
    "subcategory": "City",
    "admin1": "MN",
    "population": 7934,
    "featured": false,
    "priority": 50
  },
  {
    "geonameId": 4829307,
    "name": "Bay City",
    "latitude": 28.98276,
    "longitude": -95.9694,
    "category": "City",
    "subcategory": "County Seat",
    "admin1": "TX",
    "population": 17598,
    "featured": false,
    "priority": 50
  },
  {
    "geonameId": 11669119,
    "name": "Bay Harbor",
    "latitude": 45.36413,
    "longitude": -85.08208,
    "category": "City",
    "subcategory": "City",
    "admin1": "MI",
    "population": 5749,
    "featured": false,
    "priority": 50
  },
  {
    "geonameId": 4146823,
    "name": "Bay Harbor Islands",
    "latitude": 25.88759,
    "longitude": -80.13116,
    "category": "City",
    "subcategory": "City",
    "admin1": "FL",
    "population": 6036,
    "featured": false,
    "priority": 50
  },
  {
    "geonameId": 4046255,
    "name": "Bay Minette",
    "latitude": 30.88296,
    "longitude": -87.77305,
    "category": "City",
    "subcategory": "County Seat",
    "admin1": "AL",
    "population": 9118,
    "featured": false,
    "priority": 50
  },
  {
    "geonameId": 5326561,
    "name": "Bay Point",
    "latitude": 38.02909,
    "longitude": -121.96163,
    "category": "City",
    "subcategory": "City",
    "admin1": "CA",
    "population": 21534,
    "featured": false,
    "priority": 50
  },
  {
    "geonameId": 4417205,
    "name": "Bay Saint Louis",
    "latitude": 30.30881,
    "longitude": -89.33005,
    "category": "City",
    "subcategory": "County Seat",
    "admin1": "MS",
    "population": 9260,
    "featured": false,
    "priority": 50
  },
  {
    "geonameId": 5108169,
    "name": "Bay Shore",
    "latitude": 40.7251,
    "longitude": -73.24539,
    "category": "City",
    "subcategory": "City",
    "admin1": "NY",
    "population": 26337,
    "featured": false,
    "priority": 50
  },
  {
    "geonameId": 5146675,
    "name": "Bay Village",
    "latitude": 41.48477,
    "longitude": -81.92208,
    "category": "City",
    "subcategory": "City",
    "admin1": "OH",
    "population": 15402,
    "featured": false,
    "priority": 50
  },
  {
    "geonameId": 5108179,
    "name": "Bay Wood",
    "latitude": 40.7501,
    "longitude": -73.29123,
    "category": "City",
    "subcategory": "City",
    "admin1": "NY",
    "population": 7350,
    "featured": false,
    "priority": 50
  },
  {
    "geonameId": 4146901,
    "name": "Bayonet Point",
    "latitude": 28.32667,
    "longitude": -82.68343,
    "category": "City",
    "subcategory": "City",
    "admin1": "FL",
    "population": 23467,
    "featured": false,
    "priority": 50
  },
  {
    "geonameId": 5095445,
    "name": "Bayonne",
    "latitude": 40.66871,
    "longitude": -74.11431,
    "category": "City",
    "subcategory": "City",
    "admin1": "NJ",
    "population": 66311,
    "featured": false,
    "priority": 50
  },
  {
    "geonameId": 4315756,
    "name": "Bayou Boeuf",
    "latitude": 29.86937,
    "longitude": -90.59675,
    "category": "City",
    "subcategory": "City",
    "admin1": "LA",
    "population": 14195,
    "featured": false,
    "priority": 50
  },
  {
    "geonameId": 4315768,
    "name": "Bayou Cane",
    "latitude": 29.6241,
    "longitude": -90.7512,
    "category": "City",
    "subcategory": "City",
    "admin1": "LA",
    "population": 19355,
    "featured": false,
    "priority": 50
  },
  {
    "geonameId": 5108191,
    "name": "Bayport",
    "latitude": 40.73843,
    "longitude": -73.05067,
    "category": "City",
    "subcategory": "City",
    "admin1": "NY",
    "population": 8896,
    "featured": false,
    "priority": 50
  },
  {
    "geonameId": 4146934,
    "name": "Bayshore Gardens",
    "latitude": 27.42532,
    "longitude": -82.59038,
    "category": "City",
    "subcategory": "City",
    "admin1": "FL",
    "population": 16323,
    "featured": false,
    "priority": 50
  },
  {
    "geonameId": 5559320,
    "name": "Bayside",
    "latitude": 40.84235,
    "longitude": -124.06367,
    "category": "City",
    "subcategory": "City",
    "admin1": "CA",
    "population": 17132,
    "featured": false,
    "priority": 50
  },
  {
    "geonameId": 4672731,
    "name": "Baytown",
    "latitude": 29.7355,
    "longitude": -94.97743,
    "category": "City",
    "subcategory": "City",
    "admin1": "TX",
    "population": 76335,
    "featured": false,
    "priority": 50
  },
  {
    "geonameId": 12217929,
    "name": "Bayview-Hunters Point",
    "latitude": 37.72855,
    "longitude": -122.38107,
    "category": "City",
    "subcategory": "City",
    "admin1": "CA",
    "population": 34835,
    "featured": false,
    "priority": 50
  },
  {
    "geonameId": 4500688,
    "name": "Bayville",
    "latitude": 39.90929,
    "longitude": -74.15486,
    "category": "City",
    "subcategory": "City",
    "admin1": "NJ",
    "population": 20512,
    "featured": false,
    "priority": 50
  },
  {
    "geonameId": 4884249,
    "name": "Beach Park",
    "latitude": 42.42224,
    "longitude": -87.8573,
    "category": "City",
    "subcategory": "City",
    "admin1": "IL",
    "population": 13976,
    "featured": false,
    "priority": 50
  },
  {
    "geonameId": 4500709,
    "name": "Beachwood",
    "latitude": 39.93901,
    "longitude": -74.19292,
    "category": "City",
    "subcategory": "City",
    "admin1": "NJ",
    "population": 11214,
    "featured": false,
    "priority": 50
  },
  {
    "geonameId": 5108219,
    "name": "Beacon",
    "latitude": 41.50482,
    "longitude": -73.96958,
    "category": "City",
    "subcategory": "City",
    "admin1": "NY",
    "population": 14347,
    "featured": false,
    "priority": 50
  },
  {
    "geonameId": 4930010,
    "name": "Beacon Hill",
    "latitude": 42.35871,
    "longitude": -71.06783,
    "category": "City",
    "subcategory": "City",
    "admin1": "MA",
    "population": 9305,
    "featured": false,
    "priority": 50
  },
  {
    "geonameId": 4146984,
    "name": "Beacon Square",
    "latitude": 28.20862,
    "longitude": -82.75538,
    "category": "City",
    "subcategory": "City",
    "admin1": "FL",
    "population": 7224,
    "featured": false,
    "priority": 50
  },
  {
    "geonameId": 4930019,
    "name": "Beaconsfield",
    "latitude": 42.33676,
    "longitude": -71.14116,
    "category": "City",
    "subcategory": "City",
    "admin1": "MA",
    "population": 7199,
    "featured": false,
    "priority": 50
  },
  {
    "geonameId": 4141363,
    "name": "Bear",
    "latitude": 39.62928,
    "longitude": -75.65826,
    "category": "City",
    "subcategory": "City",
    "admin1": "DE",
    "population": 19371,
    "featured": false,
    "priority": 50
  },
  {
    "geonameId": 5327003,
    "name": "Bear Valley Springs",
    "latitude": 35.15913,
    "longitude": -118.62842,
    "category": "City",
    "subcategory": "City",
    "admin1": "CA",
    "population": 5172,
    "featured": false,
    "priority": 50
  },
  {
    "geonameId": 4884282,
    "name": "Beardstown",
    "latitude": 40.01755,
    "longitude": -90.42429,
    "category": "City",
    "subcategory": "City",
    "admin1": "IL",
    "population": 5738,
    "featured": false,
    "priority": 50
  },
  {
    "geonameId": 5063646,
    "name": "Beatrice",
    "latitude": 40.26806,
    "longitude": -96.74697,
    "category": "City",
    "subcategory": "County Seat",
    "admin1": "NE",
    "population": 12388,
    "featured": false,
    "priority": 50
  },
  {
    "geonameId": 4570284,
    "name": "Beaufort",
    "latitude": 32.4317,
    "longitude": -80.66993,
    "category": "City",
    "subcategory": "County Seat",
    "admin1": "SC",
    "population": 13306,
    "featured": false,
    "priority": 50
  },
  {
    "geonameId": 4672989,
    "name": "Beaumont",
    "latitude": 30.08605,
    "longitude": -94.10185,
    "category": "City",
    "subcategory": "County Seat",
    "admin1": "TX",
    "population": 115282,
    "featured": false,
    "priority": 50
  },
  {
    "geonameId": 5245193,
    "name": "Beaver Dam",
    "latitude": 43.45777,
    "longitude": -88.83733,
    "category": "City",
    "subcategory": "City",
    "admin1": "WI",
    "population": 16564,
    "featured": false,
    "priority": 50
  },
  {
    "geonameId": 5179478,
    "name": "Beaver Falls",
    "latitude": 40.75201,
    "longitude": -80.31923,
    "category": "City",
    "subcategory": "City",
    "admin1": "PA",
    "population": 8661,
    "featured": false,
    "priority": 50
  },
  {
    "geonameId": 4506008,
    "name": "Beavercreek",
    "latitude": 39.70923,
    "longitude": -84.06327,
    "category": "City",
    "subcategory": "City",
    "admin1": "OH",
    "population": 46277,
    "featured": false,
    "priority": 50
  },
  {
    "geonameId": 5713376,
    "name": "Beaverton",
    "latitude": 45.48706,
    "longitude": -122.80371,
    "category": "City",
    "subcategory": "City",
    "admin1": "OR",
    "population": 96577,
    "featured": false,
    "priority": 50
  },
  {
    "geonameId": 4506031,
    "name": "Beckett Ridge",
    "latitude": 39.347,
    "longitude": -84.43522,
    "category": "City",
    "subcategory": "City",
    "admin1": "OH",
    "population": 9187,
    "featured": false,
    "priority": 50
  },
  {
    "geonameId": 4798308,
    "name": "Beckley",
    "latitude": 37.77817,
    "longitude": -81.18816,
    "category": "City",
    "subcategory": "County Seat",
    "admin1": "WV",
    "population": 17056,
    "featured": false,
    "priority": 50
  },
  {
    "geonameId": 4254282,
    "name": "Bedford",
    "latitude": 38.86116,
    "longitude": -86.48721,
    "category": "City",
    "subcategory": "County Seat",
    "admin1": "IN",
    "population": 13347,
    "featured": false,
    "priority": 50
  },
  {
    "geonameId": 5146840,
    "name": "Bedford Heights",
    "latitude": 41.417,
    "longitude": -81.52734,
    "category": "City",
    "subcategory": "City",
    "admin1": "OH",
    "population": 10625,
    "featured": false,
    "priority": 50
  },
  {
    "geonameId": 5095528,
    "name": "Bedminster",
    "latitude": 40.68066,
    "longitude": -74.64544,
    "category": "City",
    "subcategory": "City",
    "admin1": "NJ",
    "population": 8165,
    "featured": false,
    "priority": 50
  },
  {
    "geonameId": 4673132,
    "name": "Bee Cave",
    "latitude": 30.30854,
    "longitude": -97.94501,
    "category": "City",
    "subcategory": "City",
    "admin1": "TX",
    "population": 6292,
    "featured": false,
    "priority": 50
  },
  {
    "geonameId": 4147145,
    "name": "Bee Ridge",
    "latitude": 27.28394,
    "longitude": -82.48065,
    "category": "City",
    "subcategory": "City",
    "admin1": "FL",
    "population": 9598,
    "featured": false,
    "priority": 50
  },
  {
    "geonameId": 4100984,
    "name": "Beebe",
    "latitude": 35.07064,
    "longitude": -91.87959,
    "category": "City",
    "subcategory": "City",
    "admin1": "AR",
    "population": 8106,
    "featured": false,
    "priority": 50
  },
  {
    "geonameId": 4254304,
    "name": "Beech Grove",
    "latitude": 39.72199,
    "longitude": -86.08998,
    "category": "City",
    "subcategory": "City",
    "admin1": "IN",
    "population": 14548,
    "featured": false,
    "priority": 50
  },
  {
    "geonameId": 4985521,
    "name": "Beecher",
    "latitude": 43.09003,
    "longitude": -83.6944,
    "category": "City",
    "subcategory": "City",
    "admin1": "MI",
    "population": 10232,
    "featured": false,
    "priority": 50
  },
  {
    "geonameId": 4673258,
    "name": "Beeville",
    "latitude": 28.40095,
    "longitude": -97.74974,
    "category": "City",
    "subcategory": "County Seat",
    "admin1": "TX",
    "population": 13277,
    "featured": false,
    "priority": 50
  },
  {
    "geonameId": 4348240,
    "name": "Bel Air",
    "latitude": 39.53594,
    "longitude": -76.34829,
    "category": "City",
    "subcategory": "County Seat",
    "admin1": "MD",
    "population": 10190,
    "featured": false,
    "priority": 50
  },
  {
    "geonameId": 7257991,
    "name": "Bel Air North",
    "latitude": 39.55429,
    "longitude": -76.37309,
    "category": "City",
    "subcategory": "City",
    "admin1": "MD",
    "population": 30568,
    "featured": false,
    "priority": 50
  },
  {
    "geonameId": 7257992,
    "name": "Bel Air South",
    "latitude": 39.50506,
    "longitude": -76.31977,
    "category": "City",
    "subcategory": "City",
    "admin1": "MD",
    "population": 47709,
    "featured": false,
    "priority": 50
  },
  {
    "geonameId": 4985552,
    "name": "Belding",
    "latitude": 43.09781,
    "longitude": -85.22891,
    "category": "City",
    "subcategory": "City",
    "admin1": "MI",
    "population": 5769,
    "featured": false,
    "priority": 50
  },
  {
    "geonameId": 5456975,
    "name": "Belen",
    "latitude": 34.66284,
    "longitude": -106.77642,
    "category": "City",
    "subcategory": "City",
    "admin1": "NM",
    "population": 7152,
    "featured": false,
    "priority": 50
  },
  {
    "geonameId": 4957956,
    "name": "Belfast",
    "latitude": 44.42591,
    "longitude": -69.00642,
    "category": "City",
    "subcategory": "County Seat",
    "admin1": "ME",
    "population": 6682,
    "featured": false,
    "priority": 50
  },
  {
    "geonameId": 5639364,
    "name": "Belgrade",
    "latitude": 45.77604,
    "longitude": -111.1769,
    "category": "City",
    "subcategory": "City",
    "admin1": "MT",
    "population": 8029,
    "featured": false,
    "priority": 50
  },
  {
    "geonameId": 5327298,
    "name": "Bell",
    "latitude": 33.97751,
    "longitude": -118.18702,
    "category": "City",
    "subcategory": "City",
    "admin1": "CA",
    "population": 36205,
    "featured": false,
    "priority": 50
  },
  {
    "geonameId": 5327319,
    "name": "Bell Gardens",
    "latitude": 33.96529,
    "longitude": -118.15146,
    "category": "City",
    "subcategory": "City",
    "admin1": "CA",
    "population": 43106,
    "featured": false,
    "priority": 50
  },
  {
    "geonameId": 4101114,
    "name": "Bella Vista",
    "latitude": 36.4807,
    "longitude": -94.27134,
    "category": "City",
    "subcategory": "City",
    "admin1": "AR",
    "population": 27999,
    "featured": false,
    "priority": 50
  },
  {
    "geonameId": 7259949,
    "name": "Bellair-Meadowbrook Terrace",
    "latitude": 30.17881,
    "longitude": -81.74341,
    "category": "City",
    "subcategory": "City",
    "admin1": "FL",
    "population": 13343,
    "featured": false,
    "priority": 50
  },
  {
    "geonameId": 4506166,
    "name": "Bellbrook",
    "latitude": 39.63562,
    "longitude": -84.07077,
    "category": "City",
    "subcategory": "City",
    "admin1": "OH",
    "population": 7053,
    "featured": false,
    "priority": 50
  },
  {
    "geonameId": 4316329,
    "name": "Belle Chasse",
    "latitude": 29.85493,
    "longitude": -89.99063,
    "category": "City",
    "subcategory": "City",
    "admin1": "LA",
    "population": 12679,
    "featured": false,
    "priority": 50
  },
  {
    "geonameId": 5762718,
    "name": "Belle Fourche",
    "latitude": 44.67137,
    "longitude": -103.85215,
    "category": "City",
    "subcategory": "County Seat",
    "admin1": "SD",
    "population": 5696,
    "featured": false,
    "priority": 50
  },
  {
    "geonameId": 4147241,
    "name": "Belle Glade",
    "latitude": 26.68451,
    "longitude": -80.66756,
    "category": "City",
    "subcategory": "City",
    "admin1": "FL",
    "population": 18251,
    "featured": false,
    "priority": 50
  },
  {
    "geonameId": 4746457,
    "name": "Belle Haven",
    "latitude": 38.78539,
    "longitude": -77.06303,
    "category": "City",
    "subcategory": "City",
    "admin1": "VA",
    "population": 6518,
    "featured": false,
    "priority": 50
  },
  {
    "geonameId": 4147247,
    "name": "Belle Isle",
    "latitude": 28.45834,
    "longitude": -81.35924,
    "category": "City",
    "subcategory": "City",
    "admin1": "FL",
    "population": 6689,
    "featured": false,
    "priority": 50
  },
  {
    "geonameId": 5017761,
    "name": "Belle Plaine",
    "latitude": 44.62274,
    "longitude": -93.76857,
    "category": "City",
    "subcategory": "City",
    "admin1": "MN",
    "population": 6918,
    "featured": false,
    "priority": 50
  },
  {
    "geonameId": 5146965,
    "name": "Bellefontaine",
    "latitude": 40.36116,
    "longitude": -83.75966,
    "category": "City",
    "subcategory": "County Seat",
    "admin1": "OH",
    "population": 13117,
    "featured": false,
    "priority": 50
  },
  {
    "geonameId": 4376444,
    "name": "Bellefontaine Neighbors",
    "latitude": 38.74033,
    "longitude": -90.2265,
    "category": "City",
    "subcategory": "City",
    "admin1": "MO",
    "population": 10798,
    "featured": false,
    "priority": 50
  },
  {
    "geonameId": 5179799,
    "name": "Bellefonte",
    "latitude": 40.91339,
    "longitude": -77.77833,
    "category": "City",
    "subcategory": "County Seat",
    "admin1": "PA",
    "population": 6248,
    "featured": false,
    "priority": 50
  },
  {
    "geonameId": 4233813,
    "name": "Belleville",
    "latitude": 38.52005,
    "longitude": -89.98399,
    "category": "City",
    "subcategory": "County Seat",
    "admin1": "IL",
    "population": 42034,
    "featured": false,
    "priority": 50
  },
  {
    "geonameId": 4137715,
    "name": "Bellevue",
    "latitude": 38.82678,
    "longitude": -77.0197,
    "category": "City",
    "subcategory": "City",
    "admin1": "DC",
    "population": 9643,
    "featured": false,
    "priority": 50
  },
  {
    "geonameId": 5327422,
    "name": "Bellflower",
    "latitude": 33.88168,
    "longitude": -118.11701,
    "category": "City",
    "subcategory": "City",
    "admin1": "CA",
    "population": 78441,
    "featured": false,
    "priority": 50
  },
  {
    "geonameId": 5786899,
    "name": "Bellingham",
    "latitude": 48.75955,
    "longitude": -122.48822,
    "category": "City",
    "subcategory": "County Seat",
    "admin1": "WA",
    "population": 85146,
    "featured": false,
    "priority": 50
  },
  {
    "geonameId": 4500750,
    "name": "Bellmawr",
    "latitude": 39.86761,
    "longitude": -75.09462,
    "category": "City",
    "subcategory": "City",
    "admin1": "NJ",
    "population": 11462,
    "featured": false,
    "priority": 50
  },
  {
    "geonameId": 4673389,
    "name": "Bellmead",
    "latitude": 31.59405,
    "longitude": -97.10889,
    "category": "City",
    "subcategory": "City",
    "admin1": "TX",
    "population": 10164,
    "featured": false,
    "priority": 50
  },
  {
    "geonameId": 5108707,
    "name": "Bellmore",
    "latitude": 40.66871,
    "longitude": -73.52707,
    "category": "City",
    "subcategory": "City",
    "admin1": "NY",
    "population": 16218,
    "featured": false,
    "priority": 50
  },
  {
    "geonameId": 4147290,
    "name": "Bellview",
    "latitude": 30.46159,
    "longitude": -87.31497,
    "category": "City",
    "subcategory": "City",
    "admin1": "FL",
    "population": 23355,
    "featured": false,
    "priority": 50
  },
  {
    "geonameId": 4746526,
    "name": "Bellwood",
    "latitude": 37.42181,
    "longitude": -77.43748,
    "category": "City",
    "subcategory": "City",
    "admin1": "VA",
    "population": 6352,
    "featured": false,
    "priority": 50
  },
  {
    "geonameId": 5095561,
    "name": "Belmar",
    "latitude": 40.17845,
    "longitude": -74.0218,
    "category": "City",
    "subcategory": "City",
    "admin1": "NJ",
    "population": 5712,
    "featured": false,
    "priority": 50
  },
  {
    "geonameId": 4454860,
    "name": "Belmont",
    "latitude": 35.24292,
    "longitude": -81.0373,
    "category": "City",
    "subcategory": "City",
    "admin1": "NC",
    "population": 10533,
    "featured": false,
    "priority": 50
  },
  {
    "geonameId": 5245387,
    "name": "Beloit",
    "latitude": 42.50835,
    "longitude": -89.03178,
    "category": "City",
    "subcategory": "City",
    "admin1": "WI",
    "population": 36891,
    "featured": false,
    "priority": 50
  },
  {
    "geonameId": 4506187,
    "name": "Belpre",
    "latitude": 39.27396,
    "longitude": -81.5729,
    "category": "City",
    "subcategory": "City",
    "admin1": "OH",
    "population": 6476,
    "featured": false,
    "priority": 50
  },
  {
    "geonameId": 4673425,
    "name": "Belton",
    "latitude": 31.05601,
    "longitude": -97.46445,
    "category": "City",
    "subcategory": "County Seat",
    "admin1": "TX",
    "population": 20547,
    "featured": false,
    "priority": 50
  },
  {
    "geonameId": 4348353,
    "name": "Beltsville",
    "latitude": 39.03483,
    "longitude": -76.90747,
    "category": "City",
    "subcategory": "City",
    "admin1": "MD",
    "population": 16772,
    "featured": false,
    "priority": 50
  },
  {
    "geonameId": 4570590,
    "name": "Belvedere",
    "latitude": 33.53097,
    "longitude": -81.94484,
    "category": "City",
    "subcategory": "City",
    "admin1": "SC",
    "population": 5792,
    "featured": false,
    "priority": 50
  },
  {
    "geonameId": 4181936,
    "name": "Belvedere Park",
    "latitude": 33.75483,
    "longitude": -84.26742,
    "category": "City",
    "subcategory": "City",
    "admin1": "GA",
    "population": 15152,
    "featured": false,
    "priority": 50
  },
  {
    "geonameId": 4884453,
    "name": "Belvidere",
    "latitude": 42.26391,
    "longitude": -88.84427,
    "category": "City",
    "subcategory": "County Seat",
    "admin1": "IL",
    "population": 25132,
    "featured": false,
    "priority": 50
  },
  {
    "geonameId": 5017822,
    "name": "Bemidji",
    "latitude": 47.47356,
    "longitude": -94.88028,
    "category": "City",
    "subcategory": "County Seat",
    "admin1": "MN",
    "population": 14594,
    "featured": false,
    "priority": 50
  },
  {
    "geonameId": 4930308,
    "name": "Bemis",
    "latitude": 42.36871,
    "longitude": -71.20367,
    "category": "City",
    "subcategory": "City",
    "admin1": "MA",
    "population": 7472,
    "featured": false,
    "priority": 50
  },
  {
    "geonameId": 5327522,
    "name": "Ben Lomond",
    "latitude": 37.08911,
    "longitude": -122.08635,
    "category": "City",
    "subcategory": "City",
    "admin1": "CA",
    "population": 6234,
    "featured": false,
    "priority": 50
  },
  {
    "geonameId": 4673482,
    "name": "Benbrook",
    "latitude": 32.67319,
    "longitude": -97.46058,
    "category": "City",
    "subcategory": "City",
    "admin1": "TX",
    "population": 22629,
    "featured": false,
    "priority": 50
  },
  {
    "geonameId": 5713587,
    "name": "Bend",
    "latitude": 44.05817,
    "longitude": -121.31531,
    "category": "City",
    "subcategory": "County Seat",
    "admin1": "OR",
    "population": 87014,
    "featured": false,
    "priority": 50
  },
  {
    "geonameId": 5327550,
    "name": "Benicia",
    "latitude": 38.04937,
    "longitude": -122.15858,
    "category": "City",
    "subcategory": "City",
    "admin1": "CA",
    "population": 28167,
    "featured": false,
    "priority": 50
  },
  {
    "geonameId": 4570634,
    "name": "Bennettsville",
    "latitude": 34.61738,
    "longitude": -79.68478,
    "category": "City",
    "subcategory": "County Seat",
    "admin1": "SC",
    "population": 8605,
    "featured": false,
    "priority": 50
  },
  {
    "geonameId": 4137724,
    "name": "Benning",
    "latitude": 38.89511,
    "longitude": -76.94886,
    "category": "City",
    "subcategory": "City",
    "admin1": "DC",
    "population": 8978,
    "featured": false,
    "priority": 50
  },
  {
    "geonameId": 13526884,
    "name": "Benning Road",
    "latitude": 38.88984,
    "longitude": -76.93758,
    "category": "City",
    "subcategory": "City",
    "admin1": "DC",
    "population": 10269,
    "featured": false,
    "priority": 50
  },
  {
    "geonameId": 5233742,
    "name": "Bennington",
    "latitude": 42.87813,
    "longitude": -73.19677,
    "category": "City",
    "subcategory": "City",
    "admin1": "VT",
    "population": 9074,
    "featured": false,
    "priority": 50
  },
  {
    "geonameId": 4348418,
    "name": "Bennsville",
    "latitude": 38.60929,
    "longitude": -77.0122,
    "category": "City",
    "subcategory": "City",
    "admin1": "MD",
    "population": 11923,
    "featured": false,
    "priority": 50
  },
  {
    "geonameId": 5179995,
    "name": "Bensalem",
    "latitude": 40.10455,
    "longitude": -74.95128,
    "category": "City",
    "subcategory": "City",
    "admin1": "PA",
    "population": 60427,
    "featured": false,
    "priority": 50
  },
  {
    "geonameId": 4884509,
    "name": "Bensenville",
    "latitude": 41.95503,
    "longitude": -87.94007,
    "category": "City",
    "subcategory": "City",
    "admin1": "IL",
    "population": 18440,
    "featured": false,
    "priority": 50
  },
  {
    "geonameId": 4746664,
    "name": "Bensley",
    "latitude": 37.44681,
    "longitude": -77.44332,
    "category": "City",
    "subcategory": "City",
    "admin1": "VA",
    "population": 5819,
    "featured": false,
    "priority": 50
  },
  {
    "geonameId": 4101241,
    "name": "Benton",
    "latitude": 34.56454,
    "longitude": -92.58683,
    "category": "City",
    "subcategory": "County Seat",
    "admin1": "AR",
    "population": 34177,
    "featured": false,
    "priority": 50
  },
  {
    "geonameId": 4985711,
    "name": "Benton Harbor",
    "latitude": 42.11671,
    "longitude": -86.45419,
    "category": "City",
    "subcategory": "City",
    "admin1": "MI",
    "population": 9976,
    "featured": false,
    "priority": 50
  },
  {
    "geonameId": 4101260,
    "name": "Bentonville",
    "latitude": 36.37285,
    "longitude": -94.20882,
    "category": "City",
    "subcategory": "County Seat",
    "admin1": "AR",
    "population": 44499,
    "featured": false,
    "priority": 50
  },
  {
    "geonameId": 4283974,
    "name": "Berea",
    "latitude": 37.56869,
    "longitude": -84.29632,
    "category": "City",
    "subcategory": "City",
    "admin1": "KY",
    "population": 14882,
    "featured": false,
    "priority": 50
  },
  {
    "geonameId": 5095611,
    "name": "Bergenfield",
    "latitude": 40.9276,
    "longitude": -73.99736,
    "category": "City",
    "subcategory": "City",
    "admin1": "NJ",
    "population": 27621,
    "featured": false,
    "priority": 50
  },
  {
    "geonameId": 4376623,
    "name": "Berkeley",
    "latitude": 38.7545,
    "longitude": -90.33123,
    "category": "City",
    "subcategory": "City",
    "admin1": "MO",
    "population": 9073,
    "featured": false,
    "priority": 50
  },
  {
    "geonameId": 5095617,
    "name": "Berkeley Heights",
    "latitude": 40.68343,
    "longitude": -74.44265,
    "category": "City",
    "subcategory": "City",
    "admin1": "NJ",
    "population": 14179,
    "featured": false,
    "priority": 50
  },
  {
    "geonameId": 4930385,
    "name": "Berkley",
    "latitude": 41.84593,
    "longitude": -71.08282,
    "category": "City",
    "subcategory": "City",
    "admin1": "MA",
    "population": 5849,
    "featured": false,
    "priority": 50
  },
  {
    "geonameId": 4348460,
    "name": "Berlin",
    "latitude": 38.32262,
    "longitude": -75.21769,
    "category": "City",
    "subcategory": "City",
    "admin1": "MD",
    "population": 5065,
    "featured": false,
    "priority": 50
  },
  {
    "geonameId": 5327717,
    "name": "Bermuda Dunes",
    "latitude": 33.7428,
    "longitude": -116.28918,
    "category": "City",
    "subcategory": "City",
    "admin1": "CA",
    "population": 7282,
    "featured": false,
    "priority": 50
  },
  {
    "geonameId": 5457198,
    "name": "Bernalillo",
    "latitude": 35.30004,
    "longitude": -106.55114,
    "category": "City",
    "subcategory": "County Seat",
    "admin1": "NM",
    "population": 8843,
    "featured": false,
    "priority": 50
  },
  {
    "geonameId": 5095626,
    "name": "Bernardsville",
    "latitude": 40.71871,
    "longitude": -74.56932,
    "category": "City",
    "subcategory": "City",
    "admin1": "NJ",
    "population": 7801,
    "featured": false,
    "priority": 50
  },
  {
    "geonameId": 4101309,
    "name": "Berryville",
    "latitude": 36.36479,
    "longitude": -93.56797,
    "category": "City",
    "subcategory": "City",
    "admin1": "AR",
    "population": 5371,
    "featured": false,
    "priority": 50
  },
  {
    "geonameId": 5574704,
    "name": "Berthoud",
    "latitude": 40.30832,
    "longitude": -105.08109,
    "category": "City",
    "subcategory": "City",
    "admin1": "CO",
    "population": 6031,
    "featured": false,
    "priority": 50
  },
  {
    "geonameId": 5180119,
    "name": "Berwick",
    "latitude": 41.05453,
    "longitude": -76.23327,
    "category": "City",
    "subcategory": "City",
    "admin1": "PA",
    "population": 10223,
    "featured": false,
    "priority": 50
  },
  {
    "geonameId": 4884597,
    "name": "Berwyn",
    "latitude": 41.85059,
    "longitude": -87.79367,
    "category": "City",
    "subcategory": "City",
    "admin1": "IL",
    "population": 56368,
    "featured": false,
    "priority": 50
  },
  {
    "geonameId": 4048023,
    "name": "Bessemer",
    "latitude": 33.40178,
    "longitude": -86.95444,
    "category": "City",
    "subcategory": "City",
    "admin1": "AL",
    "population": 26730,
    "featured": false,
    "priority": 50
  },
  {
    "geonameId": 4455080,
    "name": "Bessemer City",
    "latitude": 35.28486,
    "longitude": -81.28397,
    "category": "City",
    "subcategory": "City",
    "admin1": "NC",
    "population": 5548,
    "featured": false,
    "priority": 50
  },
  {
    "geonameId": 4233662,
    "name": "Bethalto",
    "latitude": 38.90921,
    "longitude": -90.04066,
    "category": "City",
    "subcategory": "City",
    "admin1": "IL",
    "population": 9349,
    "featured": false,
    "priority": 50
  },
  {
    "geonameId": 4530372,
    "name": "Bethany",
    "latitude": 35.51867,
    "longitude": -97.63226,
    "category": "City",
    "subcategory": "City",
    "admin1": "OK",
    "population": 19589,
    "featured": false,
    "priority": 50
  },
  {
    "geonameId": 5282297,
    "name": "Bethel",
    "latitude": 41.37121,
    "longitude": -73.41401,
    "category": "City",
    "subcategory": "City",
    "admin1": "CT",
    "population": 9549,
    "featured": false,
    "priority": 50
  },
  {
    "geonameId": 5180199,
    "name": "Bethel Park",
    "latitude": 40.32757,
    "longitude": -80.0395,
    "category": "City",
    "subcategory": "City",
    "admin1": "PA",
    "population": 32118,
    "featured": false,
    "priority": 50
  },
  {
    "geonameId": 4348599,
    "name": "Bethesda",
    "latitude": 38.98067,
    "longitude": -77.10026,
    "category": "City",
    "subcategory": "City",
    "admin1": "MD",
    "population": 60858,
    "featured": false,
    "priority": 50
  },
  {
    "geonameId": 5180225,
    "name": "Bethlehem",
    "latitude": 40.62593,
    "longitude": -75.37046,
    "category": "City",
    "subcategory": "City",
    "admin1": "PA",
    "population": 74892,
    "featured": false,
    "priority": 50
  },