[
  {
    "geonameId": 4795159,
    "name": "Acacia Hill",
    "latitude": 17.73525,
    "longitude": -64.86431,
    "category": "Mountain",
    "subcategory": "Mountain",
    "featured": false,
    "priority": 50
  },
  {
    "geonameId": 4795168,
    "name": "Adventure Hill",
    "latitude": 17.71136,
    "longitude": -64.80959,
    "category": "Mountain",
    "subcategory": "Mountain",
    "featured": false,
    "priority": 50
  },
  {
    "geonameId": 4795171,
    "name": "Ajax Peak",
    "latitude": 18.35634,
    "longitude": -64.7268,
    "category": "Mountain",
    "subcategory": "Mountain",
    "featured": false,
    "priority": 50
  },
  {
    "geonameId": 4795174,
    "name": "Aldershvile Hill",
    "latitude": 17.74303,
    "longitude": -64.71764,
    "category": "Mountain",
    "subcategory": "Mountain",
    "featured": false,
    "priority": 50
  },
  {
    "geonameId": 4795189,
    "name": "Altona Hill",
    "latitude": 17.74747,
    "longitude": -64.69236,
    "category": "Mountain",
    "subcategory": "Mountain",
    "featured": false,
    "priority": 50
  },
  {
    "geonameId": 4795193,
    "name": "America Hill",
    "latitude": 18.35356,
    "longitude": -64.75042,
    "category": "Mountain",
    "subcategory": "Mountain",
    "featured": false,
    "priority": 50
  },
  {
    "geonameId": 4795195,
    "name": "American Hill",
    "latitude": 18.35356,
    "longitude": -64.75014,
    "category": "Mountain",
    "subcategory": "Mountain",
    "featured": false,
    "priority": 50
  },
  {
    "geonameId": 4795210,
    "name": "Annaberg Hill",
    "latitude": 17.71192,
    "longitude": -64.7807,
    "category": "Mountain",
    "subcategory": "Mountain",
    "featured": false,
    "priority": 50
  },
  {
    "geonameId": 4795211,
    "name": "Annaberg Historic District",
    "latitude": 18.36301,
    "longitude": -64.72958,
    "category": "Park",
    "subcategory": "Park",
    "featured": false,
    "priority": 50
  },
  {
    "geonameId": 4795219,
    "name": "Annaly Hill",
    "latitude": 17.75136,
    "longitude": -64.85515,
    "category": "Mountain",
    "subcategory": "Mountain",
    "featured": false,
    "priority": 50
  },
  {
    "geonameId": 4795225,
    "name": "Antonio Jarvis Square",
    "latitude": 18.34051,
    "longitude": -64.9307,
    "category": "Park",
    "subcategory": "Park",
    "featured": false,
    "priority": 50
  },
  {
    "geonameId": 4795229,
    "name": "Bakery Square",
    "latitude": 18.34218,
    "longitude": -64.93237,
    "category": "Park",
    "subcategory": "Park",
    "featured": false,
    "priority": 50
  },
  {
    "geonameId": 4795238,
    "name": "Barrel of Beef",
    "latitude": 18.31334,
    "longitude": -64.9148,
    "category": "Island",
    "subcategory": "Island",
    "featured": false,
    "priority": 50
  },
  {
    "geonameId": 4795242,
    "name": "Base Hill",
    "latitude": 18.35551,
    "longitude": -64.71153,
    "category": "Mountain",
    "subcategory": "Mountain",
    "featured": false,
    "priority": 50
  },
  {
    "geonameId": 4795250,
    "name": "Bee Hill",
    "latitude": 17.7447,
    "longitude": -64.61403,
    "category": "Mountain",
    "subcategory": "Mountain",
    "featured": false,
    "priority": 50
  },
  {
    "geonameId": 4795259,
    "name": "Belvedere Hill",
    "latitude": 17.76692,
    "longitude": -64.80153,
    "category": "Mountain",
    "subcategory": "Mountain",
    "featured": false,
    "priority": 50
  },
  {
    "geonameId": 4795263,
    "name": "Benner Hill",
    "latitude": 18.32857,
    "longitude": -64.85903,
    "category": "Mountain",
    "subcategory": "Mountain",
    "featured": false,
    "priority": 50
  },
  {
    "geonameId": 4795264,
    "name": "Berg Hill",
    "latitude": 18.34468,
    "longitude": -64.9332,
    "category": "Mountain",
    "subcategory": "Mountain",
    "featured": false,
    "priority": 50
  },
  {
    "geonameId": 4795272,
    "name": "Bethesda Hill",
    "latitude": 18.35746,
    "longitude": -65.00376,
    "category": "Mountain",
    "subcategory": "Mountain",
    "featured": false,
    "priority": 50
  },
  {
    "geonameId": 8479937,
    "name": "Beverhoutberg",
    "latitude": 18.33333,
    "longitude": -64.76667,
    "category": "Mountain",
    "subcategory": "Mountain",
    "featured": false,
    "priority": 50
  },
  {
    "geonameId": 4795288,
    "name": "Blackrock Hill",
    "latitude": 18.33912,
    "longitude": -64.67097,
    "category": "Mountain",
    "subcategory": "Mountain",
    "featured": false,
    "priority": 50
  },
  {
    "geonameId": 4795292,
    "name": "Blinders Rocks",
    "latitude": 18.34412,
    "longitude": -64.68291,
    "category": "Island",
    "subcategory": "Island",
    "featured": false,
    "priority": 50
  },
  {
    "geonameId": 4795294,
    "name": "Blue Mountain",
    "latitude": 17.7547,
    "longitude": -64.79959,
    "category": "Mountain",
    "subcategory": "Mountain",
    "featured": false,
    "priority": 50
  },
  {
    "geonameId": 4795297,
    "name": "Bluebeard Hill",
    "latitude": 18.34051,
    "longitude": -64.92376,
    "category": "Mountain",
    "subcategory": "Mountain",
    "featured": false,
    "priority": 50
  },
  {
    "geonameId": 4795302,
    "name": "Bodkin Hill",
    "latitude": 17.75108,
    "longitude": -64.83792,
    "category": "Mountain",
    "subcategory": "Mountain",
    "featured": false,
    "priority": 50
  },
  {
    "geonameId": 4795311,
    "name": "Bolongo Hill",
    "latitude": 18.31745,
    "longitude": -64.89598,
    "category": "Mountain",
    "subcategory": "Mountain",
    "featured": false,
    "priority": 50
  },
  {
    "geonameId": 4795318,
    "name": "Booby Rock",
    "latitude": 18.30218,
    "longitude": -64.70986,
    "category": "Island",
    "subcategory": "Island",
    "featured": false,
    "priority": 50
  },
  {
    "geonameId": 4795326,
    "name": "Bordeaux Hill",
    "latitude": 18.35607,
    "longitude": -65.02459,
    "category": "Mountain",
    "subcategory": "Mountain",
    "featured": false,
    "priority": 50
  },
  {
    "geonameId": 4795327,
    "name": "Bordeaux Mountain",
    "latitude": 18.33412,
    "longitude": -64.72875,
    "category": "Mountain",
    "subcategory": "Mountain",
    "featured": false,
    "priority": 50
  },
  {
    "geonameId": 4795329,
    "name": "Bordeaux North Hill",
    "latitude": 18.3369,
    "longitude": -64.72069,
    "category": "Mountain",
    "subcategory": "Mountain",
    "featured": false,
    "priority": 50
  },
  {
    "geonameId": 4795340,
    "name": "Bovoni Cay",
    "latitude": 18.31218,
    "longitude": -64.87209,
    "category": "Island",
    "subcategory": "Island",
    "featured": false,
    "priority": 50
  },
  {
    "geonameId": 4795342,
    "name": "Bovoni Hill",
    "latitude": 18.31495,
    "longitude": -64.89209,
    "category": "Mountain",
    "subcategory": "Mountain",
    "featured": false,
    "priority": 50
  },
  {
    "geonameId": 4795344,
    "name": "Brass Islands",
    "latitude": 18.38662,
    "longitude": -64.97431,
    "category": "Island",
    "subcategory": "Island",
    "featured": false,
    "priority": 50
  },
  {
    "geonameId": 4795348,
    "name": "Broken Island",
    "latitude": 18.27547,
    "longitude": -64.88775,
    "category": "Island",
    "subcategory": "Island",
    "featured": false,
    "priority": 50
  },
  {
    "geonameId": 4795349,
    "name": "Brommer Hill",
    "latitude": 18.34329,
    "longitude": -64.96931,
    "category": "Mountain",
    "subcategory": "Mountain",
    "featured": false,
    "priority": 50
  },
  {
    "geonameId": 4795361,
    "name": "Buck Island",
    "latitude": 17.78692,
    "longitude": -64.61931,
    "category": "Island",
    "subcategory": "Island",
    "featured": false,
    "priority": 50
  },
  {
    "geonameId": 4795377,
    "name": "Bunker Hill",
    "latitude": 18.34634,
    "longitude": -64.93015,
    "category": "Mountain",
    "subcategory": "Mountain",
    "featured": false,
    "priority": 50
  },
  {
    "geonameId": 4795381,
    "name": "Butler Bay Nature Preserve",
    "latitude": 17.74775,
    "longitude": -64.89348,
    "category": "Park",
    "subcategory": "Park",
    "featured": false,
    "priority": 50
  },
  {
    "geonameId": 4795385,
    "name": "Cabrita Hill",
    "latitude": 18.32579,
    "longitude": -64.83458,
    "category": "Mountain",
    "subcategory": "Mountain",
    "featured": false,
    "priority": 50
  },
  {
    "geonameId": 4795396,
    "name": "Camelberg Peak",
    "latitude": 18.3369,
    "longitude": -64.75375,
    "category": "Mountain",
    "subcategory": "Mountain",
    "featured": false,
    "priority": 50
  },
  {
    "geonameId": 4795416,
    "name": "Caneel Hill",
    "latitude": 18.3369,
    "longitude": -64.78708,
    "category": "Mountain",
    "subcategory": "Mountain",
    "featured": false,
    "priority": 50
  },
  {
    "geonameId": 4795422,
    "name": "Canegarden Hill",
    "latitude": 17.70553,
    "longitude": -64.72459,
    "category": "Mountain",
    "subcategory": "Mountain",
    "featured": false,
    "priority": 50
  },
  {
    "geonameId": 4795425,
    "name": "Capella Islands",
    "latitude": 18.2764,
    "longitude": -64.8904,
    "category": "Island",
    "subcategory": "Island Group",
    "featured": false,
    "priority": 50
  },
  {
    "geonameId": 4795429,
    "name": "Careen Hill",
    "latitude": 18.33523,
    "longitude": -64.94237,
    "category": "Mountain",
    "subcategory": "Mountain",
    "featured": false,
    "priority": 50
  },
  {
    "geonameId": 4795448,
    "name": "Carval Rock",
    "latitude": 18.36968,
    "longitude": -64.79431,
    "category": "Island",
    "subcategory": "Island",
    "featured": false,
    "priority": 50
  },
  {
    "geonameId": 4795449,
    "name": "Cas Cay",
    "latitude": 18.3069,
    "longitude": -64.86514,
    "category": "Island",
    "subcategory": "Island",
    "featured": false,
    "priority": 50
  },
  {
    "geonameId": 4795451,
    "name": "Cassi Hill",
    "latitude": 18.34745,
    "longitude": -64.88292,
    "category": "Mountain",
    "subcategory": "Mountain",
    "featured": false,
    "priority": 50
  },
  {
    "geonameId": 4795467,
    "name": "Charlotte Amalie",
    "latitude": 18.3419,
    "longitude": -64.9307,
    "category": "City",
    "subcategory": "Capital",
    "featured": false,
    "priority": 50
  },
  {
    "geonameId": 4795472,
    "name": "Charlotte Amalie Historic District",
    "latitude": 18.34134,
    "longitude": -64.92987,
    "category": "Park",
    "subcategory": "Park",
    "featured": false,
    "priority": 50
  },
  {
    "geonameId": 4795477,
    "name": "Christ of the Caribbean Statue (historical)",
    "latitude": 18.35162,
    "longitude": -64.77847,
    "category": "Park",
    "subcategory": "Park",
    "featured": false,
    "priority": 50
  },
  {
    "geonameId": 4795483,
    "name": "Christiansted Historic District",
    "latitude": 17.74414,
    "longitude": -64.70459,
    "category": "Park",
    "subcategory": "Park",
    "featured": false,
    "priority": 50
  },
  {
    "geonameId": 4795485,
    "name": "Christiansted National Historic Site",
    "latitude": 17.74664,
    "longitude": -64.70736,
    "category": "Park",
    "subcategory": "Park",
    "featured": false,
    "priority": 50
  },
  {
    "geonameId": 8986091,
    "name": "Cinnamon Cay",
    "latitude": 18.35634,
    "longitude": -64.75631,
    "category": "Island",
    "subcategory": "Island",
    "featured": false,
    "priority": 50
  },
  {
    "geonameId": 4795506,
    "name": "Clinton Phipps Racetrack",
    "latitude": 18.31801,
    "longitude": -64.8782,
    "category": "Park",
    "subcategory": "Park",
    "featured": false,
    "priority": 50
  },
  {
    "geonameId": 4795512,
    "name": "Cockroach Island",
    "latitude": 18.40385,
    "longitude": -65.06043,
    "category": "Island",
    "subcategory": "Island",
    "featured": false,
    "priority": 50
  },
  {
    "geonameId": 4795521,
    "name": "Cocoloba Cay",
    "latitude": 18.31523,
    "longitude": -64.76014,
    "category": "Island",
    "subcategory": "Island",
    "featured": false,
    "priority": 50
  },
  {
    "geonameId": 4795516,
    "name": "Coculus Rock",
    "latitude": 18.31384,
    "longitude": -64.8607,
    "category": "Island",
    "subcategory": "Island",
    "featured": false,
    "priority": 50
  },
  {
    "geonameId": 4795532,
    "name": "Concordia Hill",
    "latitude": 18.30857,
    "longitude": -64.71097,
    "category": "Mountain",
    "subcategory": "Mountain",
    "featured": false,
    "priority": 50
  },
  {
    "geonameId": 4795533,
    "name": "Congo Cay",
    "latitude": 18.36773,
    "longitude": -64.80264,
    "category": "Island",
    "subcategory": "Island",
    "featured": false,
    "priority": 50
  },
  {
    "geonameId": 4795535,
    "name": "Congo Ridge",
    "latitude": 18.36773,
    "longitude": -64.80347,
    "category": "Mountain",
    "subcategory": "Mountain",
    "featured": false,
    "priority": 50
  },
  {
    "geonameId": 4795551,
    "name": "Coral World Marine Park and Observatory",
    "latitude": 18.35023,
    "longitude": -64.86486,
    "category": "Park",
    "subcategory": "Park",
    "featured": false,
    "priority": 50
  },
  {
    "geonameId": 4795566,
    "name": "Cowell Hill",
    "latitude": 18.32596,
    "longitude": -64.93288,
    "category": "Mountain",
    "subcategory": "Mountain",
    "featured": false,
    "priority": 50
  },
  {
    "geonameId": 4795569,
    "name": "Cramer Park",
    "latitude": 17.75858,
    "longitude": -64.58569,
    "category": "Park",
    "subcategory": "Park",
    "featured": false,
    "priority": 50
  },
  {
    "geonameId": 4795571,
    "name": "Cricket Rock",
    "latitude": 18.40829,
    "longitude": -65.04932,
    "category": "Island",
    "subcategory": "Island",
    "featured": false,
    "priority": 50
  },
  {
    "geonameId": 4795575,
    "name": "Crown Mountain",
    "latitude": 18.35718,
    "longitude": -64.97459,
    "category": "Mountain",
    "subcategory": "Mountain",
    "featured": false,
    "priority": 50
  },
  {
    "geonameId": 4795577,
    "name": "Cruz Bay",
    "latitude": 18.33134,
    "longitude": -64.79375,
    "category": "City",
    "subcategory": "Regional Capital",
    "featured": false,
    "priority": 50
  },
  {
    "geonameId": 4795585,
    "name": "Current Rock",
    "latitude": 18.31495,
    "longitude": -64.83431,
    "category": "Island",
    "subcategory": "Island",
    "featured": false,
    "priority": 50
  },
  {
    "geonameId": 4795587,
    "name": "D C Canegata Ballpark",
    "latitude": 17.74331,
    "longitude": -64.69403,
    "category": "Park",
    "subcategory": "Park",
    "featured": false,
    "priority": 50
  },
  {
    "geonameId": 4795588,
    "name": "D Hamilton Jackson Park",
    "latitude": 17.7472,
    "longitude": -64.70209,
    "category": "Park",
    "subcategory": "Park",
    "featured": false,
    "priority": 50
  },
  {
    "geonameId": 10174007,
    "name": "D Hmilton Jackson Park",
    "latitude": 17.73453,
    "longitude": -64.73884,
    "category": "Park",
    "subcategory": "Park",
    "featured": false,
    "priority": 50
  },
  {
    "geonameId": 4795592,
    "name": "Darby Hill",
    "latitude": 17.75442,
    "longitude": -64.67403,
    "category": "Mountain",
    "subcategory": "Mountain",
    "featured": false,
    "priority": 50
  },
  {
    "geonameId": 4795602,
    "name": "Dennis Bay Historic District",
    "latitude": 18.35245,
    "longitude": -64.77542,
    "category": "Park",
    "subcategory": "Park",
    "featured": false,
    "priority": 50
  },
  {
    "geonameId": 4795617,
    "name": "Dog Island",
    "latitude": 18.29579,
    "longitude": -64.81569,
    "category": "Island",
    "subcategory": "Island",
    "featured": false,
    "priority": 50
  },
  {
    "geonameId": 4795619,
    "name": "Dog Rocks",
    "latitude": 18.29495,
    "longitude": -64.81236,
    "category": "Island",
    "subcategory": "Island",
    "featured": false,
    "priority": 50
  },
  {
    "geonameId": 4795620,
    "name": "Domkirk Rock",
    "latitude": 18.33496,
    "longitude": -65.08432,
    "category": "Island",
    "subcategory": "Island",
    "featured": false,
    "priority": 50
  },
  {
    "geonameId": 4795628,
    "name": "Doubloon Hill",
    "latitude": 18.33384,
    "longitude": -64.7568,
    "category": "Mountain",
    "subcategory": "Mountain",
    "featured": false,
    "priority": 50
  },
  {
    "geonameId": 4795635,
    "name": "Dry Rock",
    "latitude": 18.30153,
    "longitude": -65.01003,
    "category": "Island",
    "subcategory": "Island",
    "featured": false,
    "priority": 50
  },
  {
    "geonameId": 4795637,
    "name": "Durloe Cays",
    "latitude": 18.35356,
    "longitude": -64.79319,
    "category": "Island",
    "subcategory": "Island",
    "featured": false,
    "priority": 50
  },
  {
    "geonameId": 4795639,
    "name": "Dutchcap Cay",
    "latitude": 18.37968,
    "longitude": -65.06182,
    "category": "Island",
    "subcategory": "Island",
    "featured": false,
    "priority": 50
  },
  {
    "geonameId": 4795658,
    "name": "Elephant Rock",
    "latitude": 18.32412,
    "longitude": -64.95181,
    "category": "Island",
    "subcategory": "Island",
    "featured": false,
    "priority": 50
  },
  {
    "geonameId": 4795663,
    "name": "Emancipation Gardens Park",
    "latitude": 18.34079,
    "longitude": -64.9307,
    "category": "Park",
    "subcategory": "Park",
    "featured": false,
    "priority": 50
  },
  {
    "geonameId": 4795680,
    "name": "Estate Saint Peter Botanical Garden",
    "latitude": 18.35968,
    "longitude": -64.94598,
    "category": "Park",
    "subcategory": "Park",
    "featured": false,
    "priority": 50
  },
  {
    "geonameId": 4795692,
    "name": "Fairchild Park",
    "latitude": 18.35746,
    "longitude": -64.93987,
    "category": "Park",
    "subcategory": "Park",
    "featured": false,
    "priority": 50
  },
  {
    "geonameId": 4795693,
    "name": "Fairleigh Dickinson Territorial Park",
    "latitude": 17.75442,
    "longitude": -64.57597,
    "category": "Park",
    "subcategory": "Park",
    "featured": false,
    "priority": 50
  },
  {
    "geonameId": 4795690,
    "name": "FDR Park",
    "latitude": 18.3419,
    "longitude": -64.9282,
    "category": "Park",
    "subcategory": "Park",
    "featured": false,
    "priority": 50
  },
  {
    "geonameId": 4795809,
    "name": "Fish Cay",
    "latitude": 18.30968,
    "longitude": -64.83264,
    "category": "Island",
    "subcategory": "Island",
    "featured": false,
    "priority": 50
  },
  {
    "geonameId": 4795709,
    "name": "Flag Hill",
    "latitude": 18.33023,
    "longitude": -64.91098,
    "category": "Mountain",
    "subcategory": "Mountain",
    "featured": false,
    "priority": 50
  },
  {
    "geonameId": 4795711,
    "name": "Flagstok Hill",
    "latitude": 18.36384,
    "longitude": -65.00265,
    "category": "Mountain",
    "subcategory": "Mountain",
    "featured": false,
    "priority": 50
  },
  {
    "geonameId": 4795713,
    "name": "Flamingo Hill",
    "latitude": 18.30773,
    "longitude": -64.95681,
    "category": "Mountain",
    "subcategory": "Mountain",
    "featured": false,
    "priority": 50
  },
  {
    "geonameId": 4795716,
    "name": "Flamingo Pond",
    "latitude": 18.3119,
    "longitude": -64.95598,
    "category": "Lake",
    "subcategory": "Lake",
    "featured": false,
    "priority": 50
  },
  {
    "geonameId": 4795718,
    "name": "Flanagan Island",
    "latitude": 18.32692,
    "longitude": -64.65039,
    "category": "Island",
    "subcategory": "Island",
    "featured": false,
    "priority": 50
  },
  {
    "geonameId": 4795720,
    "name": "Flat Cay",
    "latitude": 18.31654,
    "longitude": -64.98984,
    "category": "Island",
    "subcategory": "Island",
    "featured": false,
    "priority": 50
  },
  {
    "geonameId": 4795721,
    "name": "Flat Cays",
    "latitude": 18.31703,
    "longitude": -64.9892,
    "category": "Island",
    "subcategory": "Island Group",
    "featured": false,
    "priority": 50
  },
  {
    "geonameId": 4795729,
    "name": "Fort Christiansvaern Park",
    "latitude": 17.74692,
    "longitude": -64.70181,
    "category": "Park",
    "subcategory": "Park",
    "featured": false,
    "priority": 50
  },
  {
    "geonameId": 4795737,
    "name": "Fortsberg",
    "latitude": 18.3444,
    "longitude": -64.70569,
    "category": "Mountain",
    "subcategory": "Mountain",
    "featured": false,
    "priority": 50
  },
  {
    "geonameId": 4795743,
    "name": "Fortuna Hill",
    "latitude": 18.35301,
    "longitude": -65.00515,
    "category": "Mountain",
    "subcategory": "Mountain",
    "featured": false,
    "priority": 50
  },
  {
    "geonameId": 4795752,
    "name": "Fredensborg Hill",
    "latitude": 17.74997,
    "longitude": -64.78237,
    "category": "Mountain",
    "subcategory": "Mountain",
    "featured": false,
    "priority": 50
  },
  {
    "geonameId": 4795753,
    "name": "Fredensborg Pond",
    "latitude": 17.73525,
    "longitude": -64.78931,
    "category": "Lake",
    "subcategory": "Reservoir",
    "featured": false,
    "priority": 50
  },
  {
    "geonameId": 4795763,
    "name": "Frederiksted Historic District",
    "latitude": 17.71247,
    "longitude": -64.88154,
    "category": "Park",
    "subcategory": "Park",
    "featured": false,
    "priority": 50
  },
  {
    "geonameId": 4795769,
    "name": "French Hill",
    "latitude": 18.34385,
    "longitude": -64.94126,
    "category": "Mountain",
    "subcategory": "Mountain",
    "featured": false,
    "priority": 50
  },
  {
    "geonameId": 12035869,
    "name": "Frenchcap Cay",
    "latitude": 18.23166,
    "longitude": -64.85211,
    "category": "Island",
    "subcategory": "Island",
    "featured": false,
    "priority": 50
  },
  {
    "geonameId": 4795771,
    "name": "Frenchman Hill",
    "latitude": 18.34468,
    "longitude": -64.94237,
    "category": "Mountain",
    "subcategory": "Mountain",
    "featured": false,
    "priority": 50
  },
  {
    "geonameId": 4795793,
    "name": "Gift Hill",
    "latitude": 18.32579,
    "longitude": -64.77264,
    "category": "Mountain",
    "subcategory": "Mountain",
    "featured": false,
    "priority": 50
  },
  {
    "geonameId": 4795796,
    "name": "Goat Hills",
    "latitude": 17.75108,
    "longitude": -64.5818,
    "category": "Mountain",
    "subcategory": "Mountain",
    "featured": false,
    "priority": 50
  },
  {
    "geonameId": 4795804,
    "name": "Gorret Rock",
    "latitude": 18.37773,
    "longitude": -65.06376,
    "category": "Island",
    "subcategory": "Island",
    "featured": false,
    "priority": 50
  },
  {
    "geonameId": 4795805,
    "name": "Government Hill",
    "latitude": 18.34412,
    "longitude": -64.92903,
    "category": "Mountain",
    "subcategory": "Mountain",
    "featured": false,
    "priority": 50
  },
  {
    "geonameId": 4795811,
    "name": "Grambokola Hill",
    "latitude": 18.32746,
    "longitude": -64.96376,
    "category": "Mountain",
    "subcategory": "Mountain",
    "featured": false,
    "priority": 50
  },
  {
    "geonameId": 4795822,
    "name": "Grass Cay",
    "latitude": 18.35912,
    "longitude": -64.83264,
    "category": "Island",
    "subcategory": "Island",
    "featured": false,
    "priority": 50
  },
  {
    "geonameId": 4795830,
    "name": "Great Pond",
    "latitude": 17.72553,
    "longitude": -64.65681,
    "category": "Lake",
    "subcategory": "Lake",
    "featured": false,
    "priority": 50
  },
  {
    "geonameId": 4795834,
    "name": "Great Saint James Island",
    "latitude": 18.30968,
    "longitude": -64.82875,
    "category": "Island",
    "subcategory": "Island",
    "featured": false,
    "priority": 50
  },
  {
    "geonameId": 4795835,
    "name": "Green Cay",
    "latitude": 17.76692,
    "longitude": -64.6657,
    "category": "Island",
    "subcategory": "Island",
    "featured": false,
    "priority": 50
  },
  {
    "geonameId": 4795841,
    "name": "Greig Hill",
    "latitude": 17.77692,
    "longitude": -64.76264,
    "category": "Mountain",
    "subcategory": "Mountain",
    "featured": false,
    "priority": 50
  },
  {
    "geonameId": 4795863,
    "name": "Hans Lollik Island",
    "latitude": 18.39801,
    "longitude": -64.90792,
    "category": "Island",
    "subcategory": "Island",
    "featured": false,
    "priority": 50
  },
  {
    "geonameId": 4795864,
    "name": "Hans Lollik Rock",
    "latitude": 18.3844,
    "longitude": -64.90042,
    "category": "Island",
    "subcategory": "Island",
    "featured": false,
    "priority": 50
  },
  {
    "geonameId": 4795873,
    "name": "Harvey Island",
    "latitude": 17.68386,
    "longitude": -64.76153,
    "category": "Island",
    "subcategory": "Island",
    "featured": false,
    "priority": 50
  },
  {
    "geonameId": 4795875,
    "name": "Hassel Island",
    "latitude": 18.3294,
    "longitude": -64.93542,
    "category": "Island",
    "subcategory": "Island",
    "featured": false,
    "priority": 50
  },
  {
    "geonameId": 4795876,
    "name": "Hassel Island Historic District",
    "latitude": 18.32912,
    "longitude": -64.93542,
    "category": "Park",
    "subcategory": "Park",
    "featured": false,
    "priority": 50
  },
  {
    "geonameId": 4795885,
    "name": "Hawk Hill",
    "latitude": 18.35301,
    "longitude": -64.97542,
    "category": "Mountain",
    "subcategory": "Mountain",
    "featured": false,
    "priority": 50
  },
  {
    "geonameId": 4795890,
    "name": "Haypiece Hill",
    "latitude": 18.33051,
    "longitude": -64.95792,
    "category": "Mountain",
    "subcategory": "Mountain",
    "featured": false,
    "priority": 50
  },
  {
    "geonameId": 4795892,
    "name": "Henley Cay",
    "latitude": 18.35356,
    "longitude": -64.79319,
    "category": "Island",
    "subcategory": "Island",
    "featured": false,
    "priority": 50
  },
  {
    "geonameId": 4795932,
    "name": "Inner Brass Island",
    "latitude": 18.38301,
    "longitude": -64.9707,
    "category": "Island",
    "subcategory": "Island",
    "featured": false,
    "priority": 50
  },
  {
    "geonameId": 4795940,
    "name": "Jack Rock",
    "latitude": 18.32523,
    "longitude": -64.84764,
    "category": "Island",
    "subcategory": "Island",
    "featured": false,
    "priority": 50
  },
  {
    "geonameId": 4795962,
    "name": "Judith Hill",
    "latitude": 17.76914,
    "longitude": -64.73848,
    "category": "Mountain",
    "subcategory": "Mountain",
    "featured": false,
    "priority": 50
  },
  {
    "geonameId": 4795966,
    "name": "Kalkun Cay",
    "latitude": 18.35051,
    "longitude": -65.05765,
    "category": "Island",
    "subcategory": "Island",
    "featured": false,
    "priority": 50
  },
  {
    "geonameId": 4795967,
    "name": "Kaserne Hill",
    "latitude": 17.73386,
    "longitude": -64.77209,
    "category": "Mountain",
    "subcategory": "Mountain",
    "featured": false,
    "priority": 50
  },
  {
    "geonameId": 4795971,
    "name": "King Hill",
    "latitude": 18.35245,
    "longitude": -64.73236,
    "category": "Mountain",
    "subcategory": "Mountain",
    "featured": false,
    "priority": 50
  },
  {
    "geonameId": 4795983,
    "name": "Kirkegaard Hill",
    "latitude": 17.77108,
    "longitude": -64.76375,
    "category": "Mountain",
    "subcategory": "Mountain",
    "featured": false,
    "priority": 50
  },
  {
    "geonameId": 4795985,
    "name": "Klok Hill",
    "latitude": 18.34746,
    "longitude": -65.0257,
    "category": "Mountain",
    "subcategory": "Mountain",
    "featured": false,
    "priority": 50
  },
  {
    "geonameId": 4795998,
    "name": "L'Esperance Historic District",
    "latitude": 18.34079,
    "longitude": -64.74264,
    "category": "Park",
    "subcategory": "Park",
    "featured": false,
    "priority": 50
  },
  {
    "geonameId": 4796012,
    "name": "Lang Peak",
    "latitude": 17.73331,
    "longitude": -64.68153,
    "category": "Mountain",
    "subcategory": "Mountain",
    "featured": false,
    "priority": 50
  },
  {
    "geonameId": 4796013,
    "name": "Langmath",
    "latitude": 18.33495,
    "longitude": -64.87292,
    "category": "Mountain",
    "subcategory": "Mountain",
    "featured": false,
    "priority": 50
  },
  {
    "geonameId": 4796017,
    "name": "Large Pond",
    "latitude": 18.32662,
    "longitude": -64.79597,
    "category": "Lake",
    "subcategory": "Reservoir",
    "featured": false,
    "priority": 50
  },
  {
    "geonameId": 4796020,
    "name": "Leduck Island",
    "latitude": 18.31634,
    "longitude": -64.68791,
    "category": "Island",
    "subcategory": "Island",
    "featured": false,
    "priority": 50
  },
  {
    "geonameId": 4796021,
    "name": "Lee Hill",
    "latitude": 18.35162,
    "longitude": -64.92709,
    "category": "Mountain",
    "subcategory": "Mountain",
    "featured": false,
    "priority": 50
  },
  {
    "geonameId": 4796028,
    "name": "Leinster Hill",
    "latitude": 18.36412,
    "longitude": -64.71264,
    "category": "Mountain",
    "subcategory": "Mountain",
    "featured": false,
    "priority": 50
  },
  {
    "geonameId": 4796034,
    "name": "Lerkenlund Hill",
    "latitude": 18.36023,
    "longitude": -64.94903,
    "category": "Mountain",
    "subcategory": "Mountain",
    "featured": false,
    "priority": 50
  },
  {
    "geonameId": 4796041,
    "name": "Limestone Rock",
    "latitude": 18.31773,
    "longitude": -64.94626,
    "category": "Island",
    "subcategory": "Island",
    "featured": false,
    "priority": 50
  },
  {
    "geonameId": 4796057,
    "name": "Lisenlund Hill",
    "latitude": 18.32718,
    "longitude": -64.92042,
    "category": "Mountain",
    "subcategory": "Mountain",
    "featured": false,
    "priority": 50
  },
  {
    "geonameId": 4796062,
    "name": "Little Flat Cay",
    "latitude": 18.31778,
    "longitude": -64.98884,
    "category": "Island",
    "subcategory": "Island",
    "featured": false,
    "priority": 50
  },
  {
    "geonameId": 4796065,
    "name": "Little Hans Lollik Island",
    "latitude": 18.40912,
    "longitude": -64.90792,
    "category": "Island",
    "subcategory": "Island",
    "featured": false,
    "priority": 50
  },
  {
    "geonameId": 4796078,
    "name": "Little Saint James Island",
    "latitude": 18.29995,
    "longitude": -64.82514,
    "category": "Island",
    "subcategory": "Island",
    "featured": false,
    "priority": 50
  },
  {
    "geonameId": 4796081,
    "name": "Lizard Rocks",
    "latitude": 18.38579,
    "longitude": -64.98987,
    "category": "Island",
    "subcategory": "Island",
    "featured": false,
    "priority": 50
  },
  {
    "geonameId": 4796084,
    "name": "Lollik Hill",
    "latitude": 18.39801,
    "longitude": -64.90709,
    "category": "Mountain",
    "subcategory": "Mountain",
    "featured": false,
    "priority": 50
  },
  {
    "geonameId": 4796103,
    "name": "Lovango Cay",
    "latitude": 18.36245,
    "longitude": -64.80375,
    "category": "Island",
    "subcategory": "Island",
    "featured": false,
    "priority": 50
  },
  {
    "geonameId": 4796129,
    "name": "Mamey Peak",
    "latitude": 18.34773,
    "longitude": -64.73958,
    "category": "Mountain",
    "subcategory": "Mountain",
    "featured": false,
    "priority": 50
  },
  {
    "geonameId": 4796137,
    "name": "Mandal Hill",
    "latitude": 18.36162,
    "longitude": -64.89181,
    "category": "Mountain",
    "subcategory": "Mountain",
    "featured": false,
    "priority": 50
  },
  {
    "geonameId": 4796144,
    "name": "Margaret Hill",
    "latitude": 18.33745,
    "longitude": -64.77986,
    "category": "Mountain",
    "subcategory": "Mountain",
    "featured": false,
    "priority": 50
  },
  {
    "geonameId": 4796146,
    "name": "Maria Hill",
    "latitude": 17.74192,
    "longitude": -64.66486,
    "category": "Mountain",
    "subcategory": "Mountain",
    "featured": false,
    "priority": 50
  },
  {
    "geonameId": 4796151,
    "name": "Market Place",
    "latitude": 17.74442,
    "longitude": -64.70431,
    "category": "Park",
    "subcategory": "Park",
    "featured": false,
    "priority": 50
  },
  {
    "geonameId": 4796152,
    "name": "Market Square",
    "latitude": 17.71386,
    "longitude": -64.88181,
    "category": "Park",
    "subcategory": "Park",
    "featured": false,
    "priority": 50
  },
  {
    "geonameId": 4796154,
    "name": "Maronberg",
    "latitude": 17.76303,
    "longitude": -64.86348,
    "category": "Mountain",
    "subcategory": "Mountain",
    "featured": false,
    "priority": 50
  },
  {
    "geonameId": 4796157,
    "name": "Mars Hill",
    "latitude": 17.70636,
    "longitude": -64.87404,
    "category": "Mountain",
    "subcategory": "Mountain",
    "featured": false,
    "priority": 50
  },
  {
    "geonameId": 4796176,
    "name": "Mingo Cay",
    "latitude": 18.35968,
    "longitude": -64.82014,
    "category": "Island",
    "subcategory": "Island",
    "featured": false,
    "priority": 50
  },
  {
    "geonameId": 4796177,
    "name": "Minna Hill",
    "latitude": 18.32051,
    "longitude": -64.71152,
    "category": "Mountain",
    "subcategory": "Mountain",
    "featured": false,
    "priority": 50
  },
  {
    "geonameId": 4796192,
    "name": "Montagne Rouge",
    "latitude": 18.27829,
    "longitude": -64.89236,
    "category": "Mountain",
    "subcategory": "Mountain",
    "featured": false,
    "priority": 50
  },
  {
    "geonameId": 4796193,
    "name": "Montalvan Hill",
    "latitude": 18.30462,
    "longitude": -65.0016,
    "category": "Mountain",
    "subcategory": "Mountain",
    "featured": false,
    "priority": 50
  },
  {
    "geonameId": 4796202,
    "name": "More Hill",
    "latitude": 18.35884,
    "longitude": -64.69708,
    "category": "Mountain",
    "subcategory": "Mountain",
    "featured": false,
    "priority": 50
  },
  {
    "geonameId": 4796481,
    "name": "Morne Rond",
    "latitude": 17.75386,
    "longitude": -64.57097,
    "category": "Mountain",
    "subcategory": "Mountain",
    "featured": false,
    "priority": 50
  },
  {
    "geonameId": 4796210,
    "name": "Morrisette Hill",
    "latitude": 18.33607,
    "longitude": -64.79403,
    "category": "Mountain",
    "subcategory": "Mountain",
    "featured": false,
    "priority": 50
  },
  {
    "geonameId": 4795641,
    "name": "Mount Eagle",
    "latitude": 17.76306,
    "longitude": -64.81194,
    "category": "Mountain",
    "subcategory": "Mountain",
    "featured": false,
    "priority": 50
  },
  {
    "geonameId": 4796219,
    "name": "Mount Fancy Hill",
    "latitude": 17.72303,
    "longitude": -64.63959,
    "category": "Mountain",
    "subcategory": "Mountain",
    "featured": false,
    "priority": 50
  },
  {
    "geonameId": 4796083,
    "name": "Mount Logan",
    "latitude": 17.72414,
    "longitude": -64.86626,
    "category": "Mountain",
    "subcategory": "Mountain",
    "featured": false,
    "priority": 50
  },
  {
    "geonameId": 4796168,
    "name": "Mount McWilliam",
    "latitude": 17.72831,
    "longitude": -64.83376,
    "category": "Mountain",
    "subcategory": "Mountain",
    "featured": false,
    "priority": 50
  },
  {
    "geonameId": 4796380,
    "name": "Mount Pleasant",
    "latitude": 18.3444,
    "longitude": -64.86597,
    "category": "Mountain",
    "subcategory": "Mountain",
    "featured": false,
    "priority": 50
  },
  {
    "geonameId": 4796811,
    "name": "Mount Washington",
    "latitude": 17.74858,
    "longitude": -64.87681,
    "category": "Mountain",
    "subcategory": "Mountain",
    "featured": false,
    "priority": 50
  },
  {
    "geonameId": 4796878,
    "name": "Mount Zion",
    "latitude": 18.33245,
    "longitude": -64.88903,
    "category": "Mountain",
    "subcategory": "Mountain",
    "featured": false,
    "priority": 50
  },
  {
    "geonameId": 4796243,
    "name": "Mountain Top",
    "latitude": 18.35551,
    "longitude": -64.94681,
    "category": "Mountain",
    "subcategory": "Mountain",
    "featured": false,
    "priority": 50
  },
  {
    "geonameId": 4796254,
    "name": "Nana Hill",
    "latitude": 18.34246,
    "longitude": -64.96015,
    "category": "Mountain",
    "subcategory": "Mountain",
    "featured": false,
    "priority": 50
  },
  {
    "geonameId": 4796255,
    "name": "Nancy Hill",
    "latitude": 18.34551,
    "longitude": -64.67236,
    "category": "Mountain",
    "subcategory": "Mountain",
    "featured": false,
    "priority": 50
  },
  {
    "geonameId": 8484216,
    "name": "Neltjeberg",
    "latitude": 18.36603,
    "longitude": -64.97309,
    "category": "Mountain",
    "subcategory": "Mountain",
    "featured": false,
    "priority": 50
  },
  {
    "geonameId": 4796294,
    "name": "Nulliberg",
    "latitude": 18.32579,
    "longitude": -64.89653,
    "category": "Mountain",
    "subcategory": "Mountain",
    "featured": false,
    "priority": 50
  },
  {
    "geonameId": 4796311,
    "name": "Outer Brass Island",
    "latitude": 18.39468,
    "longitude": -64.97098,
    "category": "Island",
    "subcategory": "Island",
    "featured": false,
    "priority": 50
  },
  {
    "geonameId": 4796314,
    "name": "Oxford Hill",
    "latitude": 17.74647,
    "longitude": -64.85755,
    "category": "Mountain",
    "subcategory": "Mountain",
    "featured": false,
    "priority": 50
  },
  {
    "geonameId": 4796315,
    "name": "Oyen Hill",
    "latitude": 18.31829,
    "longitude": -64.75847,
    "category": "Mountain",
    "subcategory": "Mountain",
    "featured": false,
    "priority": 50
  },
  {
    "geonameId": 4796316,
    "name": "Packet Rock",
    "latitude": 18.29968,
    "longitude": -64.89042,
    "category": "Island",
    "subcategory": "Island",
    "featured": false,
    "priority": 50
  },
  {
    "geonameId": 4796333,
    "name": "Patricia Cay",
    "latitude": 18.3069,
    "longitude": -64.87181,
    "category": "Island",
    "subcategory": "Island",
    "featured": false,
    "priority": 50
  },
  {
    "geonameId": 4796336,
    "name": "Peace Hill",
    "latitude": 18.35134,
    "longitude": -64.77764,
    "category": "Mountain",
    "subcategory": "Mountain",
    "featured": false,
    "priority": 50
  },
  {
    "geonameId": 4796342,
    "name": "Pelican Cay",
    "latitude": 18.41412,
    "longitude": -64.90792,
    "category": "Island",
    "subcategory": "Island",
    "featured": false,
    "priority": 50
  },
  {
    "geonameId": 4796347,
    "name": "Pentheny Hill",
    "latitude": 17.73497,
    "longitude": -64.61181,
    "category": "Mountain",
    "subcategory": "Mountain",
    "featured": false,
    "priority": 50
  },
  {
    "geonameId": 4796348,
    "name": "Perkins Cay",
    "latitude": 18.35412,
    "longitude": -64.77736,
    "category": "Island",
    "subcategory": "Island",
    "featured": false,
    "priority": 50
  },
  {
    "geonameId": 4796353,
    "name": "Peter Carl Limpricht Park",
    "latitude": 17.7447,
    "longitude": -64.71292,
    "category": "Park",
    "subcategory": "Park",
    "featured": false,
    "priority": 50
  },
  {
    "geonameId": 4796356,
    "name": "Peter Peak",
    "latitude": 18.34718,
    "longitude": -64.76264,
    "category": "Mountain",
    "subcategory": "Mountain",
    "featured": false,
    "priority": 50
  },
  {
    "geonameId": 4796364,
    "name": "Peterson Hill",
    "latitude": 18.34329,
    "longitude": -64.88431,
    "category": "Mountain",
    "subcategory": "Mountain",
    "featured": false,
    "priority": 50
  },
  {
    "geonameId": 4796383,
    "name": "Pole Hill",
    "latitude": 17.74831,
    "longitude": -64.64625,
    "category": "Mountain",
    "subcategory": "Mountain",
    "featured": false,
    "priority": 50
  },
  {
    "geonameId": 4796389,
    "name": "Post Office Square",
    "latitude": 18.34107,
    "longitude": -64.93098,
    "category": "Park",
    "subcategory": "Park",
    "featured": false,
    "priority": 50
  },
  {
    "geonameId": 4796402,
    "name": "Prospect Hill",
    "latitude": 17.72831,
    "longitude": -64.67736,
    "category": "Mountain",
    "subcategory": "Mountain",
    "featured": false,
    "priority": 50
  },
  {
    "geonameId": 4796410,
    "name": "Protestant Cay",
    "latitude": 17.7497,
    "longitude": -64.70264,
    "category": "Island",
    "subcategory": "Island",
    "featured": false,
    "priority": 50
  },
  {
    "geonameId": 4796411,
    "name": "Providence Hill",
    "latitude": 18.31968,
    "longitude": -64.95376,
    "category": "Mountain",
    "subcategory": "Mountain",
    "featured": false,
    "priority": 50
  },
  {
    "geonameId": 4796418,
    "name": "Punch Peak",
    "latitude": 17.7422,
    "longitude": -64.87515,
    "category": "Mountain",
    "subcategory": "Mountain",
    "featured": false,
    "priority": 50
  },
  {
    "geonameId": 4796427,
    "name": "Ram Hill",
    "latitude": 18.30246,
    "longitude": -64.70125,
    "category": "Mountain",
    "subcategory": "Mountain",
    "featured": false,
    "priority": 50
  },
  {
    "geonameId": 4796428,
    "name": "Ramgoat Cay",
    "latitude": 18.35523,
    "longitude": -64.78931,
    "category": "Island",
    "subcategory": "Island",
    "featured": false,
    "priority": 50
  },
  {
    "geonameId": 4796432,
    "name": "Rata Cay",
    "latitude": 18.35606,
    "longitude": -64.79681,
    "category": "Island",
    "subcategory": "Island",
    "featured": false,
    "priority": 50
  },
  {
    "geonameId": 4796435,
    "name": "Recovery Hill",
    "latitude": 17.73442,
    "longitude": -64.7007,
    "category": "Mountain",
    "subcategory": "Mountain",
    "featured": false,
    "priority": 50
  },
  {
    "geonameId": 4796446,
    "name": "Redhook Hill",
    "latitude": 18.33051,
    "longitude": -64.84681,
    "category": "Mountain",
    "subcategory": "Mountain",
    "featured": false,
    "priority": 50
  },
  {
    "geonameId": 4796454,
    "name": "Reef Bay Great House Historic District",
    "latitude": 18.32829,
    "longitude": -64.74125,
    "category": "Park",
    "subcategory": "Park",
    "featured": false,
    "priority": 50
  },
  {
    "geonameId": 4796479,
    "name": "Roman Hill",
    "latitude": 18.32162,
    "longitude": -64.78375,
    "category": "Mountain",
    "subcategory": "Mountain",
    "featured": false,
    "priority": 50
  },
  {
    "geonameId": 4796482,
    "name": "Rose Hill",
    "latitude": 17.75275,
    "longitude": -64.85876,
    "category": "Mountain",
    "subcategory": "Mountain",
    "featured": false,
    "priority": 50
  },
  {
    "geonameId": 4796486,
    "name": "Rotto Cay",
    "latitude": 18.31412,
    "longitude": -64.86431,
    "category": "Island",
    "subcategory": "Island",
    "featured": false,
    "priority": 50
  },
  {
    "geonameId": 4796496,
    "name": "Rupert Rock",
    "latitude": 18.32829,
    "longitude": -64.92598,
    "category": "Island",
    "subcategory": "Island",
    "featured": false,
    "priority": 50
  },
  {
    "geonameId": 4796501,
    "name": "Ruth Island",
    "latitude": 17.68414,
    "longitude": -64.76126,
    "category": "Island",
    "subcategory": "Island",
    "featured": false,
    "priority": 50
  },
  {
    "geonameId": 4796505,
    "name": "Saba Island",
    "latitude": 18.30528,
    "longitude": -65.00047,
    "category": "Island",
    "subcategory": "Island",
    "featured": false,
    "priority": 50
  },
  {
    "geonameId": 4796512,
    "name": "Saint Croix",
    "latitude": 17.72751,
    "longitude": -64.74698,
    "category": "City",
    "subcategory": "Regional Capital",
    "featured": false,
    "priority": 50
  },
  {
    "geonameId": 8504716,
    "name": "Saint Croix Island",
    "latitude": 17.73103,
    "longitude": -64.79153,
    "category": "Island",
    "subcategory": "Island",
    "featured": false,
    "priority": 50
  },
  {
    "geonameId": 4796519,
    "name": "Saint George Hill",
    "latitude": 17.71923,
    "longitude": -64.85634,
    "category": "Mountain",
    "subcategory": "Mountain",
    "featured": false,
    "priority": 50
  },
  {
    "geonameId": 4796520,
    "name": "Saint George Village Botanical Gardens",
    "latitude": 17.71775,
    "longitude": -64.83042,
    "category": "Park",
    "subcategory": "Park",
    "featured": false,
    "priority": 50
  },
  {
    "geonameId": 4795502,
    "name": "Saint John",
    "latitude": 18.34231,
    "longitude": -64.74295,
    "category": "Island",
    "subcategory": "Island",
    "featured": false,
    "priority": 50
  },
  {
    "geonameId": 4796543,
    "name": "Saint Peter",
    "latitude": 18.35607,
    "longitude": -64.94709,
    "category": "Mountain",
    "subcategory": "Mountain",
    "featured": false,
    "priority": 50
  },
  {
    "geonameId": 4796548,
    "name": "Saint Thomas",
    "latitude": 18.35062,
    "longitude": -64.92353,
    "category": "Island",
    "subcategory": "Island",
    "featured": false,
    "priority": 50
  },
  {
    "geonameId": 4796561,
    "name": "Salt Cay",
    "latitude": 18.3619,
    "longitude": -65.0496,
    "category": "Island",
    "subcategory": "Island",
    "featured": false,
    "priority": 50
  },
  {
    "geonameId": 4796563,
    "name": "Salt Pond",
    "latitude": 18.30773,
    "longitude": -64.70291,
    "category": "Lake",
    "subcategory": "Lake",
    "featured": false,
    "priority": 50
  },
  {
    "geonameId": 4796573,
    "name": "Saltwater Money Rock",
    "latitude": 18.34468,
    "longitude": -65.04904,
    "category": "Island",
    "subcategory": "Island",
    "featured": false,
    "priority": 50
  },
  {
    "geonameId": 4796585,
    "name": "Sandy Point Rock",
    "latitude": 18.3294,
    "longitude": -64.94653,
    "category": "Island",
    "subcategory": "Island",
    "featured": false,
    "priority": 50
  },
  {
    "geonameId": 4796590,
    "name": "Sara Hill",
    "latitude": 18.33718,
    "longitude": -64.9607,
    "category": "Mountain",
    "subcategory": "Mountain",
    "featured": false,
    "priority": 50
  },
  {
    "geonameId": 4796591,
    "name": "Savana Hill",
    "latitude": 18.33746,
    "longitude": -65.08321,
    "category": "Mountain",
    "subcategory": "Mountain",
    "featured": false,
    "priority": 50
  },
  {
    "geonameId": 4796592,
    "name": "Savana Island",
    "latitude": 18.34079,
    "longitude": -65.07821,
    "category": "Island",
    "subcategory": "Island",
    "featured": false,
    "priority": 50
  },
  {
    "geonameId": 4796603,
    "name": "Seven Hills",
    "latitude": 17.74803,
    "longitude": -64.64542,
    "category": "Mountain",
    "subcategory": "Mountain",
    "featured": false,
    "priority": 50
  },
  {
    "geonameId": 4796605,
    "name": "Shark Island",
    "latitude": 18.33718,
    "longitude": -64.84458,
    "category": "Island",
    "subcategory": "Island",
    "featured": false,
    "priority": 50
  },
  {
    "geonameId": 4796607,
    "name": "Shipley Hill",
    "latitude": 18.3344,
    "longitude": -64.93709,
    "category": "Mountain",
    "subcategory": "Mountain",
    "featured": false,
    "priority": 50
  },
  {
    "geonameId": 4796616,
    "name": "Sight Mound",
    "latitude": 17.74053,
    "longitude": -64.66848,
    "category": "Mountain",
    "subcategory": "Mountain",
    "featured": false,
    "priority": 50
  },
  {
    "geonameId": 4796617,
    "name": "Signal Hill",
    "latitude": 18.3544,
    "longitude": -64.94459,
    "category": "Mountain",
    "subcategory": "Mountain",
    "featured": false,
    "priority": 50
  },
  {
    "geonameId": 4796620,
    "name": "Skipper Jacob Rock",
    "latitude": 18.32884,
    "longitude": -64.80486,
    "category": "Island",
    "subcategory": "Island",
    "featured": false,
    "priority": 50
  },
  {
    "geonameId": 4796623,
    "name": "Slob Historic District",
    "latitude": 17.73108,
    "longitude": -64.77987,
    "category": "Park",
    "subcategory": "Park",
    "featured": false,
    "priority": 50
  },
  {
    "geonameId": 4796624,
    "name": "Small Pond",
    "latitude": 18.32801,
    "longitude": -64.79819,
    "category": "Lake",
    "subcategory": "Reservoir",
    "featured": false,
    "priority": 50
  },
  {
    "geonameId": 4796641,
    "name": "Southgate Lagoon",
    "latitude": 17.75942,
    "longitude": -64.66681,
    "category": "Lake",
    "subcategory": "Lake",
    "featured": false,
    "priority": 50
  },
  {
    "geonameId": 7702638,
    "name": "Southgate Pond",
    "latitude": 17.76083,
    "longitude": -64.66583,
    "category": "Lake",
    "subcategory": "Lake",
    "featured": false,
    "priority": 50
  },
  {
    "geonameId": 4796642,
    "name": "Southside Pond",
    "latitude": 18.33273,
    "longitude": -64.67347,
    "category": "Lake",
    "subcategory": "Lake",
    "featured": false,
    "priority": 50
  },
  {
    "geonameId": 4796669,
    "name": "Steven Cay",
    "latitude": 18.33051,
    "longitude": -64.80708,
    "category": "Island",
    "subcategory": "Island",
    "featured": false,
    "priority": 50
  },
  {
    "geonameId": 4796677,
    "name": "Strawberry Hill Historic District",
    "latitude": 17.73247,
    "longitude": -64.76014,
    "category": "Park",
    "subcategory": "Park",
    "featured": false,
    "priority": 50
  },
  {
    "geonameId": 4796685,
    "name": "Sugarloaf Hill",
    "latitude": 17.75275,
    "longitude": -64.57819,
    "category": "Mountain",
    "subcategory": "Mountain",
    "featured": false,
    "priority": 50
  },
  {
    "geonameId": 4796686,
    "name": "Sula Cay",
    "latitude": 18.40301,
    "longitude": -65.05821,
    "category": "Island",
    "subcategory": "Island",
    "featured": false,
    "priority": 50
  },
  {
    "geonameId": 4796707,
    "name": "Thatch Cay",
    "latitude": 18.35912,
    "longitude": -64.86097,
    "category": "Island",
    "subcategory": "Island",
    "featured": false,
    "priority": 50
  },
  {
    "geonameId": 4796708,
    "name": "Thatch Hill",
    "latitude": 18.32523,
    "longitude": -64.85097,
    "category": "Mountain",
    "subcategory": "Mountain",
    "featured": false,
    "priority": 50
  },
  {
    "geonameId": 4796675,
    "name": "The Stragglers",
    "latitude": 18.30329,
    "longitude": -64.83542,
    "category": "Island",
    "subcategory": "Island",
    "featured": false,
    "priority": 50
  },
  {
    "geonameId": 4796714,
    "name": "Tillets Garden",
    "latitude": 18.34162,
    "longitude": -64.88736,
    "category": "Park",
    "subcategory": "Park",
    "featured": false,
    "priority": 50
  },
  {
    "geonameId": 4796718,
    "name": "Tombstone Rock",
    "latitude": 18.36246,
    "longitude": -64.93681,
    "category": "Island",
    "subcategory": "Island",
    "featured": false,
    "priority": 50
  },
  {
    "geonameId": 4796720,
    "name": "Triangle Islands",
    "latitude": 18.31357,
    "longitude": -64.91681,
    "category": "Island",
    "subcategory": "Island Group",
    "featured": false,
    "priority": 50
  },
  {
    "geonameId": 4796724,
    "name": "Trunk Cay",
    "latitude": 18.35523,
    "longitude": -64.76903,
    "category": "Island",
    "subcategory": "Island",
    "featured": false,
    "priority": 50
  },
  {
    "geonameId": 4796734,
    "name": "Turtleback Rock",
    "latitude": 18.3469,
    "longitude": -64.8582,
    "category": "Island",
    "subcategory": "Island",
    "featured": false,
    "priority": 50
  },
  {
    "geonameId": 4796735,
    "name": "Turtledove Cay",
    "latitude": 18.30859,
    "longitude": -65.00054,
    "category": "Island",
    "subcategory": "Island",
    "featured": false,
    "priority": 50
  },
  {
    "geonameId": 4796736,
    "name": "Tutu",
    "latitude": 18.33884,
    "longitude": -64.88653,
    "category": "City",
    "subcategory": "City",
    "featured": false,
    "priority": 50
  },
  {
    "geonameId": 4796743,
    "name": "Two Brothers",
    "latitude": 18.34301,
    "longitude": -64.81708,
    "category": "Island",
    "subcategory": "Island",
    "featured": false,
    "priority": 50
  },
  {
    "geonameId": 11379171,
    "name": "Virgin Islands Coral Reef National Monument",
    "latitude": 18.28996,
    "longitude": -64.70683,
    "category": "Park",
    "subcategory": "Park",
    "featured": false,
    "priority": 50
  },
  {
    "geonameId": 4796816,
    "name": "Water Island",
    "latitude": 18.32104,
    "longitude": -64.95181,
    "category": "Island",
    "subcategory": "Island",
    "featured": false,
    "priority": 50
  },
  {
    "geonameId": 4796820,
    "name": "Waterfront Park",
    "latitude": 17.74692,
    "longitude": -64.70792,
    "category": "Park",
    "subcategory": "Park",
    "featured": false,
    "priority": 50
  },
  {
    "geonameId": 4796822,
    "name": "Waterlemon Cay",
    "latitude": 18.3669,
    "longitude": -64.72347,
    "category": "Island",
    "subcategory": "Island",
    "featured": false,
    "priority": 50
  },
  {
    "geonameId": 4796824,
    "name": "Welk Rocks",
    "latitude": 18.30634,
    "longitude": -64.82097,
    "category": "Island",
    "subcategory": "Island",
    "featured": false,
    "priority": 50
  },
  {
    "geonameId": 4796827,
    "name": "West Cay",
    "latitude": 18.35912,
    "longitude": -65.04571,
    "category": "Island",
    "subcategory": "Island",
    "featured": false,
    "priority": 50
  },
  {
    "geonameId": 4796835,
    "name": "Westend Saltpond",
    "latitude": 17.69025,
    "longitude": -64.89154,
    "category": "Lake",
    "subcategory": "Lake",
    "featured": false,
    "priority": 50
  },
  {
    "geonameId": 4796840,
    "name": "Wharf Square",
    "latitude": 17.74692,
    "longitude": -64.70236,
    "category": "Park",
    "subcategory": "Park",
    "featured": false,
    "priority": 50
  },
  {
    "geonameId": 4796847,
    "name": "Whistling Cay",
    "latitude": 18.37023,
    "longitude": -64.75375,
    "category": "Island",
    "subcategory": "Island",
    "featured": false,
    "priority": 50
  },
  {
    "geonameId": 4796856,
    "name": "William Head",
    "latitude": 18.34412,
    "longitude": -65.02543,
    "category": "Mountain",
    "subcategory": "Mountain",
    "featured": false,
    "priority": 50
  },
  {
    "geonameId": 4796865,
    "name": "Wintberg Peak",
    "latitude": 18.34551,
    "longitude": -64.90625,
    "category": "Mountain",
    "subcategory": "Mountain",
    "featured": false,
    "priority": 50
  }
]