[
  {
    "geonameId": 3365251,
    "name": "’Kon ’Kyp",
    "latitude": -29.13134,
    "longitude": 17.93557,
    "category": "Mountain",
    "subcategory": "Mountain",
    "featured": false,
    "priority": 50
  },
  {
    "geonameId": 1024019,
    "name": "Aalwynkop",
    "latitude": -30.21874,
    "longitude": 27.35619,
    "category": "Mountain",
    "subcategory": "Mountain",
    "featured": false,
    "priority": 50
  },
  {
    "geonameId": 1024013,
    "name": "Aalwynskop",
    "latitude": -32.78817,
    "longitude": 24.62656,
    "category": "Mountain",
    "subcategory": "Mountain",
    "featured": false,
    "priority": 50
  },
  {
    "geonameId": 1023964,
    "name": "Aapberg",
    "latitude": -32.0843,
    "longitude": 20.2368,
    "category": "Mountain",
    "subcategory": "Mountain",
    "featured": false,
    "priority": 50
  },
  {
    "geonameId": 1023951,
    "name": "Aarbeikop",
    "latitude": -25.08846,
    "longitude": 30.49739,
    "category": "Mountain",
    "subcategory": "Mountain",
    "featured": false,
    "priority": 50
  },
  {
    "geonameId": 1023935,
    "name": "Aarfontein",
    "latitude": -31.38333,
    "longitude": 22.4,
    "category": "Mountain",
    "subcategory": "Mountain",
    "featured": false,
    "priority": 50
  },
  {
    "geonameId": 1023915,
    "name": "Aasvoëlberg",
    "latitude": -34.2106,
    "longitude": 21.67319,
    "category": "Mountain",
    "subcategory": "Mountain",
    "featured": false,
    "priority": 50
  },
  {
    "geonameId": 1023873,
    "name": "Aasvoëlkop",
    "latitude": -32.61231,
    "longitude": 25.67412,
    "category": "Mountain",
    "subcategory": "Mountain",
    "featured": false,
    "priority": 50
  },
  {
    "geonameId": 1023848,
    "name": "Aasvoëlkrans",
    "latitude": -33.98537,
    "longitude": 20.58176,
    "category": "Mountain",
    "subcategory": "Mountain",
    "featured": false,
    "priority": 50
  },
  {
    "geonameId": 1023925,
    "name": "Aasvogelberg",
    "latitude": -30.33333,
    "longitude": 27.06667,
    "category": "Mountain",
    "subcategory": "Mountain",
    "featured": false,
    "priority": 50
  },
  {
    "geonameId": 3370609,
    "name": "Aasvogelkop",
    "latitude": -32.93333,
    "longitude": 18.75,
    "category": "Mountain",
    "subcategory": "Mountain Pass",
    "featured": false,
    "priority": 50
  },
  {
    "geonameId": 1023852,
    "name": "Aasvogelkrans",
    "latitude": -30.95611,
    "longitude": 26.49536,
    "category": "Mountain",
    "subcategory": "Mountain",
    "featured": false,
    "priority": 50
  },
  {
    "geonameId": 3370606,
    "name": "Abbakop",
    "latitude": -28.91666,
    "longitude": 18.40777,
    "category": "Mountain",
    "subcategory": "Mountain",
    "featured": false,
    "priority": 50
  },
  {
    "geonameId": 1023818,
    "name": "Abbey",
    "latitude": -28.85,
    "longitude": 28.96667,
    "category": "Mountain",
    "subcategory": "Mountain",
    "featured": false,
    "priority": 50
  },
  {
    "geonameId": 1023812,
    "name": "Abbott’s Hill",
    "latitude": -25.80747,
    "longitude": 31.03468,
    "category": "Mountain",
    "subcategory": "Mountain",
    "featured": false,
    "priority": 50
  },
  {
    "geonameId": 1023803,
    "name": "Abel Erasmuspas",
    "latitude": -24.53344,
    "longitude": 30.6399,
    "category": "Mountain",
    "subcategory": "Mountain Pass",
    "featured": false,
    "priority": 50
  },
  {
    "geonameId": 1023799,
    "name": "Abelskop",
    "latitude": -30.65243,
    "longitude": 21.80152,
    "category": "Mountain",
    "subcategory": "Mountain",
    "featured": false,
    "priority": 50
  },
  {
    "geonameId": 1023790,
    "name": "Aberdeen",
    "latitude": -32.47588,
    "longitude": 24.06525,
    "category": "City",
    "subcategory": "City",
    "featured": false,
    "priority": 50
  },
  {
    "geonameId": 1023713,
    "name": "Acornhoek",
    "latitude": -24.5878,
    "longitude": 31.09467,
    "category": "City",
    "subcategory": "City",
    "featured": false,
    "priority": 50
  },
  {
    "geonameId": 3370572,
    "name": "Adamsfontein",
    "latitude": -31.13333,
    "longitude": 19.55,
    "category": "Mountain",
    "subcategory": "Mountain",
    "featured": false,
    "priority": 50
  },
  {
    "geonameId": 1023694,
    "name": "Adamshurst",
    "latitude": -29.56667,
    "longitude": 30.15,
    "category": "Mountain",
    "subcategory": "Mountain",
    "featured": false,
    "priority": 50
  },
  {
    "geonameId": 1023672,
    "name": "Addo",
    "latitude": -33.54833,
    "longitude": 25.6899,
    "category": "City",
    "subcategory": "City",
    "featured": false,
    "priority": 50
  },
  {
    "geonameId": 1023670,
    "name": "Addo Elephant National Park",
    "latitude": -33.48301,
    "longitude": 25.75479,
    "category": "Park",
    "subcategory": "Park",
    "featured": false,
    "priority": 50
  },
  {
    "geonameId": 1023656,
    "name": "Adelaide",
    "latitude": -32.70747,
    "longitude": 26.29564,
    "category": "City",
    "subcategory": "District Seat",
    "featured": false,
    "priority": 50
  },
  {
    "geonameId": 1023647,
    "name": "Adendorf",
    "latitude": -28.01667,
    "longitude": 29.75,
    "category": "Mountain",
    "subcategory": "Mountain",
    "featured": false,
    "priority": 50
  },
  {
    "geonameId": 3370569,
    "name": "Adolfskop",
    "latitude": -33.89574,
    "longitude": 19.19746,
    "category": "Mountain",
    "subcategory": "Mountain",
    "featured": false,
    "priority": 50
  },
  {
    "geonameId": 1023622,
    "name": "Adolphus Poort",
    "latitude": -33.51194,
    "longitude": 25.07094,
    "category": "Mountain",
    "subcategory": "Mountain Pass",
    "featured": false,
    "priority": 50
  },
  {
    "geonameId": 1023607,
    "name": "Adriaanskop",
    "latitude": -24.48731,
    "longitude": 29.56722,
    "category": "Mountain",
    "subcategory": "Mountain",
    "featured": false,
    "priority": 50
  },
  {
    "geonameId": 1023581,
    "name": "Afrikasberg",
    "latitude": -31.23449,
    "longitude": 24.90916,
    "category": "Mountain",
    "subcategory": "Mountain",
    "featured": false,
    "priority": 50
  },
  {
    "geonameId": 3370562,
    "name": "Afrikaskop",
    "latitude": -33.92601,
    "longitude": 19.02687,
    "category": "Mountain",
    "subcategory": "Peak",
    "featured": false,
    "priority": 50
  },
  {
    "geonameId": 1023572,
    "name": "Afsaalnek",
    "latitude": -25.52064,
    "longitude": 29.23125,
    "category": "Mountain",
    "subcategory": "Mountain Pass",
    "featured": false,
    "priority": 50
  },
  {
    "geonameId": 3370561,
    "name": "Agenys II",
    "latitude": -29.18333,
    "longitude": 18.81667,
    "category": "Mountain",
    "subcategory": "Mountain",
    "featured": false,
    "priority": 50
  },
  {
    "geonameId": 1023545,
    "name": "Agterberg",
    "latitude": -33.75741,
    "longitude": 24.42295,
    "category": "Mountain",
    "subcategory": "Mountain",
    "featured": false,
    "priority": 50
  },
  {
    "geonameId": 3370545,
    "name": "Agteroorberg",
    "latitude": -30.68112,
    "longitude": 18.16638,
    "category": "Mountain",
    "subcategory": "Mountain",
    "featured": false,
    "priority": 50
  },
  {
    "geonameId": 1023528,
    "name": "Agterste-eiland",
    "latitude": -28.66125,
    "longitude": 21.06195,
    "category": "Island",
    "subcategory": "Island",
    "featured": false,
    "priority": 50
  },
  {
    "geonameId": 9199769,
    "name": "Agulhas National Park",
    "latitude": -34.74089,
    "longitude": 19.86641,
    "category": "Park",
    "subcategory": "Park",
    "featured": false,
    "priority": 50
  },
  {
    "geonameId": 3370532,
    "name": "Aguurkop",
    "latitude": -32.78663,
    "longitude": 19.14619,
    "category": "Mountain",
    "subcategory": "Mountain",
    "featured": false,
    "priority": 50
  },
  {
    "geonameId": 3370531,
    "name": "Aiams",
    "latitude": -29.36667,
    "longitude": 17.6,
    "category": "Mountain",
    "subcategory": "Mountain",
    "featured": false,
    "priority": 50
  },
  {
    "geonameId": 3370528,
    "name": "Akkedisberg",
    "latitude": -34.41662,
    "longitude": 19.6679,
    "category": "Mountain",
    "subcategory": "Mountain",
    "featured": false,
    "priority": 50
  },
  {
    "geonameId": 3370527,
    "name": "Akkedisbergpas",
    "latitude": -34.40931,
    "longitude": 19.59586,
    "category": "Mountain",
    "subcategory": "Mountain Pass",
    "featured": false,
    "priority": 50
  },
  {
    "geonameId": 1023483,
    "name": "Alartsfontein",
    "latitude": -30.56667,
    "longitude": 28.95,
    "category": "Mountain",
    "subcategory": "Mountain",
    "featured": false,
    "priority": 50
  },
  {
    "geonameId": 1023471,
    "name": "Albasinidam",
    "latitude": -23.10636,
    "longitude": 30.11055,
    "category": "Lake",
    "subcategory": "Reservoir",
    "featured": false,
    "priority": 50
  },
  {
    "geonameId": 1023454,
    "name": "Albert Falls",
    "latitude": -29.44039,
    "longitude": 30.43344,
    "category": "City",
    "subcategory": "City",
    "featured": false,
    "priority": 50
  },
  {
    "geonameId": 1023452,
    "name": "Albert Falls Dam",
    "latitude": -29.44037,
    "longitude": 30.41196,
    "category": "Lake",
    "subcategory": "Reservoir",
    "featured": false,
    "priority": 50
  },
  {
    "geonameId": 1023451,
    "name": "Albert Falls Nature Reserve",
    "latitude": -29.44013,
    "longitude": 30.40187,
    "category": "Park",
    "subcategory": "Nature Reserve",
    "featured": false,
    "priority": 50
  },
  {
    "geonameId": 1023445,
    "name": "Albertina",
    "latitude": -34.20544,
    "longitude": 21.58001,
    "category": "City",
    "subcategory": "City",
    "featured": false,
    "priority": 50
  },
  {
    "geonameId": 1023441,
    "name": "Alberton",
    "latitude": -26.26786,
    "longitude": 28.12225,
    "category": "City",
    "subcategory": "City",
    "featured": false,
    "priority": 50
  },
  {
    "geonameId": 3370505,
    "name": "Alexandra Reservoir",
    "latitude": -33.98743,
    "longitude": 18.41016,
    "category": "Lake",
    "subcategory": "Reservoir",
    "featured": false,
    "priority": 50
  },
  {
    "geonameId": 1023365,
    "name": "Alexandria",
    "latitude": -33.65346,
    "longitude": 26.41268,
    "category": "City",
    "subcategory": "City",
    "featured": false,
    "priority": 50
  },
  {
    "geonameId": 1023332,
    "name": "Alice",
    "latitude": -32.78749,
    "longitude": 26.8344,
    "category": "City",
    "subcategory": "City",
    "featured": false,
    "priority": 50
  },
  {
    "geonameId": 1023309,
    "name": "Aliwal North",
    "latitude": -30.69366,
    "longitude": 26.71141,
    "category": "City",
    "subcategory": "District Seat",
    "featured": false,
    "priority": 50
  },
  {
    "geonameId": 1023287,
    "name": "Allanridge",
    "latitude": -27.75431,
    "longitude": 26.64382,
    "category": "City",
    "subcategory": "City",
    "featured": false,
    "priority": 50
  },
  {
    "geonameId": 1023223,
    "name": "Allemans Spruit",
    "latitude": -28.06667,
    "longitude": 28.78333,
    "category": "Mountain",
    "subcategory": "Mountain",
    "featured": false,
    "priority": 50
  },
  {
    "geonameId": 1023253,
    "name": "Allemansberg",
    "latitude": -30.96115,
    "longitude": 25.17295,
    "category": "Mountain",
    "subcategory": "Mountain",
    "featured": false,
    "priority": 50
  },
  {
    "geonameId": 1105730,
    "name": "Allemansdrif",
    "latitude": -25.11399,
    "longitude": 28.90949,
    "category": "City",
    "subcategory": "City",
    "featured": false,
    "priority": 50
  },
  {
    "geonameId": 1023229,
    "name": "Allemanskraaldam",
    "latitude": -28.29428,
    "longitude": 27.20648,
    "category": "Lake",
    "subcategory": "Reservoir",
    "featured": false,
    "priority": 50
  },
  {
    "geonameId": 1023227,
    "name": "Allemansnek",
    "latitude": -27.91354,
    "longitude": 27.81944,
    "category": "Mountain",
    "subcategory": "Mountain Pass",
    "featured": false,
    "priority": 50
  },
  {
    "geonameId": 1023111,
    "name": "Alpha",
    "latitude": -28.36667,
    "longitude": 28.51667,
    "category": "Mountain",
    "subcategory": "Mountain",
    "featured": false,
    "priority": 50
  },
  {
    "geonameId": 9180892,
    "name": "Alpha Kop",
    "latitude": -46.91141,
    "longitude": 37.78645,
    "category": "Mountain",
    "subcategory": "Mountain",
    "featured": false,
    "priority": 50
  },
  {
    "geonameId": 1023073,
    "name": "Altenzur Dam",
    "latitude": -23.67658,
    "longitude": 30.02031,
    "category": "Lake",
    "subcategory": "Reservoir",
    "featured": false,
    "priority": 50
  },
  {
    "geonameId": 3370492,
    "name": "Alwynsberg",
    "latitude": -31.4,
    "longitude": 19.73333,
    "category": "Mountain",
    "subcategory": "Mountain",
    "featured": false,
    "priority": 50
  },
  {
    "geonameId": 1023010,
    "name": "aMahwaqa",
    "latitude": -28.96755,
    "longitude": 30.0514,
    "category": "Mountain",
    "subcategory": "Mountain",
    "featured": false,
    "priority": 50
  },
  {
    "geonameId": 1023003,
    "name": "Amalia",
    "latitude": -27.24836,
    "longitude": 25.04581,
    "category": "City",
    "subcategory": "City",
    "featured": false,
    "priority": 50
  },
  {
    "geonameId": 3370486,
    "name": "Amampoort",
    "latitude": -29.30496,
    "longitude": 18.07528,
    "category": "Mountain",
    "subcategory": "Mountain Pass",
    "featured": false,
    "priority": 50
  },
  {
    "geonameId": 1022991,
    "name": "Amandeihoogte",
    "latitude": -31.6928,
    "longitude": 21.86521,
    "category": "Mountain",
    "subcategory": "Mountain Pass",
    "featured": false,
    "priority": 50
  },
  {
    "geonameId": 1022984,
    "name": "Amandelbosberg",
    "latitude": -34.03333,
    "longitude": 21.06667,
    "category": "Mountain",
    "subcategory": "Mountain",
    "featured": false,
    "priority": 50
  },
  {
    "geonameId": 1022982,
    "name": "Amandelbult",
    "latitude": -24.81811,
    "longitude": 27.29659,
    "category": "City",
    "subcategory": "City",
    "featured": false,
    "priority": 50
  },
  {
    "geonameId": 1022975,
    "name": "Amandelnek",
    "latitude": -32.64082,
    "longitude": 20.30526,
    "category": "Mountain",
    "subcategory": "Mountain Pass",
    "featured": false,
    "priority": 50
  },
  {
    "geonameId": 1022969,
    "name": "aMankonka",
    "latitude": -28.86081,
    "longitude": 30.16407,
    "category": "Mountain",
    "subcategory": "Mountain",
    "featured": false,
    "priority": 50
  },
  {
    "geonameId": 1022965,
    "name": "aManzamnyama",
    "latitude": -27.02899,
    "longitude": 32.82381,
    "category": "Lake",
    "subcategory": "Lake",
    "featured": false,
    "priority": 50
  },
  {
    "geonameId": 1022950,
    "name": "aMatata",
    "latitude": -28.94484,
    "longitude": 30.31855,
    "category": "Mountain",
    "subcategory": "Mountain",
    "featured": false,
    "priority": 50
  },
  {
    "geonameId": 1022926,
    "name": "Amcor Dam",
    "latitude": -27.73885,
    "longitude": 29.98399,
    "category": "Lake",
    "subcategory": "Reservoir",
    "featured": false,
    "priority": 50
  },
  {
    "geonameId": 1022912,
    "name": "Amersfoort",
    "latitude": -27.00941,
    "longitude": 29.86643,
    "category": "City",
    "subcategory": "City",
    "featured": false,
    "priority": 50
  },
  {
    "geonameId": 1022880,
    "name": "Amphlett",
    "latitude": -29.05704,
    "longitude": 29.35523,
    "category": "Mountain",
    "subcategory": "Mountain",
    "featured": false,
    "priority": 50
  },
  {
    "geonameId": 1022828,
    "name": "Andrew F.C. Turpin Dam",
    "latitude": -32.6518,
    "longitude": 26.07265,
    "category": "Lake",
    "subcategory": "Reservoir",
    "featured": false,
    "priority": 50
  },
  {
    "geonameId": 1022822,
    "name": "Andriesberg",
    "latitude": -33.4188,
    "longitude": 22.02666,
    "category": "Mountain",
    "subcategory": "Mountain",
    "featured": false,
    "priority": 50
  },
  {
    "geonameId": 3370473,
    "name": "Anegas",
    "latitude": -30.1,
    "longitude": 18.03333,
    "category": "Mountain",
    "subcategory": "Mountain",
    "featured": false,
    "priority": 50
  },
  {
    "geonameId": 3370470,
    "name": "Anenousberg",
    "latitude": -29.28834,
    "longitude": 17.60012,
    "category": "Mountain",
    "subcategory": "Mountain",
    "featured": false,
    "priority": 50
  },
  {
    "geonameId": 3370466,
    "name": "Aninauspas",
    "latitude": -29.227,
    "longitude": 17.60774,
    "category": "Mountain",
    "subcategory": "Mountain Pass",
    "featured": false,
    "priority": 50
  },
  {
    "geonameId": 3370426,
    "name": "Anniskop",
    "latitude": -28.38747,
    "longitude": 16.87592,
    "category": "Mountain",
    "subcategory": "Mountain",
    "featured": false,
    "priority": 50
  },
  {
    "geonameId": 1022551,
    "name": "Antji se Kop",
    "latitude": -25.66804,
    "longitude": 26.01085,
    "category": "Mountain",
    "subcategory": "Mountain",
    "featured": false,
    "priority": 50
  },
  {
    "geonameId": 1022547,
    "name": "Antoniesberg",
    "latitude": -33.44806,
    "longitude": 23.46705,
    "category": "Mountain",
    "subcategory": "Mountain",
    "featured": false,
    "priority": 50
  },
  {
    "geonameId": 1022543,
    "name": "Antonieskop",
    "latitude": -32.66954,
    "longitude": 25.47204,
    "category": "Mountain",
    "subcategory": "Mountain",
    "featured": false,
    "priority": 50
  },
  {
    "geonameId": 3370419,
    "name": "Anysberg",
    "latitude": -32.00357,
    "longitude": 19.24636,
    "category": "Mountain",
    "subcategory": "Mountain",
    "featured": false,
    "priority": 50
  },
  {
    "geonameId": 1022510,
    "name": "Ape",
    "latitude": -29.13836,
    "longitude": 29.35921,
    "category": "Mountain",
    "subcategory": "Mountain",
    "featured": false,
    "priority": 50
  },
  {
    "geonameId": 1022508,
    "name": "Apel",
    "latitude": -24.41445,
    "longitude": 29.74991,
    "category": "City",
    "subcategory": "District Seat",
    "featured": false,
    "priority": 50
  },
  {
    "geonameId": 3370410,
    "name": "Apex Peak",
    "latitude": -32.57811,
    "longitude": 19.20319,
    "category": "Mountain",
    "subcategory": "Mountain",
    "featured": false,
    "priority": 50
  },
  {
    "geonameId": 1022492,
    "name": "Apoliskop",
    "latitude": -33.54135,
    "longitude": 20.21449,
    "category": "Mountain",
    "subcategory": "Mountain",
    "featured": false,
    "priority": 50
  },
  {
    "geonameId": 3370407,
    "name": "Appaskop",
    "latitude": -33.41801,
    "longitude": 19.73733,
    "category": "Mountain",
    "subcategory": "Peak",
    "featured": false,
    "priority": 50
  },
  {
    "geonameId": 1022464,
    "name": "Appelkooskop",
    "latitude": -28.74235,
    "longitude": 27.90218,
    "category": "Mountain",
    "subcategory": "Mountain",
    "featured": false,
    "priority": 50
  },
  {
    "geonameId": 3370402,
    "name": "Appollo Peak",
    "latitude": -32.5447,
    "longitude": 19.20397,
    "category": "Mountain",
    "subcategory": "Mountain",
    "featured": false,
    "priority": 50
  },
  {
    "geonameId": 1022447,
    "name": "Aprilserand",
    "latitude": -31.55,
    "longitude": 21.46667,
    "category": "Mountain",
    "subcategory": "Mountain",
    "featured": false,
    "priority": 50
  },
  {
    "geonameId": 3370400,
    "name": "Aprilskop",
    "latitude": -32.67196,
    "longitude": 19.32624,
    "category": "Mountain",
    "subcategory": "Mountain",
    "featured": false,
    "priority": 50
  },
  {
    "geonameId": 1022420,
    "name": "Araratsberg",
    "latitude": -33.97645,
    "longitude": 24.61971,
    "category": "Mountain",
    "subcategory": "Mountain",
    "featured": false,
    "priority": 50
  },
  {
    "geonameId": 3370394,
    "name": "Areb se Berg",
    "latitude": -29.49965,
    "longitude": 18.17315,
    "category": "Mountain",
    "subcategory": "Mountain",
    "featured": false,
    "priority": 50
  },
  {
    "geonameId": 3370389,
    "name": "Aribesberge",
    "latitude": -29.14566,
    "longitude": 17.75597,
    "category": "Mountain",
    "subcategory": "Mountain",
    "featured": false,
    "priority": 50
  },
  {
    "geonameId": 1022297,
    "name": "Ariesberg",
    "latitude": -32.94401,
    "longitude": 25.89954,
    "category": "Mountain",
    "subcategory": "Mountain",
    "featured": false,
    "priority": 50
  },
  {
    "geonameId": 1022252,
    "name": "Armstrong Hill",
    "latitude": -29.66739,
    "longitude": 30.92045,
    "category": "Mountain",
    "subcategory": "Mountain",
    "featured": false,
    "priority": 50
  },
  {
    "geonameId": 1022211,
    "name": "Arthurs Seat",
    "latitude": -28.9014,
    "longitude": 29.43822,
    "category": "Mountain",
    "subcategory": "Mountain",
    "featured": false,
    "priority": 50
  },
  {
    "geonameId": 1022192,
    "name": "Asbesberg",
    "latitude": -24.14835,
    "longitude": 29.82746,
    "category": "Mountain",
    "subcategory": "Mountain",
    "featured": false,
    "priority": 50
  },
  {
    "geonameId": 1022155,
    "name": "Ashmole Dales",
    "latitude": -24.13333,
    "longitude": 29.96667,
    "category": "Mountain",
    "subcategory": "Mountain",
    "featured": false,
    "priority": 50
  },
  {
    "geonameId": 1022145,
    "name": "Ashton",
    "latitude": -33.83136,
    "longitude": 20.05595,
    "category": "City",
    "subcategory": "District Seat",
    "featured": false,
    "priority": 50
  },
  {
    "geonameId": 1022134,
    "name": "Aspelingdam",
    "latitude": -31.44269,
    "longitude": 22.77268,
    "category": "Lake",
    "subcategory": "Reservoir",
    "featured": false,
    "priority": 50
  },
  {
    "geonameId": 1022128,
    "name": "Assegaaibosberg",
    "latitude": -33.83571,
    "longitude": 23.16542,
    "category": "Mountain",
    "subcategory": "Mountain",
    "featured": false,
    "priority": 50
  },
  {
    "geonameId": 3370358,
    "name": "Assegaaibosdam",
    "latitude": -33.96667,
    "longitude": 19.08333,
    "category": "Lake",
    "subcategory": "Reservoir",
    "featured": false,
    "priority": 50
  },
  {
    "geonameId": 1022110,
    "name": "Astola",
    "latitude": -30.98333,
    "longitude": 27.66667,
    "category": "Mountain",
    "subcategory": "Mountain",
    "featured": false,
    "priority": 50
  },
  {
    "geonameId": 1022077,
    "name": "Athlone Dam",
    "latitude": -25.79801,
    "longitude": 29.44778,
    "category": "Lake",
    "subcategory": "Reservoir",
    "featured": false,
    "priority": 50
  },
  {
    "geonameId": 3370352,
    "name": "Atlantis",
    "latitude": -33.56668,
    "longitude": 18.48335,
    "category": "City",
    "subcategory": "City",
    "featured": false,
    "priority": 50
  },
  {
    "geonameId": 3370347,
    "name": "Audenberg",
    "latitude": -33.5539,
    "longitude": 19.46101,
    "category": "Mountain",
    "subcategory": "Peak",
    "featured": false,
    "priority": 50
  },
  {
    "geonameId": 1022035,
    "name": "Augrabies Falls",
    "latitude": -28.59142,
    "longitude": 20.34042,
    "category": "Waterfall",
    "subcategory": "Waterfall",
    "featured": false,
    "priority": 50
  },
  {
    "geonameId": 1022036,
    "name": "Augrabies Falls National Park",
    "latitude": -28.58473,
    "longitude": 20.34516,
    "category": "Park",
    "subcategory": "Park",
    "featured": false,
    "priority": 50
  },
  {
    "geonameId": 3370341,
    "name": "Augrabies I",
    "latitude": -29.23333,
    "longitude": 17.1,
    "category": "Mountain",
    "subcategory": "Mountain",
    "featured": false,
    "priority": 50
  },
  {
    "geonameId": 3370340,
    "name": "Augrabies II",
    "latitude": -29.23333,
    "longitude": 17.1,
    "category": "Mountain",
    "subcategory": "Mountain",
    "featured": false,
    "priority": 50
  },
  {
    "geonameId": 1022032,
    "name": "Auguskop",
    "latitude": -31.7033,
    "longitude": 23.62844,
    "category": "Mountain",
    "subcategory": "Mountain",
    "featured": false,
    "priority": 50
  },
  {
    "geonameId": 1022005,
    "name": "Austin Roberts Privaatnatuurreserwe",
    "latitude": -24.33333,
    "longitude": 27.58333,
    "category": "Park",
    "subcategory": "Nature Reserve",
    "featured": false,
    "priority": 50
  },
  {
    "geonameId": 1021956,
    "name": "Avoca Peak",
    "latitude": -30.71106,
    "longitude": 27.54873,
    "category": "Mountain",
    "subcategory": "Mountain",
    "featured": false,
    "priority": 50
  },
  {
    "geonameId": 3370325,
    "name": "Avonegaskop",
    "latitude": -30.75,
    "longitude": 18.25,
    "category": "Mountain",
    "subcategory": "Mountain",
    "featured": false,
    "priority": 50
  },
  {
    "geonameId": 1021864,
    "name": "Azeronskop",
    "latitude": -32.68539,
    "longitude": 25.75172,
    "category": "Mountain",
    "subcategory": "Mountain",
    "featured": false,
    "priority": 50
  },
  {
    "geonameId": 9180821,
    "name": "Azorellakop",
    "latitude": -46.86635,
    "longitude": 37.66528,
    "category": "Mountain",
    "subcategory": "Mountain",
    "featured": false,
    "priority": 50
  },
  {
    "geonameId": 1021861,
    "name": "Baadjiesbult",
    "latitude": -26.13333,
    "longitude": 30.21667,
    "category": "Mountain",
    "subcategory": "Mountain",
    "featured": false,
    "priority": 50
  },
  {
    "geonameId": 1021845,
    "name": "Babanango",
    "latitude": -28.39146,
    "longitude": 30.99336,
    "category": "Mountain",
    "subcategory": "Mountain",
    "featured": false,
    "priority": 50
  },
  {
    "geonameId": 1021843,
    "name": "Babangibone",
    "latitude": -28.57426,
    "longitude": 28.97509,
    "category": "Mountain",
    "subcategory": "Mountain",
    "featured": false,
    "priority": 50
  },
  {
    "geonameId": 1021833,
    "name": "Babilon Toring",
    "latitude": -32.25,
    "longitude": 25.53333,
    "category": "Mountain",
    "subcategory": "Mountain",
    "featured": false,
    "priority": 50
  },
  {
    "geonameId": 3370308,
    "name": "Babilonstoring",
    "latitude": -34.3254,
    "longitude": 19.29073,
    "category": "Mountain",
    "subcategory": "Peak",
    "featured": false,
    "priority": 50
  },
  {
    "geonameId": 12718806,
    "name": "Babirwa",
    "latitude": -23.42968,
    "longitude": 28.60902,
    "category": "City",
    "subcategory": "City",
    "featured": false,
    "priority": 50
  },
  {
    "geonameId": 3370305,
    "name": "Baboon Peak",
    "latitude": -33.49251,
    "longitude": 19.42297,
    "category": "Mountain",
    "subcategory": "Peak",
    "featured": false,
    "priority": 50
  },
  {
    "geonameId": 1021830,
    "name": "Baboons Castle",
    "latitude": -30.66667,
    "longitude": 30.33333,
    "category": "Mountain",
    "subcategory": "Mountain",
    "featured": false,
    "priority": 50
  },
  {
    "geonameId": 1021819,
    "name": "Bachelor’s Hill",
    "latitude": -30.97421,
    "longitude": 28.24002,
    "category": "Mountain",
    "subcategory": "Mountain",
    "featured": false,
    "priority": 50
  },
  {
    "geonameId": 1021813,
    "name": "Badberg",
    "latitude": -32.05509,
    "longitude": 22.86268,
    "category": "Mountain",
    "subcategory": "Mountain",
    "featured": false,
    "priority": 50
  },
  {
    "geonameId": 1021802,
    "name": "Baden",
    "latitude": -33.71667,
    "longitude": 20.1,
    "category": "Mountain",
    "subcategory": "Mountain",
    "featured": false,
    "priority": 50
  },
  {
    "geonameId": 1021773,
    "name": "Badimong",
    "latitude": -24.70366,
    "longitude": 30.1333,
    "category": "Mountain",
    "subcategory": "Mountain",
    "featured": false,
    "priority": 50
  },
  {
    "geonameId": 3370298,
    "name": "Badsberg",
    "latitude": -33.65521,
    "longitude": 19.25724,
    "category": "Mountain",
    "subcategory": "Mountain",
    "featured": false,
    "priority": 50
  },
  {
    "geonameId": 12718768,
    "name": "Bagale",
    "latitude": -26.06566,
    "longitude": 27.64765,
    "category": "City",
    "subcategory": "City",
    "featured": false,
    "priority": 50
  },
  {
    "geonameId": 3370294,
    "name": "Baiefontein se Berg",
    "latitude": -31.73333,
    "longitude": 18.93333,
    "category": "Mountain",
    "subcategory": "Mountain",
    "featured": false,
    "priority": 50
  },
  {
    "geonameId": 1021730,
    "name": "Bailey Peak",
    "latitude": -33.63201,
    "longitude": 21.42148,
    "category": "Mountain",
    "subcategory": "Peak",
    "featured": false,
    "priority": 50
  },
  {
    "geonameId": 1021728,
    "name": "Bailey’s Kop",
    "latitude": -33.7,
    "longitude": 26.35,
    "category": "Mountain",
    "subcategory": "Mountain",
    "featured": false,
    "priority": 50
  },
  {
    "geonameId": 3370287,
    "name": "Bailey’s Pass",
    "latitude": -30.16391,
    "longitude": 18.19718,
    "category": "Mountain",
    "subcategory": "Mountain Pass",
    "featured": false,
    "priority": 50
  },
  {
    "geonameId": 3370286,
    "name": "Bailey’s Peak",
    "latitude": -33.50822,
    "longitude": 19.11205,
    "category": "Mountain",
    "subcategory": "Peak",
    "featured": false,
    "priority": 50
  },
  {
    "geonameId": 3370284,
    "name": "Bain’s Kloof Pass",
    "latitude": -33.5798,
    "longitude": 19.13508,
    "category": "Mountain",
    "subcategory": "Mountain Pass",
    "featured": false,
    "priority": 50
  },
  {
    "geonameId": 1021719,
    "name": "Bakabaka Pan",
    "latitude": -26.88333,
    "longitude": 32.36667,
    "category": "Lake",
    "subcategory": "Lake",
    "featured": false,
    "priority": 50
  },
  {
    "geonameId": 1021644,
    "name": "Baken Kop",
    "latitude": -31.15,
    "longitude": 27,
    "category": "Mountain",
    "subcategory": "Mountain",
    "featured": false,
    "priority": 50
  },
  {
    "geonameId": 1021615,
    "name": "Baken se Berg",
    "latitude": -33.81312,
    "longitude": 23.13941,
    "category": "Mountain",
    "subcategory": "Mountain",
    "featured": false,
    "priority": 50
  },
  {
    "geonameId": 1021713,
    "name": "Bakenberg",
    "latitude": -33.94991,
    "longitude": 24.6922,
    "category": "Mountain",
    "subcategory": "Mountain",
    "featured": false,
    "priority": 50
  },
  {
    "geonameId": 1021632,
    "name": "Bakenkop",
    "latitude": -33.92256,
    "longitude": 23.66527,
    "category": "Mountain",
    "subcategory": "Mountain",
    "featured": false,
    "priority": 50
  },
  {
    "geonameId": 1021618,
    "name": "Bakenrant",
    "latitude": -29.55558,
    "longitude": 25.30629,
    "category": "Mountain",
    "subcategory": "Mountain",
    "featured": false,
    "priority": 50
  },
  {
    "geonameId": 1021616,
    "name": "Bakensberg",
    "latitude": -29.0593,
    "longitude": 21.89366,
    "category": "Mountain",
    "subcategory": "Mountain",
    "featured": false,
    "priority": 50
  },
  {
    "geonameId": 1021491,
    "name": "Bakenskop",
    "latitude": -34.28923,
    "longitude": 21.3358,
    "category": "Mountain",
    "subcategory": "Mountain",
    "featured": false,
    "priority": 50
  },
  {
    "geonameId": 1021478,
    "name": "Baker’s Kop",
    "latitude": -28.3303,
    "longitude": 29.06665,
    "category": "Mountain",
    "subcategory": "Mountain",
    "featured": false,
    "priority": 50
  },
  {
    "geonameId": 1021472,
    "name": "Bakkeneeskop",
    "latitude": -31.31005,
    "longitude": 25.03782,
    "category": "Mountain",
    "subcategory": "Mountain",
    "featured": false,
    "priority": 50
  },
  {
    "geonameId": 1021471,
    "name": "Bakkerspas",
    "latitude": -24.49989,
    "longitude": 27.55835,
    "category": "Mountain",
    "subcategory": "Mountain Pass",
    "featured": false,
    "priority": 50
  },
  {
    "geonameId": 1021450,
    "name": "Bakoondkop",
    "latitude": -31.82472,
    "longitude": 21.87062,
    "category": "Mountain",
    "subcategory": "Mountain",
    "featured": false,
    "priority": 50
  },
  {
    "geonameId": 1021448,
    "name": "Bakoondpan",
    "latitude": -29.8039,
    "longitude": 24.31071,
    "category": "Lake",
    "subcategory": "Lake",
    "featured": false,
    "priority": 50
  },
  {
    "geonameId": 1021446,
    "name": "Bakoondshoogte",
    "latitude": -33.98856,
    "longitude": 20.31269,
    "category": "Mountain",
    "subcategory": "Mountain Pass",
    "featured": false,
    "priority": 50
  },
  {
    "geonameId": 1021444,
    "name": "Bakoondskraal se Berg",
    "latitude": -32.26179,
    "longitude": 21.1801,
    "category": "Mountain",
    "subcategory": "Mountain",
    "featured": false,
    "priority": 50
  },
  {
    "geonameId": 1021425,
    "name": "Bakubaku",
    "latitude": -25.82685,
    "longitude": 30.91693,
    "category": "Mountain",
    "subcategory": "Mountain",
    "featured": false,
    "priority": 50
  },
  {
    "geonameId": 1021416,
    "name": "Balalia",
    "latitude": -22.94336,
    "longitude": 30.02888,
    "category": "Mountain",
    "subcategory": "Mountain",
    "featured": false,
    "priority": 50
  },
  {
    "geonameId": 1021404,
    "name": "Bald Hill",
    "latitude": -25.62083,
    "longitude": 30.23692,
    "category": "Mountain",
    "subcategory": "Mountain",
    "featured": false,
    "priority": 50
  },
  {
    "geonameId": 9180859,
    "name": "Bald Peak",
    "latitude": -46.8984,
    "longitude": 37.72916,
    "category": "Mountain",
    "subcategory": "Mountain",
    "featured": false,
    "priority": 50
  },
  {
    "geonameId": 1021402,
    "name": "Balelesberg",
    "latitude": -27.57884,
    "longitude": 30.25593,
    "category": "Mountain",
    "subcategory": "Mountain",
    "featured": false,
    "priority": 50
  },
  {
    "geonameId": 1021396,
    "name": "Balfour",
    "latitude": -26.66331,
    "longitude": 28.59016,
    "category": "City",
    "subcategory": "District Seat",
    "featured": false,
    "priority": 50
  },
  {
    "geonameId": 3370228,
    "name": "Baliesgatberg",
    "latitude": -32.71742,
    "longitude": 19.28245,
    "category": "Mountain",
    "subcategory": "Mountain",
    "featured": false,
    "priority": 50
  },
  {
    "geonameId": 1021360,
    "name": "Ballitoville",
    "latitude": -29.53897,
    "longitude": 31.21439,
    "category": "City",
    "subcategory": "City",
    "featured": false,
    "priority": 50
  },
  {
    "geonameId": 1021356,
    "name": "Balloch Mountain",
    "latitude": -30.71938,
    "longitude": 27.71909,
    "category": "Mountain",
    "subcategory": "Mountain",
    "featured": false,
    "priority": 50
  },
  {
    "geonameId": 1021355,
    "name": "Balloch Peak",
    "latitude": -30.6716,
    "longitude": 27.70464,
    "category": "Mountain",
    "subcategory": "Mountain",
    "featured": false,
    "priority": 50
  },
  {
    "geonameId": 1021307,
    "name": "Bamboesberge",
    "latitude": -31.66001,
    "longitude": 25.98836,
    "category": "Mountain",
    "subcategory": "Mountain",
    "featured": false,
    "priority": 50
  },
  {
    "geonameId": 1021299,
    "name": "Bamboeshoek",
    "latitude": -31.05851,
    "longitude": 27.86375,
    "category": "Mountain",
    "subcategory": "Mountain",
    "featured": false,
    "priority": 50
  },
  {
    "geonameId": 1021291,
    "name": "Bamboesrand",
    "latitude": -31.63333,
    "longitude": 26.08333,
    "category": "Mountain",
    "subcategory": "Mountain",
    "featured": false,
    "priority": 50
  },
  {
    "geonameId": 1021284,
    "name": "Bamboo Mountain",
    "latitude": -29.74154,
    "longitude": 29.35333,
    "category": "Mountain",
    "subcategory": "Mountain",
    "featured": false,
    "priority": 50
  },
  {
    "geonameId": 1021250,
    "name": "Bangindlala",
    "latitude": -31.6894,
    "longitude": 27.1134,
    "category": "Mountain",
    "subcategory": "Mountain",
    "featured": false,
    "priority": 50
  },
  {
    "geonameId": 1021240,
    "name": "Bangudam",
    "latitude": -24.04023,
    "longitude": 31.8519,
    "category": "Lake",
    "subcategory": "Reservoir",
    "featured": false,
    "priority": 50
  },
  {
    "geonameId": 3370218,
    "name": "Banhoek",
    "latitude": -33.91667,
    "longitude": 18.95,
    "category": "Mountain",
    "subcategory": "Mountain",
    "featured": false,
    "priority": 50
  },
  {
    "geonameId": 1021186,
    "name": "Bankkop",
    "latitude": -26.57697,
    "longitude": 30.38033,
    "category": "Mountain",
    "subcategory": "Mountain",
    "featured": false,
    "priority": 50
  },
  {
    "geonameId": 1021138,
    "name": "Bannerman’s Pass",
    "latitude": -29.25328,
    "longitude": 29.42063,
    "category": "Mountain",
    "subcategory": "Mountain Pass",
    "featured": false,
    "priority": 50
  },
  {
    "geonameId": 1021132,
    "name": "Bansani",
    "latitude": -25.91034,
    "longitude": 30.49215,
    "category": "Mountain",
    "subcategory": "Mountain",
    "featured": false,
    "priority": 50
  },
  {
    "geonameId": 1021126,
    "name": "Bantamskop",
    "latitude": -33.27882,
    "longitude": 20.53587,
    "category": "Mountain",
    "subcategory": "Mountain",
    "featured": false,
    "priority": 50
  },
  {
    "geonameId": 1021119,
    "name": "Banzi",
    "latitude": -26.87222,
    "longitude": 32.28891,
    "category": "Lake",
    "subcategory": "Lake",
    "featured": false,
    "priority": 50
  },
  {
    "geonameId": 1021096,
    "name": "Barbersberg",
    "latitude": -32.19844,
    "longitude": 25.74582,
    "category": "Mountain",
    "subcategory": "Mountain",
    "featured": false,
    "priority": 50
  },
  {
    "geonameId": 1021091,
    "name": "Barberspan",
    "latitude": -26.58186,
    "longitude": 25.59157,
    "category": "Lake",
    "subcategory": "Lake",
    "featured": false,
    "priority": 50
  },
  {
    "geonameId": 1021086,
    "name": "Barberton",
    "latitude": -25.78842,
    "longitude": 31.05319,
    "category": "City",
    "subcategory": "District Seat",
    "featured": false,
    "priority": 50
  },
  {
    "geonameId": 1021052,
    "name": "Barkhuizenberg",
    "latitude": -33.81765,
    "longitude": 22.9094,
    "category": "Mountain",
    "subcategory": "Mountain",
    "featured": false,
    "priority": 50
  },
  {
    "geonameId": 1021046,
    "name": "Barkly East",
    "latitude": -30.9683,
    "longitude": 27.59567,
    "category": "City",
    "subcategory": "County Seat",
    "featured": false,
    "priority": 50
  },
  {
    "geonameId": 1021043,
    "name": "Barkly Pass",
    "latitude": -31.23617,
    "longitude": 27.83971,
    "category": "Mountain",
    "subcategory": "Mountain Pass",
    "featured": false,
    "priority": 50
  },
  {
    "geonameId": 1021040,
    "name": "Barkly West",
    "latitude": -28.53537,
    "longitude": 24.52151,
    "category": "City",
    "subcategory": "District Seat",
    "featured": false,
    "priority": 50
  },
  {
    "geonameId": 1021025,
    "name": "Barnardskop",
    "latitude": -27.48447,
    "longitude": 29.64032,
    "category": "Mountain",
    "subcategory": "Mountain",
    "featured": false,
    "priority": 50
  },
  {
    "geonameId": 1020952,
    "name": "Basberg",
    "latitude": -31.64935,
    "longitude": 23.68851,
    "category": "Mountain",
    "subcategory": "Mountain",
    "featured": false,
    "priority": 50
  },
  {
    "geonameId": 1020942,
    "name": "Bashee Hill",
    "latitude": -31.78333,
    "longitude": 28.38333,
    "category": "Mountain",
    "subcategory": "Mountain",
    "featured": false,
    "priority": 50
  },
  {
    "geonameId": 1020920,
    "name": "Bassonsberg",
    "latitude": -32.80482,
    "longitude": 24.43267,
    "category": "Mountain",
    "subcategory": "Mountain",
    "featured": false,
    "priority": 50
  },
  {
    "geonameId": 1020904,
    "name": "Bastardspoort",
    "latitude": -32.06343,
    "longitude": 22.36979,
    "category": "Mountain",
    "subcategory": "Mountain Pass",
    "featured": false,
    "priority": 50
  },
  {
    "geonameId": 1020900,
    "name": "Bastersberg",
    "latitude": -32.13206,
    "longitude": 20.7298,
    "category": "Mountain",
    "subcategory": "Mountain",
    "featured": false,
    "priority": 50
  },
  {
    "geonameId": 1020894,
    "name": "Bastersnek",
    "latitude": -30.63602,
    "longitude": 25.03488,
    "category": "Mountain",
    "subcategory": "Mountain Pass",
    "featured": false,
    "priority": 50
  },
  {
    "geonameId": 1020891,
    "name": "Basterspoort",
    "latitude": -31.72695,
    "longitude": 22.25796,
    "category": "Mountain",
    "subcategory": "Mountain Pass",
    "featured": false,
    "priority": 50
  },
  {
    "geonameId": 1020854,
    "name": "Bathurst",
    "latitude": -33.4998,
    "longitude": 26.8294,
    "category": "City",
    "subcategory": "City",
    "featured": false,
    "priority": 50
  },
  {
    "geonameId": 1020756,
    "name": "Baviaans Pile",
    "latitude": -33.63333,
    "longitude": 24.01667,
    "category": "Mountain",
    "subcategory": "Mountain",
    "featured": false,
    "priority": 50
  },
  {
    "geonameId": 3370182,
    "name": "Baviaansberg",
    "latitude": -33.19668,
    "longitude": 19.59373,
    "category": "Mountain",
    "subcategory": "Mountain",
    "featured": false,
    "priority": 50
  },
  {
    "geonameId": 1020782,
    "name": "Baviaanskop",
    "latitude": -32.10773,
    "longitude": 24.55883,
    "category": "Mountain",
    "subcategory": "Mountain",
    "featured": false,
    "priority": 50
  },
  {
    "geonameId": 1020765,
    "name": "Baviaanskrans",
    "latitude": -32.78333,
    "longitude": 25.91667,
    "category": "Mountain",
    "subcategory": "Mountain",
    "featured": false,
    "priority": 50
  },
  {
    "geonameId": 1020753,
    "name": "Baviaanspoort",
    "latitude": -25.69693,
    "longitude": 28.35816,
    "category": "Mountain",
    "subcategory": "Mountain Pass",
    "featured": false,
    "priority": 50
  },
  {
    "geonameId": 1020738,
    "name": "Bawa Falls",
    "latitude": -32.39315,
    "longitude": 28.12852,
    "category": "Waterfall",
    "subcategory": "Waterfall",
    "featured": false,
    "priority": 50
  },
  {
    "geonameId": 1020735,
    "name": "Bayeni",
    "latitude": -28.07634,
    "longitude": 31.3687,
    "category": "Mountain",
    "subcategory": "Mountain",
    "featured": false,
    "priority": 50
  },
  {
    "geonameId": 1020723,
    "name": "Baynes Hill",
    "latitude": -29.45,
    "longitude": 30.51667,
    "category": "Mountain",
    "subcategory": "Mountain",
    "featured": false,
    "priority": 50
  },
  {
    "geonameId": 1020702,
    "name": "Baziya",
    "latitude": -31.56062,
    "longitude": 28.39728,
    "category": "Mountain",
    "subcategory": "Mountain",
    "featured": false,
    "priority": 50
  },
  {
    "geonameId": 1020694,
    "name": "Beacon Buttress",
    "latitude": -28.74531,
    "longitude": 28.88968,
    "category": "Mountain",
    "subcategory": "Mountain",
    "featured": false,
    "priority": 50
  },
  {
    "geonameId": 1020686,
    "name": "Beacon Kop",
    "latitude": -28.98333,
    "longitude": 30.68333,
    "category": "Mountain",
    "subcategory": "Mountain",
    "featured": false,
    "priority": 50
  },
  {
    "geonameId": 1020658,
    "name": "Beauchef",
    "latitude": -28.51667,
    "longitude": 29.15,
    "category": "Mountain",
    "subcategory": "Mountain",
    "featured": false,
    "priority": 50
  },
  {
    "geonameId": 1020641,
    "name": "Beaufort West",
    "latitude": -32.35671,
    "longitude": 22.58295,
    "category": "City",
    "subcategory": "County Seat",
    "featured": false,
    "priority": 50
  },
  {
    "geonameId": 1020639,
    "name": "Beaufort West Dam",
    "latitude": -32.34311,
    "longitude": 22.58879,
    "category": "Lake",
    "subcategory": "Reservoir",
    "featured": false,
    "priority": 50
  },
  {
    "geonameId": 9612195,
    "name": "Beaverlac",
    "latitude": -32.90784,
    "longitude": 19.07089,
    "category": "Park",
    "subcategory": "Nature Reserve",
    "featured": false,
    "priority": 50
  },
  {
    "geonameId": 1020592,
    "name": "Bedford",
    "latitude": -32.67903,
    "longitude": 26.08686,
    "category": "City",
    "subcategory": "City",
    "featured": false,
    "priority": 50
  },
  {
    "geonameId": 1020573,
    "name": "Bedrogfonteinspoort",
    "latitude": -33.27703,
    "longitude": 25.28567,
    "category": "Mountain",
    "subcategory": "Mountain Pass",
    "featured": false,
    "priority": 50
  },
  {
    "geonameId": 1020555,
    "name": "Beeldhousersbank",
    "latitude": -32.3,
    "longitude": 22.51667,
    "category": "Mountain",
    "subcategory": "Mountain",
    "featured": false,
    "priority": 50
  },
  {
    "geonameId": 1020551,
    "name": "Beenbreek",
    "latitude": -33.63333,
    "longitude": 20.08333,
    "category": "Mountain",
    "subcategory": "Mountain",
    "featured": false,
    "priority": 50
  },
  {
    "geonameId": 1020529,
    "name": "Beerpoort",
    "latitude": -33.18574,
    "longitude": 24.00415,
    "category": "Mountain",
    "subcategory": "Mountain Pass",
    "featured": false,
    "priority": 50
  },
  {
    "geonameId": 1020522,
    "name": "Beervleidam",
    "latitude": -33.05362,
    "longitude": 23.46677,
    "category": "Lake",
    "subcategory": "Reservoir",
    "featured": false,
    "priority": 50
  },
  {
    "geonameId": 1020516,
    "name": "Beesberg",
    "latitude": -31.85193,
    "longitude": 24.09161,
    "category": "Mountain",
    "subcategory": "Mountain",
    "featured": false,
    "priority": 50
  },
  {
    "geonameId": 1020492,
    "name": "Beeskop",
    "latitude": -32.29314,
    "longitude": 20.82476,
    "category": "Mountain",
    "subcategory": "Mountain",
    "featured": false,
    "priority": 50
  },
  {
    "geonameId": 1020400,
    "name": "Behrshoek",
    "latitude": -30.41667,
    "longitude": 24.01667,
    "category": "Mountain",
    "subcategory": "Mountain",
    "featured": false,
    "priority": 50
  },
  {
    "geonameId": 1020396,
    "name": "Beinn Mheadhon Mountain",
    "latitude": -29.51349,
    "longitude": 30.0541,
    "category": "Mountain",
    "subcategory": "Mountain",
    "featured": false,
    "priority": 50
  },
  {
    "geonameId": 8532994,
    "name": "Bel Ombre Meadow",
    "latitude": -34.01388,
    "longitude": 18.4277,
    "category": "Park",
    "subcategory": "Park",
    "featured": false,
    "priority": 50
  },
  {
    "geonameId": 941966,
    "name": "Bela Bela",
    "latitude": -24.88333,
    "longitude": 28.28333,
    "category": "City",
    "subcategory": "City",
    "featured": false,
    "priority": 50
  },
  {
    "geonameId": 7576313,
    "name": "Bela-Bela",
    "latitude": -24.885,
    "longitude": 28.29417,
    "category": "City",
    "subcategory": "District Seat",
    "featured": false,
    "priority": 50
  },
  {
    "geonameId": 1020362,
    "name": "Bele",
    "latitude": -31.32192,
    "longitude": 28.66864,
    "category": "Mountain",
    "subcategory": "Mountain",
    "featured": false,
    "priority": 50
  },
  {
    "geonameId": 1020357,
    "name": "Belelasberg",
    "latitude": -27.46667,
    "longitude": 30.01667,
    "category": "Mountain",
    "subcategory": "Mountain",
    "featured": false,
    "priority": 50
  },
  {
    "geonameId": 1020354,
    "name": "Beletlwa",
    "latitude": -24.62006,
    "longitude": 29.9573,
    "category": "Mountain",
    "subcategory": "Mountain",
    "featured": false,
    "priority": 50
  },
  {
    "geonameId": 1020340,
    "name": "Belfast",
    "latitude": -25.68991,
    "longitude": 30.03504,
    "category": "City",
    "subcategory": "District Seat",
    "featured": false,
    "priority": 50
  },
  {
    "geonameId": 1020331,
    "name": "Belgie",
    "latitude": -24.26667,
    "longitude": 29.18333,
    "category": "Mountain",
    "subcategory": "Mountain",
    "featured": false,
    "priority": 50
  },
  {
    "geonameId": 1020317,
    "name": "Bell",
    "latitude": -28.9291,
    "longitude": 29.12661,
    "category": "Mountain",
    "subcategory": "Mountain",
    "featured": false,
    "priority": 50
  },
  {
    "geonameId": 1020234,
    "name": "Bell Kop",
    "latitude": -30.86458,
    "longitude": 27.80288,
    "category": "Mountain",
    "subcategory": "Mountain",
    "featured": false,
    "priority": 50
  },
  {
    "geonameId": 1020218,
    "name": "Bell’s Pass",
    "latitude": -28.53333,
    "longitude": 26.95,
    "category": "Mountain",
    "subcategory": "Mountain Pass",
    "featured": false,
    "priority": 50
  },
  {
    "geonameId": 1020300,
    "name": "Bella Vista Island",
    "latitude": -28.69861,
    "longitude": 21.03937,
    "category": "Island",
    "subcategory": "Island",
    "featured": false,
    "priority": 50
  },
  {
    "geonameId": 1020308,
    "name": "Bellair Dam",
    "latitude": -33.71515,
    "longitude": 20.59336,
    "category": "Lake",
    "subcategory": "Reservoir",
    "featured": false,
    "priority": 50
  },
  {
    "geonameId": 1020203,
    "name": "Belmont",
    "latitude": -32.02287,
    "longitude": 26.33647,
    "category": "Mountain",
    "subcategory": "Mountain",
    "featured": false,
    "priority": 50
  },
  {
    "geonameId": 1020192,
    "name": "Belungwana",
    "latitude": -28.47371,
    "longitude": 30.67882,
    "category": "Mountain",
    "subcategory": "Mountain",
    "featured": false,
    "priority": 50
  },
  {
    "geonameId": 1014338,
    "name": "Ben Cairnie",
    "latitude": -30.42269,
    "longitude": 29.58124,
    "category": "Mountain",
    "subcategory": "Mountain",
    "featured": false,
    "priority": 50
  },
  {
    "geonameId": 1011619,
    "name": "Ben Dearg",
    "latitude": -31.11054,
    "longitude": 27.97993,
    "category": "Mountain",
    "subcategory": "Mountain",
    "featured": false,
    "priority": 50
  },
  {
    "geonameId": 3366937,
    "name": "Ben Heatlie",
    "latitude": -33.5499,
    "longitude": 19.58973,
    "category": "Mountain",
    "subcategory": "Mountain",
    "featured": false,
    "priority": 50
  },
  {
    "geonameId": 1020119,
    "name": "Ben Hope",
    "latitude": -31.21667,
    "longitude": 27.95,
    "category": "Mountain",
    "subcategory": "Mountain",
    "featured": false,
    "priority": 50
  },
  {
    "geonameId": 980861,
    "name": "Ben Macdhui",
    "latitude": -30.6481,
    "longitude": 27.93526,
    "category": "Mountain",
    "subcategory": "Mountain",
    "featured": false,
    "priority": 50
  },
  {
    "geonameId": 971462,
    "name": "Ben Nevis",
    "latitude": -30.74727,
    "longitude": 27.48052,
    "category": "Mountain",
    "subcategory": "Mountain",
    "featured": false,
    "priority": 50
  },
  {
    "geonameId": 964064,
    "name": "Ben Pringle",
    "latitude": -32.03801,
    "longitude": 26.99616,
    "category": "Mountain",
    "subcategory": "Mountain",
    "featured": false,
    "priority": 50
  },
  {
    "geonameId": 1020133,
    "name": "Benekop",
    "latitude": -33.8921,
    "longitude": 23.70291,
    "category": "Mountain",
    "subcategory": "Mountain",
    "featured": false,
    "priority": 50
  },
  {
    "geonameId": 1020098,
    "name": "Benoni",
    "latitude": -26.18848,
    "longitude": 28.32078,
    "category": "City",
    "subcategory": "City",
    "featured": false,
    "priority": 50
  },
  {
    "geonameId": 1020066,
    "name": "Berea",
    "latitude": -29.85185,
    "longitude": 30.99337,
    "category": "City",
    "subcategory": "City",
    "featured": false,
    "priority": 50
  },
  {
    "geonameId": 9180866,
    "name": "Beret",
    "latitude": -46.93392,
    "longitude": 37.7672,
    "category": "Mountain",
    "subcategory": "Mountain",
    "featured": false,
    "priority": 50
  },
  {
    "geonameId": 939595,
    "name": "Berg van Winde",
    "latitude": -24.60834,
    "longitude": 27.46175,
    "category": "Mountain",
    "subcategory": "Mountain",
    "featured": false,
    "priority": 50
  },
  {
    "geonameId": 1020054,
    "name": "Bergenaarspadpas",
    "latitude": -28.49122,
    "longitude": 22.60156,
    "category": "Mountain",
    "subcategory": "Mountain Pass",
    "featured": false,
    "priority": 50
  },
  {
    "geonameId": 3370129,
    "name": "Bergfonteinkop",
    "latitude": -34.12088,
    "longitude": 19.36738,
    "category": "Mountain",
    "subcategory": "Mountain",
    "featured": false,
    "priority": 50
  },
  {
    "geonameId": 1020009,
    "name": "Berghoek Natuurreserwe",
    "latitude": -24.83333,
    "longitude": 30.2,
    "category": "Park",
    "subcategory": "Nature Reserve",
    "featured": false,
    "priority": 50
  },
  {
    "geonameId": 1020003,
    "name": "Bergkloof",
    "latitude": -33.91937,
    "longitude": 21.73897,
    "category": "Mountain",
    "subcategory": "Mountain Pass",
    "featured": false,
    "priority": 50
  },
  {
    "geonameId": 1019990,
    "name": "Bergplaas",
    "latitude": -31.03333,
    "longitude": 27.55,
    "category": "Mountain",
    "subcategory": "Mountain",
    "featured": false,
    "priority": 50
  },
  {
    "geonameId": 1019933,
    "name": "Bergville",
    "latitude": -28.73122,
    "longitude": 29.35187,
    "category": "City",
    "subcategory": "District Seat",
    "featured": false,
    "priority": 50
  },
  {
    "geonameId": 1019929,
    "name": "Bergvlei",
    "latitude": -23.85,
    "longitude": 29.88333,
    "category": "Mountain",
    "subcategory": "Mountain",
    "featured": false,
    "priority": 50
  },
  {
    "geonameId": 3370106,
    "name": "Bergvlei se Berg",
    "latitude": -32.48822,
    "longitude": 18.80707,
    "category": "Mountain",
    "subcategory": "Mountain",
    "featured": false,
    "priority": 50
  },
  {
    "geonameId": 3370102,
    "name": "Bertsberg",
    "latitude": -33.43816,
    "longitude": 19.36526,
    "category": "Mountain",
    "subcategory": "Mountain",
    "featured": false,
    "priority": 50
  },
  {
    "geonameId": 1019830,
    "name": "Besemgoedkop",
    "latitude": -32.29094,
    "longitude": 25.13047,
    "category": "Mountain",
    "subcategory": "Mountain",
    "featured": false,
    "priority": 50
  },
  {
    "geonameId": 1019829,
    "name": "Besemgoedrand",
    "latitude": -31.59352,
    "longitude": 26.32823,
    "category": "Mountain",
    "subcategory": "Mountain",
    "featured": false,
    "priority": 50
  },
  {
    "geonameId": 1019823,
    "name": "Besiespoort",
    "latitude": -31.93189,
    "longitude": 21.40174,
    "category": "Mountain",
    "subcategory": "Mountain Pass",
    "featured": false,
    "priority": 50
  },
  {
    "geonameId": 1019812,
    "name": "Besonderkop",
    "latitude": -31.21364,
    "longitude": 23.85278,
    "category": "Mountain",
    "subcategory": "Mountain",
    "featured": false,
    "priority": 50
  },
  {
    "geonameId": 1019760,
    "name": "Bethal",
    "latitude": -26.45794,
    "longitude": 29.46553,
    "category": "City",
    "subcategory": "City",
    "featured": false,
    "priority": 50
  },
  {
    "geonameId": 1019758,
    "name": "Bethaldam",
    "latitude": -26.45113,
    "longitude": 29.48192,
    "category": "Lake",
    "subcategory": "Reservoir",
    "featured": false,
    "priority": 50
  },
  {
    "geonameId": 3370092,
    "name": "Bethelsberg",
    "latitude": -30.38087,
    "longitude": 17.80625,
    "category": "Mountain",
    "subcategory": "Mountain",
    "featured": false,
    "priority": 50
  },
  {
    "geonameId": 1019714,
    "name": "Bethesda",
    "latitude": -30.5,
    "longitude": 28.75,
    "category": "Mountain",
    "subcategory": "Mountain",
    "featured": false,
    "priority": 50
  },
  {
    "geonameId": 1019704,
    "name": "Bethlehem",
    "latitude": -28.23078,
    "longitude": 28.30707,
    "category": "City",
    "subcategory": "District Seat",
    "featured": false,
    "priority": 50
  },
  {
    "geonameId": 1019700,
    "name": "Bethulie",
    "latitude": -30.49864,
    "longitude": 25.97458,
    "category": "City",
    "subcategory": "City",
    "featured": false,
    "priority": 50
  },
  {
    "geonameId": 1019697,
    "name": "Bethuliedam",
    "latitude": -30.47924,
    "longitude": 25.96986,
    "category": "Lake",
    "subcategory": "Reservoir",
    "featured": false,
    "priority": 50
  },
  {
    "geonameId": 1019671,
    "name": "Beverass Kloof",
    "latitude": -33.83333,
    "longitude": 22.35,
    "category": "Mountain",
    "subcategory": "Mountain Pass",
    "featured": false,
    "priority": 50
  },
  {
    "geonameId": 1019659,
    "name": "Beweraskloof",
    "latitude": -33.81283,
    "longitude": 22.27391,
    "category": "Mountain",
    "subcategory": "Mountain Pass",
    "featured": false,
    "priority": 50
  },
  {
    "geonameId": 1019649,
    "name": "Beyersberg",
    "latitude": -31.0279,
    "longitude": 22.48905,
    "category": "Mountain",
    "subcategory": "Mountain",
    "featured": false,
    "priority": 50
  },
  {
    "geonameId": 1019642,
    "name": "Beyersnek",
    "latitude": -24.1,
    "longitude": 29.75,
    "category": "Mountain",
    "subcategory": "Mountain Pass",
    "featured": false,
    "priority": 50
  },
  {
    "geonameId": 1019633,
    "name": "Bezuidenhoutsberg",
    "latitude": -33.46683,
    "longitude": 23.84003,
    "category": "Mountain",
    "subcategory": "Mountain",
    "featured": false,
    "priority": 50
  },
  {
    "geonameId": 1019622,
    "name": "Bezuidenhoutspas",
    "latitude": -28.54054,
    "longitude": 29.20896,
    "category": "Mountain",
    "subcategory": "Mountain Pass",
    "featured": false,
    "priority": 50
  },
  {
    "geonameId": 1019609,
    "name": "Bhangazi",
    "latitude": -28.11667,
    "longitude": 32.53333,
    "category": "Lake",
    "subcategory": "Lake",
    "featured": false,
    "priority": 50
  },
  {
    "geonameId": 1019330,
    "name": "Bhisho",
    "latitude": -32.84721,
    "longitude": 27.44218,
    "category": "City",
    "subcategory": "Regional Capital",
    "featured": false,
    "priority": 50
  },
  {
    "geonameId": 1019596,
    "name": "Bhobboyi",
    "latitude": -30.14151,
    "longitude": 29.68335,
    "category": "Mountain",
    "subcategory": "Mountain",
    "featured": false,
    "priority": 50
  },
  {
    "geonameId": 1019592,
    "name": "Bhokwe",
    "latitude": -27.80034,
    "longitude": 31.11797,
    "category": "Mountain",
    "subcategory": "Mountain",
    "featured": false,
    "priority": 50
  },
  {
    "geonameId": 1019586,
    "name": "Bhololokoqo",
    "latitude": -25.50356,
    "longitude": 31.59893,
    "category": "Mountain",
    "subcategory": "Mountain",
    "featured": false,
    "priority": 50
  },
  {
    "geonameId": 1019576,
    "name": "Bhosholweni",
    "latitude": -30.05196,
    "longitude": 29.56853,
    "category": "Mountain",
    "subcategory": "Mountain",
    "featured": false,
    "priority": 50
  },
  {
    "geonameId": 1019575,
    "name": "Bhoyizen",
    "latitude": -29.78333,
    "longitude": 29.96667,
    "category": "Mountain",
    "subcategory": "Mountain",
    "featured": false,
    "priority": 50
  },
  {
    "geonameId": 1019549,
    "name": "Biddulphsberg",
    "latitude": -28.27746,
    "longitude": 27.76172,
    "category": "Mountain",
    "subcategory": "Mountain",
    "featured": false,
    "priority": 50
  },
  {
    "geonameId": 1019530,
    "name": "Bierspruitdam",
    "latitude": -24.91462,
    "longitude": 27.13805,
    "category": "Lake",
    "subcategory": "Reservoir",
    "featured": false,
    "priority": 50
  },
  {
    "geonameId": 1019503,
    "name": "Biesiepoort",
    "latitude": -28.43447,
    "longitude": 20.5731,
    "category": "Mountain",
    "subcategory": "Mountain Pass",
    "featured": false,
    "priority": 50
  },
  {
    "geonameId": 3370066,
    "name": "Biesies",
    "latitude": -30.96667,
    "longitude": 17.96667,
    "category": "Mountain",
    "subcategory": "Mountain",
    "featured": false,
    "priority": 50
  },
  {
    "geonameId": 1019491,
    "name": "Biesiesdam",
    "latitude": -32.48333,
    "longitude": 23.41667,
    "category": "Lake",
    "subcategory": "Reservoir",
    "featured": false,
    "priority": 50
  },
  {
    "geonameId": 1019474,
    "name": "Biesiespoort",
    "latitude": -31.68554,
    "longitude": 22.75296,
    "category": "Mountain",
    "subcategory": "Mountain Pass",
    "featured": false,
    "priority": 50
  },
  {
    "geonameId": 1019459,
    "name": "Biesjesdal",
    "latitude": -27.4,
    "longitude": 24.5,
    "category": "Mountain",
    "subcategory": "Mountain",
    "featured": false,
    "priority": 50
  },
  {
    "geonameId": 1019415,
    "name": "Big Buffalo",
    "latitude": -25.58371,
    "longitude": 31.52766,
    "category": "Mountain",
    "subcategory": "Mountain",
    "featured": false,
    "priority": 50
  },
  {
    "geonameId": 1019411,
    "name": "Biggarsberg",
    "latitude": -28.18401,
    "longitude": 29.99015,
    "category": "Mountain",
    "subcategory": "Mountain",
    "featured": false,
    "priority": 50
  },
  {
    "geonameId": 1019396,
    "name": "Bilanjil Falls",
    "latitude": -28.75757,
    "longitude": 28.90268,
    "category": "Waterfall",
    "subcategory": "Waterfall",
    "featured": false,
    "priority": 50
  },
  {
    "geonameId": 1019381,
    "name": "Bilthouders Bank",
    "latitude": -32.26667,
    "longitude": 22.5,
    "category": "Mountain",
    "subcategory": "Mountain",
    "featured": false,
    "priority": 50
  },
  {
    "geonameId": 1019378,
    "name": "Biltongkop",
    "latitude": -26.19306,
    "longitude": 30.76737,
    "category": "Mountain",
    "subcategory": "Mountain",
    "featured": false,
    "priority": 50
  },
  {
    "geonameId": 3370052,
    "name": "Binne-Sanddrifpieke",
    "latitude": -33.42618,
    "longitude": 19.53777,
    "category": "Mountain",
    "subcategory": "Peak",
    "featured": false,
    "priority": 50
  },
  {
    "geonameId": 1019357,
    "name": "Bird Island",
    "latitude": -33.8401,
    "longitude": 26.28601,
    "category": "Island",
    "subcategory": "Island",
    "featured": false,
    "priority": 50
  },
  {
    "geonameId": 1019355,
    "name": "Bird Islands",
    "latitude": -33.84212,
    "longitude": 26.27595,
    "category": "Island",
    "subcategory": "Island Group",
    "featured": false,
    "priority": 50
  },
  {
    "geonameId": 1019333,
    "name": "Bisana",
    "latitude": -28.36149,
    "longitude": 31.74741,
    "category": "Mountain",
    "subcategory": "Mountain",
    "featured": false,
    "priority": 50
  },
  {
    "geonameId": 1019332,
    "name": "Bischoff’s Reservoir",
    "latitude": -24.81667,
    "longitude": 28.2,
    "category": "Lake",
    "subcategory": "Reservoir",
    "featured": false,
    "priority": 50
  },
  {
    "geonameId": 1019302,
    "name": "Bitterberg",
    "latitude": -32.65304,
    "longitude": 20.11971,
    "category": "Mountain",
    "subcategory": "Mountain",
    "featured": false,
    "priority": 50
  },
  {
    "geonameId": 1019274,
    "name": "Bitterwater se Hoogte",
    "latitude": -31.25787,
    "longitude": 21.83023,
    "category": "Mountain",
    "subcategory": "Mountain Pass",
    "featured": false,
    "priority": 50
  },
  {
    "geonameId": 1019264,
    "name": "Bizana",
    "latitude": -30.85907,
    "longitude": 29.85384,
    "category": "City",
    "subcategory": "District Seat",
    "featured": false,
    "priority": 50
  },
  {
    "geonameId": 1019115,
    "name": "Black Bass Pool",
    "latitude": -28.78665,
    "longitude": 32.10407,
    "category": "Lake",
    "subcategory": "Lake",
    "featured": false,
    "priority": 50
  },
  {
    "geonameId": 3370000,
    "name": "Black Face Mountain",
    "latitude": -28.71303,
    "longitude": 17.32049,
    "category": "Mountain",
    "subcategory": "Mountain",
    "featured": false,
    "priority": 50
  },
  {
    "geonameId": 1019101,
    "name": "Black Heron Dam",
    "latitude": -23.69948,
    "longitude": 31.21359,
    "category": "Lake",
    "subcategory": "Reservoir",
    "featured": false,
    "priority": 50
  },
  {
    "geonameId": 1019092,
    "name": "Black Hill",
    "latitude": -24.85,
    "longitude": 30.71667,
    "category": "Mountain",
    "subcategory": "Mountain",
    "featured": false,
    "priority": 50
  },
  {
    "geonameId": 1019085,
    "name": "Black Knoll",
    "latitude": -23.86667,
    "longitude": 30.13333,
    "category": "Mountain",
    "subcategory": "Mountain",
    "featured": false,
    "priority": 50
  },
  {
    "geonameId": 3369988,
    "name": "Blake’s Berg",
    "latitude": -33.40472,
    "longitude": 19.1294,
    "category": "Mountain",
    "subcategory": "Peak",
    "featured": false,
    "priority": 50
  },
  {
    "geonameId": 1018977,
    "name": "Blesberg",
    "latitude": -33.41727,
    "longitude": 22.68739,
    "category": "Mountain",
    "subcategory": "Mountain",
    "featured": false,
    "priority": 50
  },
  {
    "geonameId": 1018913,
    "name": "Bleskop",
    "latitude": -29.83882,
    "longitude": 24.5953,
    "category": "Mountain",
    "subcategory": "Mountain",
    "featured": false,
    "priority": 50
  },
  {
    "geonameId": 1018893,
    "name": "Blikfontein",
    "latitude": -27.78333,
    "longitude": 23.93333,
    "category": "Mountain",
    "subcategory": "Mountain",
    "featured": false,
    "priority": 50
  },
  {
    "geonameId": 1018879,
    "name": "Blindepan",
    "latitude": -28.33333,
    "longitude": 25.88333,
    "category": "Lake",
    "subcategory": "Lake",
    "featured": false,
    "priority": 50
  },
  {
    "geonameId": 1018874,
    "name": "Blinkberg",
    "latitude": -32.24274,
    "longitude": 25.0979,
    "category": "Mountain",
    "subcategory": "Mountain",
    "featured": false,
    "priority": 50
  },
  {
    "geonameId": 3369963,
    "name": "Blinkbergpas",
    "latitude": -32.70058,
    "longitude": 19.41812,
    "category": "Mountain",
    "subcategory": "Mountain Pass",
    "featured": false,
    "priority": 50
  },
  {
    "geonameId": 1018867,
    "name": "Blinkfontein se Berg",
    "latitude": -32.18019,
    "longitude": 23.11623,
    "category": "Mountain",
    "subcategory": "Mountain",
    "featured": false,
    "priority": 50
  },
  {
    "geonameId": 1018865,
    "name": "Blinkhuiskop",
    "latitude": -32.64595,
    "longitude": 21.19524,
    "category": "Mountain",
    "subcategory": "Mountain",
    "featured": false,
    "priority": 50
  },
  {
    "geonameId": 1018847,
    "name": "Blinkkop",
    "latitude": -32.26673,
    "longitude": 25.50072,
    "category": "Mountain",
    "subcategory": "Mountain",
    "featured": false,
    "priority": 50
  },
  {
    "geonameId": 3369957,
    "name": "Blinkvlei",
    "latitude": -31.88333,
    "longitude": 19.3,
    "category": "Lake",
    "subcategory": "Lake",
    "featured": false,
    "priority": 50
  },
  {
    "geonameId": 1018797,
    "name": "Blinkwater",
    "latitude": -29.26534,
    "longitude": 30.41733,
    "category": "Mountain",
    "subcategory": "Mountain",
    "featured": false,
    "priority": 50
  },
  {
    "geonameId": 3369951,
    "name": "Blockhouse Gap",
    "latitude": -34.21054,
    "longitude": 18.44624,
    "category": "Mountain",
    "subcategory": "Mountain Pass",
    "featured": false,
    "priority": 50
  },
  {
    "geonameId": 1018725,
    "name": "Bloemfontein",
    "latitude": -29.12107,
    "longitude": 26.214,
    "category": "City",
    "subcategory": "Regional Capital",
    "featured": false,
    "priority": 50
  },
  {
    "geonameId": 1018723,
    "name": "Bloemfonteinkop",
    "latitude": -31.57794,
    "longitude": 23.02521,
    "category": "Mountain",
    "subcategory": "Mountain",
    "featured": false,
    "priority": 50
  },
  {
    "geonameId": 1018673,
    "name": "Bloemhof",
    "latitude": -27.64685,
    "longitude": 25.60697,
    "category": "City",
    "subcategory": "City",
    "featured": false,
    "priority": 50
  },
  {
    "geonameId": 1018668,
    "name": "Bloemhofdam",
    "latitude": -27.62288,
    "longitude": 25.94594,
    "category": "Lake",
    "subcategory": "Reservoir",
    "featured": false,
    "priority": 50
  },
  {
    "geonameId": 1018659,
    "name": "Bloempoort",
    "latitude": -25.18333,
    "longitude": 29.2,
    "category": "Mountain",
    "subcategory": "Mountain",
    "featured": false,
    "priority": 50
  },
  {
    "geonameId": 1018637,
    "name": "Bloenek",
    "latitude": -25.29966,
    "longitude": 27.08279,
    "category": "Mountain",
    "subcategory": "Mountain Pass",
    "featured": false,
    "priority": 50
  },
  {
    "geonameId": 3369926,
    "name": "Blokkop",
    "latitude": -33.96542,
    "longitude": 19.25296,
    "category": "Mountain",
    "subcategory": "Peak",
    "featured": false,
    "priority": 50
  },
  {
    "geonameId": 3369922,
    "name": "Blomberg",
    "latitude": -31.62679,
    "longitude": 19.5108,
    "category": "Mountain",
    "subcategory": "Mountain",
    "featured": false,
    "priority": 50
  },
  {
    "geonameId": 1018354,
    "name": "Blou-Spitskop",
    "latitude": -31.4007,
    "longitude": 22.65863,
    "category": "Mountain",
    "subcategory": "Mountain",
    "featured": false,
    "priority": 50
  },
  {
    "geonameId": 1018584,
    "name": "Bloubank",
    "latitude": -27.3,
    "longitude": 24.3,
    "category": "Mountain",
    "subcategory": "Mountain",
    "featured": false,
    "priority": 50
  },
  {
    "geonameId": 1018576,
    "name": "Bloubanknek",
    "latitude": -28.5682,
    "longitude": 29.7157,
    "category": "Mountain",
    "subcategory": "Mountain Pass",
    "featured": false,
    "priority": 50
  },
  {
    "geonameId": 1018563,
    "name": "Blouberg",
    "latitude": -33.41062,
    "longitude": 21.55355,
    "category": "Mountain",
    "subcategory": "Mountain",
    "featured": false,
    "priority": 50
  },
  {
    "geonameId": 12129666,
    "name": "Blouberg High Site",
    "latitude": -33.32176,
    "longitude": 22.18264,
    "category": "Mountain",
    "subcategory": "Mountain",
    "featured": false,
    "priority": 50
  },
  {
    "geonameId": 1018559,
    "name": "Blouberg Privaatnatuurreserwe",
    "latitude": -23.05,
    "longitude": 29.13333,
    "category": "Park",
    "subcategory": "Nature Reserve",
    "featured": false,
    "priority": 50
  },
  {
    "geonameId": 1018558,
    "name": "Bloubokkop",
    "latitude": -28.28333,
    "longitude": 30.26667,
    "category": "Mountain",
    "subcategory": "Mountain",
    "featured": false,
    "priority": 50
  },
  {
    "geonameId": 1018506,
    "name": "Blougatkop",
    "latitude": -31.71014,
    "longitude": 27.51274,
    "category": "Mountain",
    "subcategory": "Mountain",
    "featured": false,
    "priority": 50
  },
  {
    "geonameId": 3369884,
    "name": "Blouklip",
    "latitude": -31.01367,
    "longitude": 17.8563,
    "category": "Mountain",
    "subcategory": "Mountain",
    "featured": false,
    "priority": 50
  },
  {
    "geonameId": 1018452,
    "name": "Bloukop",
    "latitude": -32.69515,
    "longitude": 25.52619,
    "category": "Mountain",
    "subcategory": "Mountain",
    "featured": false,
    "priority": 50
  },
  {
    "geonameId": 1018449,
    "name": "Bloukop II",
    "latitude": -32.81667,
    "longitude": 23.36667,
    "category": "Mountain",
    "subcategory": "Mountain",
    "featured": false,
    "priority": 50
  },
  {
    "geonameId": 1018438,
    "name": "Bloukoppie",
    "latitude": -31.88782,
    "longitude": 23.69415,
    "category": "Mountain",
    "subcategory": "Mountain",
    "featured": false,
    "priority": 50
  },
  {
    "geonameId": 1018435,
    "name": "Bloukoprante",
    "latitude": -33.53593,
    "longitude": 24.63489,
    "category": "Mountain",
    "subcategory": "Mountain",
    "featured": false,
    "priority": 50
  },
  {
    "geonameId": 1018412,
    "name": "Bloukrans",
    "latitude": -33.26017,
    "longitude": 23.21652,
    "category": "Mountain",
    "subcategory": "Mountain",
    "featured": false,
    "priority": 50
  },
  {
    "geonameId": 3369858,
    "name": "Bloukrans Pass",
    "latitude": -31.66694,
    "longitude": 19.74774,
    "category": "Mountain",
    "subcategory": "Mountain Pass",
    "featured": false,
    "priority": 50
  },
  {
    "geonameId": 1018405,
    "name": "Bloukranspas",
    "latitude": -33.95184,
    "longitude": 23.63405,
    "category": "Mountain",
    "subcategory": "Mountain Pass",
    "featured": false,
    "priority": 50
  },
  {
    "geonameId": 1018395,
    "name": "Blounek",
    "latitude": -32.83377,
    "longitude": 21.33783,
    "category": "Mountain",
    "subcategory": "Mountain Pass",
    "featured": false,
    "priority": 50
  },
  {
    "geonameId": 1018393,
    "name": "Blounekkies",
    "latitude": -32.32644,
    "longitude": 23.88023,
    "category": "Mountain",
    "subcategory": "Mountain",
    "featured": false,
    "priority": 50
  },
  {
    "geonameId": 1018377,
    "name": "Bloupunt",
    "latitude": -33.76512,
    "longitude": 20.06705,
    "category": "Mountain",
    "subcategory": "Peak",
    "featured": false,
    "priority": 50
  },
  {
    "geonameId": 3369838,
    "name": "Blousteenberge",
    "latitude": -34.27312,
    "longitude": 18.8568,
    "category": "Mountain",
    "subcategory": "Mountain",
    "featured": false,
    "priority": 50
  },
  {
    "geonameId": 1018346,
    "name": "Bloutoring",
    "latitude": -33.50934,
    "longitude": 20.23994,
    "category": "Mountain",
    "subcategory": "Mountain",
    "featured": false,
    "priority": 50
  },
  {
    "geonameId": 3369829,
    "name": "Bluff",
    "latitude": -28.92932,
    "longitude": 17.45773,
    "category": "Mountain",
    "subcategory": "Mountain",
    "featured": false,
    "priority": 50
  },
  {
    "geonameId": 7534700,
    "name": "Blyde River Canyon",
    "latitude": -24.56389,
    "longitude": 30.8075,
    "category": "Mountain",
    "subcategory": "Canyon",
    "featured": false,
    "priority": 50
  },
  {
    "geonameId": 1018283,
    "name": "Blydedam",
    "latitude": -32.67618,
    "longitude": 25.21941,
    "category": "Lake",
    "subcategory": "Reservoir",
    "featured": false,
    "priority": 50
  },
  {
    "geonameId": 1018274,
    "name": "Blyderivierspoort Natuurreservaat",
    "latitude": -24.58333,
    "longitude": 30.81667,
    "category": "Park",
    "subcategory": "Nature Reserve",
    "featured": false,
    "priority": 50
  },
  {
    "geonameId": 1018275,
    "name": "Blyderivierspoortdam",
    "latitude": -24.54752,
    "longitude": 30.80213,
    "category": "Lake",
    "subcategory": "Reservoir",
    "featured": false,
    "priority": 50
  },
  {
    "geonameId": 1017750,
    "name": "Bo-Langvlei",
    "latitude": -33.98707,
    "longitude": 22.67921,
    "category": "Lake",
    "subcategory": "Reservoir",
    "featured": false,
    "priority": 50
  },
  {
    "geonameId": 9180824,
    "name": "Bob Rand Peak",
    "latitude": -46.89146,
    "longitude": 37.72534,
    "category": "Mountain",
    "subcategory": "Mountain",
    "featured": false,
    "priority": 50
  },
  {
    "geonameId": 1018220,
    "name": "Bobbejaanberg",
    "latitude": -32.59512,
    "longitude": 20.36558,
    "category": "Mountain",
    "subcategory": "Mountain",
    "featured": false,
    "priority": 50
  },
  {
    "geonameId": 1018217,
    "name": "Bobbejaankloof",
    "latitude": -22.99864,
    "longitude": 29.32223,
    "category": "Mountain",
    "subcategory": "Mountain Pass",
    "featured": false,
    "priority": 50
  },
  {
    "geonameId": 3369815,
    "name": "Bobbejaankop",
    "latitude": -32.03677,
    "longitude": 19.97603,
    "category": "Mountain",
    "subcategory": "Peak",
    "featured": false,
    "priority": 50
  },
  {
    "geonameId": 3369811,
    "name": "Bobbejaanpoort",
    "latitude": -29.80832,
    "longitude": 18.12597,
    "category": "Mountain",
    "subcategory": "Mountain Pass",
    "featured": false,
    "priority": 50
  },
  {
    "geonameId": 1018174,
    "name": "Bobbejaansberg",
    "latitude": -33.87592,
    "longitude": 22.72661,
    "category": "Mountain",
    "subcategory": "Mountain",
    "featured": false,
    "priority": 50
  },
  {
    "geonameId": 1018168,
    "name": "Bobbejaanskop",
    "latitude": -31.89502,
    "longitude": 22.68739,
    "category": "Mountain",
    "subcategory": "Mountain",
    "featured": false,
    "priority": 50
  },
  {
    "geonameId": 1018158,
    "name": "Boberg",
    "latitude": -32.91447,
    "longitude": 25.18845,
    "category": "Mountain",
    "subcategory": "Mountain",
    "featured": false,
    "priority": 50
  },
  {
    "geonameId": 1018148,
    "name": "Bochum",
    "latitude": -23.28609,
    "longitude": 29.13964,
    "category": "City",
    "subcategory": "City",
    "featured": false,
    "priority": 50
  },
  {
    "geonameId": 1018125,
    "name": "Boegoeberg",
    "latitude": -32.20252,
    "longitude": 22.92517,
    "category": "Mountain",
    "subcategory": "Mountain",
    "featured": false,
    "priority": 50
  },
  {
    "geonameId": 1018121,
    "name": "Boegoebergdam",
    "latitude": -29.06286,
    "longitude": 22.21098,
    "category": "Lake",
    "subcategory": "Reservoir",
    "featured": false,
    "priority": 50
  },
  {
    "geonameId": 3369785,
    "name": "Boekenberg",
    "latitude": -32.39862,
    "longitude": 18.68359,
    "category": "Mountain",
    "subcategory": "Mountain",
    "featured": false,
    "priority": 50
  },
  {
    "geonameId": 3369784,
    "name": "Boerberg",
    "latitude": -33.6656,
    "longitude": 19.88323,
    "category": "Mountain",
    "subcategory": "Mountain",
    "featured": false,
    "priority": 50
  },
  {
    "geonameId": 3369781,
    "name": "Boesmankop",
    "latitude": -30.21085,
    "longitude": 17.8807,
    "category": "Mountain",
    "subcategory": "Mountain",
    "featured": false,
    "priority": 50
  },
  {
    "geonameId": 3369776,
    "name": "Boesmanpunt",
    "latitude": -29.04556,
    "longitude": 17.37984,
    "category": "Mountain",
    "subcategory": "Mountain",
    "featured": false,
    "priority": 50
  },
  {
    "geonameId": 1018032,
    "name": "Boesmansberg",
    "latitude": -32.05855,
    "longitude": 24.9354,
    "category": "Mountain",
    "subcategory": "Mountain",
    "featured": false,
    "priority": 50
  },
  {
    "geonameId": 1018016,
    "name": "Boesmanshoek",
    "latitude": -32.41347,
    "longitude": 25.19498,
    "category": "Mountain",
    "subcategory": "Mountain",
    "featured": false,
    "priority": 50
  },
  {
    "geonameId": 1018014,
    "name": "Boesmanshoekberg",
    "latitude": -32.33333,
    "longitude": 25.25,
    "category": "Mountain",
    "subcategory": "Mountain",
    "featured": false,
    "priority": 50
  },
  {
    "geonameId": 1018013,
    "name": "Boesmanshoekpas",
    "latitude": -31.49531,
    "longitude": 26.48487,
    "category": "Mountain",
    "subcategory": "Mountain Pass",
    "featured": false,
    "priority": 50
  },
  {
    "geonameId": 3369773,
    "name": "Boesmanskloof",
    "latitude": -34.0242,
    "longitude": 19.66607,
    "category": "Mountain",
    "subcategory": "Mountain Pass",
    "featured": false,
    "priority": 50
  },
  {
    "geonameId": 1017970,
    "name": "Boesmanskop",
    "latitude": -32.00546,
    "longitude": 25.72529,
    "category": "Mountain",
    "subcategory": "Peak",
    "featured": false,
    "priority": 50
  },
  {
    "geonameId": 1017958,
    "name": "Boesmansnek",
    "latitude": -33.38838,
    "longitude": 21.83447,
    "category": "Mountain",
    "subcategory": "Mountain Pass",
    "featured": false,
    "priority": 50
  },
  {
    "geonameId": 1017951,
    "name": "Boesmanspan",
    "latitude": -29.24639,
    "longitude": 24.18187,
    "category": "Lake",
    "subcategory": "Lake",
    "featured": false,
    "priority": 50
  },
  {
    "geonameId": 1017943,
    "name": "Boesmanspoort",
    "latitude": -33.4,
    "longitude": 22.85,
    "category": "Mountain",
    "subcategory": "Mountain Pass",
    "featured": false,
    "priority": 50
  },
  {
    "geonameId": 1017940,
    "name": "Boesmanspoortberg",
    "latitude": -31.29991,
    "longitude": 23.22737,
    "category": "Mountain",
    "subcategory": "Mountain",
    "featured": false,
    "priority": 50
  },
  {
    "geonameId": 1017881,
    "name": "Bohlokong",
    "latitude": -24.12912,
    "longitude": 30.13849,
    "category": "Mountain",
    "subcategory": "Mountain",
    "featured": false,
    "priority": 50
  },
  {
    "geonameId": 12718842,
    "name": "Boipelo",
    "latitude": -27.56543,
    "longitude": 24.18493,
    "category": "City",
    "subcategory": "City",
    "featured": false,
    "priority": 50
  },
  {
    "geonameId": 1017863,
    "name": "Bokberg",
    "latitude": -33.00051,
    "longitude": 20.79492,
    "category": "Mountain",
    "subcategory": "Mountain",
    "featured": false,
    "priority": 50
  },
  {
    "geonameId": 1017860,
    "name": "Bokeiland",
    "latitude": -28.71992,
    "longitude": 20.96569,
    "category": "Island",
    "subcategory": "Island",
    "featured": false,
    "priority": 50
  },
  {
    "geonameId": 1017844,
    "name": "Bokkeberg",
    "latitude": -32.96079,
    "longitude": 21.86971,
    "category": "Mountain",
    "subcategory": "Mountain",
    "featured": false,
    "priority": 50
  },
  {
    "geonameId": 3369747,
    "name": "Bokkeveldberg",
    "latitude": -31.14526,
    "longitude": 18.9594,
    "category": "Mountain",
    "subcategory": "Mountain",
    "featured": false,
    "priority": 50
  },
  {
    "geonameId": 1017841,
    "name": "Bokkiesberg",
    "latitude": -30.37051,
    "longitude": 29.29836,
    "category": "Mountain",
    "subcategory": "Mountain",
    "featured": false,
    "priority": 50
  },
  {
    "geonameId": 1017834,
    "name": "Bokkop",
    "latitude": -32.62317,
    "longitude": 25.70712,
    "category": "Mountain",
    "subcategory": "Mountain",
    "featured": false,
    "priority": 50
  },
  {
    "geonameId": 1017797,
    "name": "Bokpoort",
    "latitude": -31.6,
    "longitude": 22.61667,
    "category": "Mountain",
    "subcategory": "Mountain Pass",
    "featured": false,
    "priority": 50
  },
  {
    "geonameId": 1017780,
    "name": "Boksburg",
    "latitude": -26.21197,
    "longitude": 28.25958,
    "category": "City",
    "subcategory": "City",
    "featured": false,
    "priority": 50
  },
  {
    "geonameId": 1017748,
    "name": "Bold Point",
    "latitude": -32.29318,
    "longitude": 26.69827,
    "category": "Mountain",
    "subcategory": "Peak",
    "featured": false,
    "priority": 50
  },
  {
    "geonameId": 1017743,
    "name": "Bolese",
    "latitude": -24.52423,
    "longitude": 30.0329,
    "category": "Mountain",
    "subcategory": "Mountain",
    "featured": false,
    "priority": 50
  },
  {
    "geonameId": 13527163,
    "name": "Bolla-Tau",
    "latitude": -24.63276,
    "longitude": 31.13108,
    "category": "City",
    "subcategory": "City",
    "featured": false,
    "priority": 50
  },
  {
    "geonameId": 1017738,
    "name": "Bollatshwene",
    "latitude": -24.19186,
    "longitude": 29.93409,
    "category": "Mountain",
    "subcategory": "Mountain",
    "featured": false,
    "priority": 50
  },
  {
    "geonameId": 1017737,
    "name": "Bolleberg",
    "latitude": -33.91316,
    "longitude": 22.14224,
    "category": "Mountain",
    "subcategory": "Mountain",
    "featured": false,
    "priority": 50
  },
  {
    "geonameId": 1017716,
    "name": "Boma Pass",
    "latitude": -32.70141,
    "longitude": 27.10726,
    "category": "Mountain",
    "subcategory": "Mountain Pass",
    "featured": false,
    "priority": 50
  },
  {
    "geonameId": 1017712,
    "name": "Bombani Hill",
    "latitude": -32.11667,
    "longitude": 28.81667,
    "category": "Mountain",
    "subcategory": "Mountain",
    "featured": false,
    "priority": 50
  },
  {
    "geonameId": 1017707,
    "name": "Bombo",
    "latitude": -27.36836,
    "longitude": 30.38241,
    "category": "Mountain",
    "subcategory": "Mountain",
    "featured": false,
    "priority": 50
  },
  {
    "geonameId": 1017706,
    "name": "Bombo Hill",
    "latitude": -31.71667,
    "longitude": 29.23333,
    "category": "Mountain",
    "subcategory": "Mountain",
    "featured": false,
    "priority": 50
  },
  {
    "geonameId": 9180815,
    "name": "Bomkop",
    "latitude": -46.84312,
    "longitude": 37.70345,
    "category": "Mountain",
    "subcategory": "Mountain",
    "featured": false,
    "priority": 50
  },
  {
    "geonameId": 1017700,
    "name": "Bomoo Hill",
    "latitude": -31.63333,
    "longitude": 29.38333,
    "category": "Mountain",
    "subcategory": "Mountain",
    "featured": false,
    "priority": 50
  },
  {
    "geonameId": 1017697,
    "name": "Bomvini",
    "latitude": -28.33464,
    "longitude": 31.16584,
    "category": "Mountain",
    "subcategory": "Mountain",
    "featured": false,
    "priority": 50
  },
  {
    "geonameId": 1017688,
    "name": "Bon Accord Dam",
    "latitude": -25.62802,
    "longitude": 28.1893,
    "category": "Lake",
    "subcategory": "Reservoir",
    "featured": false,
    "priority": 50
  },
  {
    "geonameId": 1017665,
    "name": "Bon Esperange",
    "latitude": -32.9,
    "longitude": 20.51667,
    "category": "Mountain",
    "subcategory": "Mountain",
    "featured": false,
    "priority": 50
  },
  {
    "geonameId": 1017669,
    "name": "Bond Porterill",
    "latitude": -29.3,
    "longitude": 29.45,
    "category": "Mountain",
    "subcategory": "Peak",
    "featured": false,
    "priority": 50
  },
  {
    "geonameId": 1017642,
    "name": "Bonkolo Dam",
    "latitude": -31.8701,
    "longitude": 26.9191,
    "category": "Lake",
    "subcategory": "Reservoir",
    "featured": false,
    "priority": 50
  },
  {
    "geonameId": 1017640,
    "name": "Bonkolo Nek",
    "latitude": -31.77685,
    "longitude": 26.95222,
    "category": "Mountain",
    "subcategory": "Mountain Pass",
    "featured": false,
    "priority": 50
  },
  {
    "geonameId": 1017620,
    "name": "Bonnievale",
    "latitude": -33.93224,
    "longitude": 20.09924,
    "category": "City",
    "subcategory": "City",
    "featured": false,
    "priority": 50
  },
  {
    "geonameId": 1017608,
    "name": "Bonnyvale Peak",
    "latitude": -30.78585,
    "longitude": 27.82826,
    "category": "Mountain",
    "subcategory": "Mountain",
    "featured": false,
    "priority": 50
  },
  {
    "geonameId": 1017598,
    "name": "Bontberg",
    "latitude": -33.21261,
    "longitude": 20.03866,
    "category": "Mountain",
    "subcategory": "Mountain",
    "featured": false,
    "priority": 50
  },
  {
    "geonameId": 3369695,
    "name": "Bonteberg",
    "latitude": -34.21732,
    "longitude": 18.38395,
    "category": "Mountain",
    "subcategory": "Mountain",
    "featured": false,
    "priority": 50
  },
  {
    "geonameId": 1017578,
    "name": "Bontekop",
    "latitude": -31.45908,
    "longitude": 22.29109,
    "category": "Mountain",
    "subcategory": "Mountain",
    "featured": false,
    "priority": 50
  },
  {
    "geonameId": 3369685,
    "name": "Bontheuwel",
    "latitude": -32.33126,
    "longitude": 18.66737,
    "category": "Mountain",
    "subcategory": "Mountain",
    "featured": false,
    "priority": 50
  },
  {
    "geonameId": 1017573,
    "name": "Bontkop",
    "latitude": -31.82527,
    "longitude": 22.108,
    "category": "Mountain",
    "subcategory": "Mountain",
    "featured": false,
    "priority": 50
  },
  {
    "geonameId": 3369680,
    "name": "Bontoor se Berg",
    "latitude": -29.20322,
    "longitude": 17.60958,
    "category": "Mountain",
    "subcategory": "Mountain",
    "featured": false,
    "priority": 50
  },
  {
    "geonameId": 1017565,
    "name": "Bontrug",
    "latitude": -33.39786,
    "longitude": 25.48283,
    "category": "City",
    "subcategory": "City",
    "featured": false,
    "priority": 50
  },
  {
    "geonameId": 1017520,
    "name": "Boomplaas Hill",
    "latitude": -29.84778,
    "longitude": 25.60474,
    "category": "Mountain",
    "subcategory": "Mountain",
    "featured": false,
    "priority": 50
  },
  {
    "geonameId": 1017495,
    "name": "Boomplaats",
    "latitude": -30.53333,
    "longitude": 27.61667,
    "category": "Mountain",
    "subcategory": "Mountain",
    "featured": false,
    "priority": 50
  },
  {
    "geonameId": 1017455,
    "name": "Booysenspoort",
    "latitude": -32.35643,
    "longitude": 24.47671,
    "category": "Mountain",
    "subcategory": "Mountain Pass",
    "featured": false,
    "priority": 50
  },
  {
    "geonameId": 1017362,
    "name": "Bosberg",
    "latitude": -33.72126,
    "longitude": 21.76797,
    "category": "Mountain",
    "subcategory": "Mountain",
    "featured": false,
    "priority": 50
  },
  {
    "geonameId": 1017359,
    "name": "Bosberghoek",
    "latitude": -28.20538,
    "longitude": 29.79494,
    "category": "Mountain",
    "subcategory": "Mountain",
    "featured": false,
    "priority": 50
  },
  {
    "geonameId": 1017334,
    "name": "Boschbok",
    "latitude": -23.43333,
    "longitude": 30.03333,
    "category": "Mountain",
    "subcategory": "Mountain",
    "featured": false,
    "priority": 50
  },
  {
    "geonameId": 3369636,
    "name": "Boschkop",
    "latitude": -34.38333,
    "longitude": 19.43333,
    "category": "Mountain",
    "subcategory": "Mountain",
    "featured": false,
    "priority": 50
  },
  {
    "geonameId": 1017076,
    "name": "Bosfontein",
    "latitude": -25.74237,
    "longitude": 31.61798,
    "category": "City",
    "subcategory": "City",
    "featured": false,
    "priority": 50
  },
  {
    "geonameId": 1017048,
    "name": "Boshof",
    "latitude": -28.53914,
    "longitude": 25.23965,
    "category": "City",
    "subcategory": "District Seat",
    "featured": false,
    "priority": 50
  },
  {
    "geonameId": 1017042,
    "name": "Boshoffsberge",
    "latitude": -24.83333,
    "longitude": 27.63333,
    "category": "Mountain",
    "subcategory": "Mountain",
    "featured": false,
    "priority": 50
  },
  {
    "geonameId": 1017006,
    "name": "Boskloof",
    "latitude": -33.68333,
    "longitude": 21.8,
    "category": "Mountain",
    "subcategory": "Mountain Pass",
    "featured": false,
    "priority": 50
  },
  {
    "geonameId": 3369614,
    "name": "Boskloofpiek",
    "latitude": -33.44696,
    "longitude": 19.50491,
    "category": "Mountain",
    "subcategory": "Peak",
    "featured": false,
    "priority": 50
  },
  {
    "geonameId": 1016960,
    "name": "Boskop",
    "latitude": -34.34976,
    "longitude": 21.35567,
    "category": "Mountain",
    "subcategory": "Mountain",
    "featured": false,
    "priority": 50
  },
  {
    "geonameId": 1016957,
    "name": "Boskopdam",
    "latitude": -26.55201,
    "longitude": 27.11859,
    "category": "Lake",
    "subcategory": "Reservoir",
    "featured": false,
    "priority": 50
  },
  {
    "geonameId": 1016947,
    "name": "Boskoppie",
    "latitude": -27.4,
    "longitude": 25.66667,
    "category": "Mountain",
    "subcategory": "Mountain",
    "featured": false,
    "priority": 50
  },
  {
    "geonameId": 1016932,
    "name": "Bosluiskloof",
    "latitude": -33.26667,
    "longitude": 21.53333,
    "category": "Mountain",
    "subcategory": "Mountain",
    "featured": false,
    "priority": 50
  },
  {
    "geonameId": 1016930,
    "name": "Bosluiskloofpas",
    "latitude": -33.33718,
    "longitude": 21.50286,
    "category": "Mountain",
    "subcategory": "Mountain Pass",
    "featured": false,
    "priority": 50
  },
  {
    "geonameId": 3369601,
    "name": "Bosman Peak",
    "latitude": -32.58566,
    "longitude": 19.26596,
    "category": "Mountain",
    "subcategory": "Mountain",
    "featured": false,
    "priority": 50
  },
  {
    "geonameId": 1016875,
    "name": "Bospoort",
    "latitude": -33.27018,
    "longitude": 23.10235,
    "category": "Mountain",
    "subcategory": "Mountain Pass",
    "featured": false,
    "priority": 50
  },
  {
    "geonameId": 1016872,
    "name": "Bospoortdam",
    "latitude": -25.57143,
    "longitude": 27.33254,
    "category": "Lake",
    "subcategory": "Reservoir",
    "featured": false,
    "priority": 50
  },
  {
    "geonameId": 3369586,
    "name": "Bossiesberg",
    "latitude": -32.03422,
    "longitude": 19.7454,
    "category": "Mountain",
    "subcategory": "Mountain",
    "featured": false,
    "priority": 50
  },
  {
    "geonameId": 1016817,
    "name": "Bossieskop",
    "latitude": -25.36523,
    "longitude": 30.89801,
    "category": "Mountain",
    "subcategory": "Mountain",
    "featured": false,
    "priority": 50
  },
  {
    "geonameId": 1016784,
    "name": "Boteetilets",
    "latitude": -27.4,
    "longitude": 23.8,
    "category": "Mountain",
    "subcategory": "Mountain",
    "featured": false,
    "priority": 50
  },
  {
    "geonameId": 1016770,
    "name": "Boteskop",
    "latitude": -31.39263,
    "longitude": 23.68066,
    "category": "Mountain",
    "subcategory": "Mountain",
    "featured": false,
    "priority": 50
  },
  {
    "geonameId": 1016748,
    "name": "Botha’s Hill",
    "latitude": -33.24232,
    "longitude": 26.58384,
    "category": "Mountain",
    "subcategory": "Mountain",
    "featured": false,
    "priority": 50
  },
  {
    "geonameId": 1016756,
    "name": "Bothasberg",
    "latitude": -27.48537,
    "longitude": 29.08245,
    "category": "Mountain",
    "subcategory": "Peak",
    "featured": false,
    "priority": 50
  },
  {
    "geonameId": 1016718,
    "name": "Bothasnek",
    "latitude": -25.76667,
    "longitude": 30.81667,
    "category": "Mountain",
    "subcategory": "Mountain Pass",
    "featured": false,
    "priority": 50
  },
  {
    "geonameId": 1016716,
    "name": "Bothaspas",
    "latitude": -27.63154,
    "longitude": 29.71975,
    "category": "Mountain",
    "subcategory": "Mountain Pass",
    "featured": false,
    "priority": 50
  },
  {
    "geonameId": 1016698,
    "name": "Bothaville",
    "latitude": -27.3887,
    "longitude": 26.61701,
    "category": "City",
    "subcategory": "District Seat",
    "featured": false,
    "priority": 50
  },
  {
    "geonameId": 3369575,
    "name": "Bothmeskloofpas",
    "latitude": -33.40586,
    "longitude": 18.8749,
    "category": "Mountain",
    "subcategory": "Mountain Pass",
    "featured": false,
    "priority": 50
  },
  {
    "geonameId": 3369569,
    "name": "Botrivier",
    "latitude": -34.22568,
    "longitude": 19.20313,
    "category": "City",
    "subcategory": "City",
    "featured": false,
    "priority": 50
  },
  {
    "geonameId": 1016670,
    "name": "Botshabelo",
    "latitude": -29.26737,
    "longitude": 26.72595,
    "category": "City",
    "subcategory": "City",
    "featured": false,
    "priority": 50
  },
  {
    "geonameId": 3369564,
    "name": "Bottelaryberg",
    "latitude": -33.90781,
    "longitude": 18.77778,
    "category": "Mountain",
    "subcategory": "Mountain",
    "featured": false,
    "priority": 50
  },
  {
    "geonameId": 1016665,
    "name": "Bottelbaken",
    "latitude": -32.65871,
    "longitude": 25.4956,
    "category": "Mountain",
    "subcategory": "Mountain",
    "featured": false,
    "priority": 50
  },
  {
    "geonameId": 1016655,
    "name": "Bottelkop",
    "latitude": -33.36209,
    "longitude": 21.06045,
    "category": "Mountain",
    "subcategory": "Mountain",
    "featured": false,
    "priority": 50
  },
  {
    "geonameId": 1016633,
    "name": "Bottlenek",
    "latitude": -31.12147,
    "longitude": 27.81227,
    "category": "Mountain",
    "subcategory": "Mountain Pass",
    "featured": false,
    "priority": 50
  },
  {
    "geonameId": 9180885,
    "name": "Boulder",
    "latitude": -46.95519,
    "longitude": 37.7861,
    "category": "Mountain",
    "subcategory": "Mountain",
    "featured": false,
    "priority": 50
  },
  {
    "geonameId": 1016576,
    "name": "Bovenop",
    "latitude": -24.58333,
    "longitude": 30.7,
    "category": "Mountain",
    "subcategory": "Mountain",
    "featured": false,
    "priority": 50
  },
  {
    "geonameId": 3369549,
    "name": "Bovenstevlei",
    "latitude": -30.45,
    "longitude": 18.8,
    "category": "Mountain",
    "subcategory": "Mountain",
    "featured": false,
    "priority": 50
  },
  {
    "geonameId": 1016517,
    "name": "Braamberg",
    "latitude": -33.71411,
    "longitude": 23.21007,
    "category": "Mountain",
    "subcategory": "Mountain",
    "featured": false,
    "priority": 50
  },
  {
    "geonameId": 1016510,
    "name": "Braamhoekpas",
    "latitude": -28.2826,
    "longitude": 29.54018,
    "category": "Mountain",
    "subcategory": "Mountain Pass",
    "featured": false,
    "priority": 50
  },
  {
    "geonameId": 1016506,
    "name": "Braamnek",
    "latitude": -26.76667,
    "longitude": 27.51667,
    "category": "Mountain",
    "subcategory": "Mountain Pass",
    "featured": false,
    "priority": 50
  },
  {
    "geonameId": 1016441,
    "name": "Brakboseiland",
    "latitude": -28.73693,
    "longitude": 21.00702,
    "category": "Island",
    "subcategory": "Island",
    "featured": false,
    "priority": 50
  },
  {
    "geonameId": 1016423,
    "name": "Brakdam",
    "latitude": -30.48333,
    "longitude": 23.98333,
    "category": "Mountain",
    "subcategory": "Mountain",
    "featured": false,
    "priority": 50
  },
  {
    "geonameId": 3369524,
    "name": "Brakdam se Hoogte",
    "latitude": -30.40664,
    "longitude": 17.92706,
    "category": "Mountain",
    "subcategory": "Mountain Pass",
    "featured": false,
    "priority": 50
  },
  {
    "geonameId": 1016318,
    "name": "Brakfontein",
    "latitude": -24.3,
    "longitude": 29.95,
    "category": "Mountain",
    "subcategory": "Mountain",
    "featured": false,
    "priority": 50
  },
  {
    "geonameId": 1016265,
    "name": "Brakkloof",
    "latitude": -33.3,
    "longitude": 23.31667,
    "category": "Mountain",
    "subcategory": "Mountain Pass",
    "featured": false,
    "priority": 50
  },
  {
    "geonameId": 1016250,
    "name": "Brakkoppie",
    "latitude": -24.33333,
    "longitude": 31.05,
    "category": "Mountain",
    "subcategory": "Mountain",
    "featured": false,
    "priority": 50
  },
  {
    "geonameId": 1016181,
    "name": "Brakpan",
    "latitude": -26.23656,
    "longitude": 28.36938,
    "category": "City",
    "subcategory": "City",
    "featured": false,
    "priority": 50
  },
  {
    "geonameId": 1016166,
    "name": "Brakpoort",
    "latitude": -33.71774,
    "longitude": 22.11728,
    "category": "Mountain",
    "subcategory": "Mountain Pass",
    "featured": false,
    "priority": 50
  },
  {
    "geonameId": 1016061,
    "name": "Brakspruitdam",
    "latitude": -24.96667,
    "longitude": 27.2,
    "category": "Lake",
    "subcategory": "Reservoir",
    "featured": false,
    "priority": 50
  },
  {
    "geonameId": 1016014,
    "name": "Brandberg",
    "latitude": -33.37246,
    "longitude": 21.59052,
    "category": "Mountain",
    "subcategory": "Mountain",
    "featured": false,
    "priority": 50
  },