[
  {
    "geonameId": 895820,
    "name": "Achnashie",
    "latitude": -19.05,
    "longitude": 32.21667,
    "category": "Mountain",
    "subcategory": "Mountain",
    "featured": false,
    "priority": 50
  },
  {
    "geonameId": 895650,
    "name": "Anwa",
    "latitude": -18.04575,
    "longitude": 31.84492,
    "category": "Mountain",
    "subcategory": "Mountain",
    "featured": false,
    "priority": 50
  },
  {
    "geonameId": 895504,
    "name": "Baka Dam",
    "latitude": -16.74447,
    "longitude": 31.90938,
    "category": "Lake",
    "subcategory": "Reservoir",
    "featured": false,
    "priority": 50
  },
  {
    "geonameId": 7417740,
    "name": "Bakers Dam",
    "latitude": -18.71352,
    "longitude": 32.13069,
    "category": "Lake",
    "subcategory": "Reservoir",
    "featured": false,
    "priority": 50
  },
  {
    "geonameId": 895499,
    "name": "Bako",
    "latitude": -20.43562,
    "longitude": 31.77148,
    "category": "Mountain",
    "subcategory": "Mountain",
    "featured": false,
    "priority": 50
  },
  {
    "geonameId": 895447,
    "name": "Bangala Dam",
    "latitude": -20.68333,
    "longitude": 31.18333,
    "category": "Lake",
    "subcategory": "Reservoir",
    "featured": false,
    "priority": 50
  },
  {
    "geonameId": 895439,
    "name": "Bangara Falls",
    "latitude": -20.7506,
    "longitude": 31.24639,
    "category": "Waterfall",
    "subcategory": "Waterfall",
    "featured": false,
    "priority": 50
  },
  {
    "geonameId": 895435,
    "name": "Bangaugwe",
    "latitude": -20.8577,
    "longitude": 30.76643,
    "category": "Mountain",
    "subcategory": "Mountain",
    "featured": false,
    "priority": 50
  },
  {
    "geonameId": 895433,
    "name": "Bangauya",
    "latitude": -17.01619,
    "longitude": 32.23646,
    "category": "Mountain",
    "subcategory": "Mountain",
    "featured": false,
    "priority": 50
  },
  {
    "geonameId": 895426,
    "name": "Bangwe",
    "latitude": -21.19567,
    "longitude": 30.2843,
    "category": "Mountain",
    "subcategory": "Mountain",
    "featured": false,
    "priority": 50
  },
  {
    "geonameId": 895420,
    "name": "Banirembizi",
    "latitude": -16.45813,
    "longitude": 31.07972,
    "category": "Mountain",
    "subcategory": "Mountain",
    "featured": false,
    "priority": 50
  },
  {
    "geonameId": 895419,
    "name": "Banje",
    "latitude": -16.84627,
    "longitude": 31.17912,
    "category": "Mountain",
    "subcategory": "Mountain",
    "featured": false,
    "priority": 50
  },
  {
    "geonameId": 895417,
    "name": "Banket",
    "latitude": -17.38333,
    "longitude": 30.4,
    "category": "City",
    "subcategory": "City",
    "featured": false,
    "priority": 50
  },
  {
    "geonameId": 895414,
    "name": "Bann Dam",
    "latitude": -18.96137,
    "longitude": 29.06259,
    "category": "Lake",
    "subcategory": "Reservoir",
    "featured": false,
    "priority": 50
  },
  {
    "geonameId": 895396,
    "name": "Baradza",
    "latitude": -20.06667,
    "longitude": 31.4,
    "category": "Mountain",
    "subcategory": "Mountain",
    "featured": false,
    "priority": 50
  },
  {
    "geonameId": 7507511,
    "name": "Barawara Dam",
    "latitude": -19.36047,
    "longitude": 31.99886,
    "category": "Lake",
    "subcategory": "Reservoir",
    "featured": false,
    "priority": 50
  },
  {
    "geonameId": 895382,
    "name": "Bari",
    "latitude": -16.88875,
    "longitude": 31.10921,
    "category": "Mountain",
    "subcategory": "Mountain",
    "featured": false,
    "priority": 50
  },
  {
    "geonameId": 895378,
    "name": "Bariee",
    "latitude": -21.31667,
    "longitude": 29.83333,
    "category": "Mountain",
    "subcategory": "Mountain",
    "featured": false,
    "priority": 50
  },
  {
    "geonameId": 895269,
    "name": "Beitbridge",
    "latitude": -22.21667,
    "longitude": 30,
    "category": "City",
    "subcategory": "City",
    "featured": false,
    "priority": 50
  },
  {
    "geonameId": 895256,
    "name": "Belingwe Peak",
    "latitude": -20.61871,
    "longitude": 29.90349,
    "category": "Mountain",
    "subcategory": "Peak",
    "featured": false,
    "priority": 50
  },
  {
    "geonameId": 7523407,
    "name": "Bembezana Dam",
    "latitude": -19.32171,
    "longitude": 28.35991,
    "category": "Lake",
    "subcategory": "Reservoir",
    "featured": false,
    "priority": 50
  },
  {
    "geonameId": 895169,
    "name": "Berejena Dam",
    "latitude": -20.64615,
    "longitude": 30.59792,
    "category": "Lake",
    "subcategory": "Reservoir",
    "featured": false,
    "priority": 50
  },
  {
    "geonameId": 895166,
    "name": "Bereru",
    "latitude": -16.88333,
    "longitude": 32.78333,
    "category": "Mountain",
    "subcategory": "Mountain",
    "featured": false,
    "priority": 50
  },
  {
    "geonameId": 895116,
    "name": "Beza",
    "latitude": -20.15,
    "longitude": 30.96667,
    "category": "Mountain",
    "subcategory": "Mountain",
    "featured": false,
    "priority": 50
  },
  {
    "geonameId": 7371155,
    "name": "Big Dere Dam",
    "latitude": -16.98188,
    "longitude": 29.07802,
    "category": "Lake",
    "subcategory": "Reservoir",
    "featured": false,
    "priority": 50
  },
  {
    "geonameId": 895083,
    "name": "Bikita",
    "latitude": -20.01017,
    "longitude": 31.8935,
    "category": "Mountain",
    "subcategory": "Mountain",
    "featured": false,
    "priority": 50
  },
  {
    "geonameId": 895061,
    "name": "Bindura",
    "latitude": -17.30192,
    "longitude": 31.33056,
    "category": "City",
    "subcategory": "Regional Capital",
    "featured": false,
    "priority": 50
  },
  {
    "geonameId": 895058,
    "name": "Binga",
    "latitude": -19.33333,
    "longitude": 32.78333,
    "category": "Mountain",
    "subcategory": "Mountain",
    "featured": false,
    "priority": 50
  },
  {
    "geonameId": 895053,
    "name": "Bingura",
    "latitude": -20.59151,
    "longitude": 31.51234,
    "category": "Mountain",
    "subcategory": "Mountain",
    "featured": false,
    "priority": 50
  },
  {
    "geonameId": 895033,
    "name": "Birivinge",
    "latitude": -19.9559,
    "longitude": 31.57864,
    "category": "Mountain",
    "subcategory": "Mountain",
    "featured": false,
    "priority": 50
  },
  {
    "geonameId": 7324669,
    "name": "Birkdale Pass",
    "latitude": -16.98344,
    "longitude": 30.77086,
    "category": "Mountain",
    "subcategory": "Mountain Pass",
    "featured": false,
    "priority": 50
  },
  {
    "geonameId": 894990,
    "name": "Blanket Dam",
    "latitude": -20.86667,
    "longitude": 28.95,
    "category": "Lake",
    "subcategory": "Reservoir",
    "featured": false,
    "priority": 50
  },
  {
    "geonameId": 894954,
    "name": "Bodaboda Dam",
    "latitude": -18.86773,
    "longitude": 28.44563,
    "category": "Lake",
    "subcategory": "Reservoir",
    "featured": false,
    "priority": 50
  },
  {
    "geonameId": 894854,
    "name": "Bokai",
    "latitude": -19.80024,
    "longitude": 30.06167,
    "category": "Mountain",
    "subcategory": "Mountain",
    "featured": false,
    "priority": 50
  },
  {
    "geonameId": 894945,
    "name": "Bokosi",
    "latitude": -19.26667,
    "longitude": 32.33333,
    "category": "Mountain",
    "subcategory": "Mountain",
    "featured": false,
    "priority": 50
  },
  {
    "geonameId": 894916,
    "name": "Bonda",
    "latitude": -20.85156,
    "longitude": 30.4438,
    "category": "Mountain",
    "subcategory": "Mountain",
    "featured": false,
    "priority": 50
  },
  {
    "geonameId": 7374463,
    "name": "Bonda Dam",
    "latitude": -20.86094,
    "longitude": 30.41228,
    "category": "Lake",
    "subcategory": "Reservoir",
    "featured": false,
    "priority": 50
  },
  {
    "geonameId": 894909,
    "name": "Bondwi",
    "latitude": -19.28333,
    "longitude": 32.25,
    "category": "Mountain",
    "subcategory": "Mountain",
    "featured": false,
    "priority": 50
  },
  {
    "geonameId": 1105890,
    "name": "Bonisa Dam",
    "latitude": -20.00583,
    "longitude": 28.37667,
    "category": "Lake",
    "subcategory": "Reservoir",
    "featured": false,
    "priority": 50
  },
  {
    "geonameId": 1106548,
    "name": "Borera Dam",
    "latitude": -17.02266,
    "longitude": 31.97817,
    "category": "Lake",
    "subcategory": "Reservoir",
    "featured": false,
    "priority": 50
  },
  {
    "geonameId": 894860,
    "name": "Botera",
    "latitude": -16.52636,
    "longitude": 30.86727,
    "category": "Mountain",
    "subcategory": "Mountain",
    "featured": false,
    "priority": 50
  },
  {
    "geonameId": 894845,
    "name": "Bova Dam",
    "latitude": -18.16226,
    "longitude": 28.93555,
    "category": "Lake",
    "subcategory": "Reservoir",
    "featured": false,
    "priority": 50
  },
  {
    "geonameId": 894837,
    "name": "Boyakura",
    "latitude": -18.13333,
    "longitude": 32.96667,
    "category": "Mountain",
    "subcategory": "Mountain",
    "featured": false,
    "priority": 50
  },
  {
    "geonameId": 894797,
    "name": "Bridal Veil Falls",
    "latitude": -19.8,
    "longitude": 32.85,
    "category": "Waterfall",
    "subcategory": "Waterfall",
    "featured": false,
    "priority": 50
  },
  {
    "geonameId": 894778,
    "name": "Broken Dam",
    "latitude": -19.41667,
    "longitude": 28.85,
    "category": "Lake",
    "subcategory": "Reservoir",
    "featured": false,
    "priority": 50
  },
  {
    "geonameId": 894705,
    "name": "Bukutu",
    "latitude": -18.59412,
    "longitude": 31.82467,
    "category": "Mountain",
    "subcategory": "Mountain",
    "featured": false,
    "priority": 50
  },
  {
    "geonameId": 894703,
    "name": "Bulale",
    "latitude": -20.59515,
    "longitude": 28.44418,
    "category": "Mountain",
    "subcategory": "Mountain",
    "featured": false,
    "priority": 50
  },
  {
    "geonameId": 894701,
    "name": "Bulawayo",
    "latitude": -20.15,
    "longitude": 28.58333,
    "category": "City",
    "subcategory": "Regional Capital",
    "featured": false,
    "priority": 50
  },
  {
    "geonameId": 894690,
    "name": "Bumapuma",
    "latitude": -19.33333,
    "longitude": 32.2,
    "category": "Mountain",
    "subcategory": "Mountain",
    "featured": false,
    "priority": 50
  },
  {
    "geonameId": 7351629,
    "name": "Bumhururu",
    "latitude": -16.67623,
    "longitude": 31.06957,
    "category": "Lake",
    "subcategory": "Lake",
    "featured": false,
    "priority": 50
  },
  {
    "geonameId": 894678,
    "name": "Bunhururu",
    "latitude": -16.69014,
    "longitude": 31.06751,
    "category": "Mountain",
    "subcategory": "Mountain",
    "featured": false,
    "priority": 50
  },
  {
    "geonameId": 7351672,
    "name": "Bunzamombe Dam",
    "latitude": -16.79315,
    "longitude": 31.84711,
    "category": "Lake",
    "subcategory": "Reservoir",
    "featured": false,
    "priority": 50
  },
  {
    "geonameId": 894663,
    "name": "Burayayi Dam",
    "latitude": -20.66667,
    "longitude": 30.23333,
    "category": "Lake",
    "subcategory": "Reservoir",
    "featured": false,
    "priority": 50
  },
  {
    "geonameId": 894612,
    "name": "Buwesunike",
    "latitude": -19.28333,
    "longitude": 32.7,
    "category": "Mountain",
    "subcategory": "Mountain",
    "featured": false,
    "priority": 50
  },
  {
    "geonameId": 894597,
    "name": "Bvundudzi Dam",
    "latitude": -16.7,
    "longitude": 32.16667,
    "category": "Lake",
    "subcategory": "Reservoir",
    "featured": false,
    "priority": 50
  },
  {
    "geonameId": 894589,
    "name": "Bwirawkoromoka Island",
    "latitude": -17.86246,
    "longitude": 27.15332,
    "category": "Island",
    "subcategory": "Island",
    "featured": false,
    "priority": 50
  },
  {
    "geonameId": 894579,
    "name": "Cactus Poort Dam",
    "latitude": -19.05,
    "longitude": 29.78333,
    "category": "Lake",
    "subcategory": "Reservoir",
    "featured": false,
    "priority": 50
  },
  {
    "geonameId": 894497,
    "name": "Castle Beacon",
    "latitude": -19.11667,
    "longitude": 32.73333,
    "category": "Mountain",
    "subcategory": "Peak",
    "featured": false,
    "priority": 50
  },
  {
    "geonameId": 894487,
    "name": "Cataract Island",
    "latitude": -17.92251,
    "longitude": 25.84983,
    "category": "Island",
    "subcategory": "Island",
    "featured": false,
    "priority": 50
  },
  {
    "geonameId": 7324360,
    "name": "Cecilmour",
    "latitude": -16.73726,
    "longitude": 30.24643,
    "category": "Lake",
    "subcategory": "Lake",
    "featured": false,
    "priority": 50
  },
  {
    "geonameId": 894439,
    "name": "Chaba Vlei Dam",
    "latitude": -17.20626,
    "longitude": 28.09808,
    "category": "Lake",
    "subcategory": "Reservoir",
    "featured": false,
    "priority": 50
  },
  {
    "geonameId": 894435,
    "name": "Chabiwi Dam",
    "latitude": -22.1,
    "longitude": 30.53333,
    "category": "Lake",
    "subcategory": "Reservoir",
    "featured": false,
    "priority": 50
  },
  {
    "geonameId": 894423,
    "name": "Chadzire Dam",
    "latitude": -19.37364,
    "longitude": 31.89062,
    "category": "Lake",
    "subcategory": "Reservoir",
    "featured": false,
    "priority": 50
  },
  {
    "geonameId": 894413,
    "name": "Chakari",
    "latitude": -18.06294,
    "longitude": 29.89246,
    "category": "City",
    "subcategory": "City",
    "featured": false,
    "priority": 50
  },
  {
    "geonameId": 894376,
    "name": "Chambarara Dam",
    "latitude": -21.17365,
    "longitude": 29.99562,
    "category": "Lake",
    "subcategory": "Reservoir",
    "featured": false,
    "priority": 50
  },
  {
    "geonameId": 894321,
    "name": "Chapungu Falls",
    "latitude": -18.46667,
    "longitude": 32.76667,
    "category": "Waterfall",
    "subcategory": "Waterfall",
    "featured": false,
    "priority": 50
  },
  {
    "geonameId": 894291,
    "name": "Charumo Dam",
    "latitude": -20.30341,
    "longitude": 31.93986,
    "category": "Lake",
    "subcategory": "Reservoir",
    "featured": false,
    "priority": 50
  },
  {
    "geonameId": 894289,
    "name": "Chasayi Island",
    "latitude": -17.5562,
    "longitude": 27.4456,
    "category": "Island",
    "subcategory": "Island",
    "featured": false,
    "priority": 50
  },
  {
    "geonameId": 894282,
    "name": "Chatikobu Dam",
    "latitude": -19.7038,
    "longitude": 32.0873,
    "category": "Lake",
    "subcategory": "Reservoir",
    "featured": false,
    "priority": 50
  },
  {
    "geonameId": 7341373,
    "name": "Chawangonya Dam",
    "latitude": -17.4533,
    "longitude": 31.84538,
    "category": "Lake",
    "subcategory": "Reservoir",
    "featured": false,
    "priority": 50
  },
  {
    "geonameId": 894239,
    "name": "Chegutu",
    "latitude": -18.13021,
    "longitude": 30.14074,
    "category": "City",
    "subcategory": "City",
    "featured": false,
    "priority": 50
  },
  {
    "geonameId": 894234,
    "name": "Chehongwe",
    "latitude": -20.12412,
    "longitude": 31.595,
    "category": "Mountain",
    "subcategory": "Mountain",
    "featured": false,
    "priority": 50
  },
  {
    "geonameId": 7370385,
    "name": "Chemutsi Dam",
    "latitude": -16.17775,
    "longitude": 29.18526,
    "category": "Lake",
    "subcategory": "Reservoir",
    "featured": false,
    "priority": 50
  },
  {
    "geonameId": 7394371,
    "name": "Chengwena Dam",
    "latitude": -19.80537,
    "longitude": 30.54846,
    "category": "Lake",
    "subcategory": "Reservoir",
    "featured": false,
    "priority": 50
  },
  {
    "geonameId": 894166,
    "name": "Cheoka Dam",
    "latitude": -16.96667,
    "longitude": 29.3,
    "category": "Lake",
    "subcategory": "Reservoir",
    "featured": false,
    "priority": 50
  },
  {
    "geonameId": 7507531,
    "name": "Chepiri Dam",
    "latitude": -19.8083,
    "longitude": 31.90978,
    "category": "Lake",
    "subcategory": "Reservoir",
    "featured": false,
    "priority": 50
  },
  {
    "geonameId": 894161,
    "name": "Chera",
    "latitude": -18.16667,
    "longitude": 32.75,
    "category": "Mountain",
    "subcategory": "Mountain",
    "featured": false,
    "priority": 50
  },
  {
    "geonameId": 893341,
    "name": "Chesimbe",
    "latitude": -20.33256,
    "longitude": 30.47972,
    "category": "Mountain",
    "subcategory": "Mountain",
    "featured": false,
    "priority": 50
  },
  {
    "geonameId": 7370738,
    "name": "Chewarongo Dam",
    "latitude": -20.7845,
    "longitude": 31.73459,
    "category": "Lake",
    "subcategory": "Reservoir",
    "featured": false,
    "priority": 50
  },
  {
    "geonameId": 894089,
    "name": "Chiburi",
    "latitude": -16.73646,
    "longitude": 31.33966,
    "category": "Mountain",
    "subcategory": "Mountain",
    "featured": false,
    "priority": 50
  },
  {
    "geonameId": 7350865,
    "name": "Chidzanya Dam",
    "latitude": -16.50819,
    "longitude": 31.63685,
    "category": "Lake",
    "subcategory": "Reservoir",
    "featured": false,
    "priority": 50
  },
  {
    "geonameId": 7386579,
    "name": "Chigona Dam",
    "latitude": -17.42863,
    "longitude": 32.25182,
    "category": "Lake",
    "subcategory": "Reservoir",
    "featured": false,
    "priority": 50
  },
  {
    "geonameId": 894240,
    "name": "Chigure",
    "latitude": -20.07756,
    "longitude": 31.65301,
    "category": "Mountain",
    "subcategory": "Mountain",
    "featured": false,
    "priority": 50
  },
  {
    "geonameId": 893944,
    "name": "Chihorongwe Dam",
    "latitude": -17.38333,
    "longitude": 28.9,
    "category": "Lake",
    "subcategory": "Reservoir",
    "featured": false,
    "priority": 50
  },
  {
    "geonameId": 894061,
    "name": "Chikonyora",
    "latitude": -16.83225,
    "longitude": 30.85541,
    "category": "Mountain",
    "subcategory": "Mountain",
    "featured": false,
    "priority": 50
  },
  {
    "geonameId": 7405292,
    "name": "Chikowore Dam",
    "latitude": -18.13714,
    "longitude": 30.69564,
    "category": "Lake",
    "subcategory": "Reservoir",
    "featured": false,
    "priority": 50
  },
  {
    "geonameId": 893844,
    "name": "Chikwiriro",
    "latitude": -19.31667,
    "longitude": 32.3,
    "category": "Mountain",
    "subcategory": "Mountain",
    "featured": false,
    "priority": 50
  },
  {
    "geonameId": 893810,
    "name": "Chimanimani National Park",
    "latitude": -19.91667,
    "longitude": 33.01667,
    "category": "Park",
    "subcategory": "Park",
    "featured": false,
    "priority": 50
  },
  {
    "geonameId": 881225,
    "name": "Chimbari",
    "latitude": -20.29567,
    "longitude": 31.13863,
    "category": "Mountain",
    "subcategory": "Mountain",
    "featured": false,
    "priority": 50
  },
  {
    "geonameId": 7386624,
    "name": "Chimhandu Dam",
    "latitude": -17.58657,
    "longitude": 32.48747,
    "category": "Lake",
    "subcategory": "Reservoir",
    "featured": false,
    "priority": 50
  },
  {
    "geonameId": 7371137,
    "name": "Chinamora Dam",
    "latitude": -16.89094,
    "longitude": 29.33911,
    "category": "Lake",
    "subcategory": "Reservoir",
    "featured": false,
    "priority": 50
  },
  {
    "geonameId": 7337103,
    "name": "Chinanga Dam",
    "latitude": -17.06549,
    "longitude": 32.00175,
    "category": "Lake",
    "subcategory": "Reservoir",
    "featured": false,
    "priority": 50
  },
  {
    "geonameId": 893741,
    "name": "Chinangura",
    "latitude": -18.612,
    "longitude": 32.3235,
    "category": "Mountain",
    "subcategory": "Mountain",
    "featured": false,
    "priority": 50
  },
  {
    "geonameId": 893720,
    "name": "Chingahobe Dam",
    "latitude": -18.6,
    "longitude": 26.11667,
    "category": "Lake",
    "subcategory": "Reservoir",
    "featured": false,
    "priority": 50
  },
  {
    "geonameId": 7385058,
    "name": "Chingaruru Dam",
    "latitude": -17.0911,
    "longitude": 32.26145,
    "category": "Lake",
    "subcategory": "Reservoir",
    "featured": false,
    "priority": 50
  },
  {
    "geonameId": 7325342,
    "name": "Chingdoma Falls",
    "latitude": -20.09572,
    "longitude": 31.70224,
    "category": "Waterfall",
    "subcategory": "Waterfall",
    "featured": false,
    "priority": 50
  },
  {
    "geonameId": 893697,
    "name": "Chinhoyi",
    "latitude": -17.36667,
    "longitude": 30.2,
    "category": "City",
    "subcategory": "Regional Capital",
    "featured": false,
    "priority": 50
  },
  {
    "geonameId": 893684,
    "name": "Chinodza",
    "latitude": -18.24434,
    "longitude": 31.76448,
    "category": "Mountain",
    "subcategory": "Mountain",
    "featured": false,
    "priority": 50
  },
  {
    "geonameId": 893675,
    "name": "Chinukani",
    "latitude": -19.95,
    "longitude": 32.78333,
    "category": "Mountain",
    "subcategory": "Mountain",
    "featured": false,
    "priority": 50
  },
  {
    "geonameId": 7350300,
    "name": "Chinyabako Dam",
    "latitude": -20.30175,
    "longitude": 31.54242,
    "category": "Lake",
    "subcategory": "Reservoir",
    "featured": false,
    "priority": 50
  },
  {
    "geonameId": 893669,
    "name": "Chinyadombwe",
    "latitude": -19.2,
    "longitude": 32.6,
    "category": "Mountain",
    "subcategory": "Mountain",
    "featured": false,
    "priority": 50
  },
  {
    "geonameId": 893664,
    "name": "Chinyamagona",
    "latitude": -20.05565,
    "longitude": 31.67984,
    "category": "Mountain",
    "subcategory": "Mountain",
    "featured": false,
    "priority": 50
  },
  {
    "geonameId": 893662,
    "name": "Chinyamagwikwi Dam",
    "latitude": -20.15379,
    "longitude": 31.87717,
    "category": "Lake",
    "subcategory": "Reservoir",
    "featured": false,
    "priority": 50
  },
  {
    "geonameId": 893653,
    "name": "Chinyamariro",
    "latitude": -18.75,
    "longitude": 32.83333,
    "category": "Mountain",
    "subcategory": "Mountain",
    "featured": false,
    "priority": 50
  },
  {
    "geonameId": 893643,
    "name": "Chinyamasese",
    "latitude": -19.26763,
    "longitude": 32.09332,
    "category": "Mountain",
    "subcategory": "Mountain",
    "featured": false,
    "priority": 50
  },
  {
    "geonameId": 893648,
    "name": "Chinyamaura",
    "latitude": -17.96607,
    "longitude": 32.7855,
    "category": "Mountain",
    "subcategory": "Mountain",
    "featured": false,
    "priority": 50
  },
  {
    "geonameId": 893642,
    "name": "Chinyamunda",
    "latitude": -19.3,
    "longitude": 32.76667,
    "category": "Mountain",
    "subcategory": "Mountain",
    "featured": false,
    "priority": 50
  },
  {
    "geonameId": 893637,
    "name": "Chinyanzunda",
    "latitude": -18.83066,
    "longitude": 32.63767,
    "category": "Mountain",
    "subcategory": "Mountain",
    "featured": false,
    "priority": 50
  },
  {
    "geonameId": 893634,
    "name": "Chinyarima",
    "latitude": -19.3,
    "longitude": 32.2,
    "category": "Mountain",
    "subcategory": "Mountain",
    "featured": false,
    "priority": 50
  },
  {
    "geonameId": 893633,
    "name": "Chinyasikana",
    "latitude": -19.48333,
    "longitude": 32.28333,
    "category": "Mountain",
    "subcategory": "Mountain",
    "featured": false,
    "priority": 50
  },
  {
    "geonameId": 893632,
    "name": "Chinyazurwi",
    "latitude": -20.53694,
    "longitude": 32.08329,
    "category": "Mountain",
    "subcategory": "Mountain",
    "featured": false,
    "priority": 50
  },
  {
    "geonameId": 893628,
    "name": "Chinyenyawana",
    "latitude": -18.61068,
    "longitude": 31.87734,
    "category": "Mountain",
    "subcategory": "Mountain",
    "featured": false,
    "priority": 50
  },
  {
    "geonameId": 7386625,
    "name": "Chinyerere Dam",
    "latitude": -17.55361,
    "longitude": 32.47508,
    "category": "Lake",
    "subcategory": "Reservoir",
    "featured": false,
    "priority": 50
  },
  {
    "geonameId": 7394378,
    "name": "Chinyuni Dam",
    "latitude": -19.84687,
    "longitude": 30.57082,
    "category": "Lake",
    "subcategory": "Reservoir",
    "featured": false,
    "priority": 50
  },
  {
    "geonameId": 893595,
    "name": "Chipango",
    "latitude": -18.62718,
    "longitude": 31.80051,
    "category": "Mountain",
    "subcategory": "Mountain",
    "featured": false,
    "priority": 50
  },
  {
    "geonameId": 893584,
    "name": "Chiparamhembwe",
    "latitude": -16.90205,
    "longitude": 31.08189,
    "category": "Mountain",
    "subcategory": "Mountain",
    "featured": false,
    "priority": 50
  },
  {
    "geonameId": 893581,
    "name": "Chipawe",
    "latitude": -17.7784,
    "longitude": 32.72124,
    "category": "Mountain",
    "subcategory": "Mountain",
    "featured": false,
    "priority": 50
  },
  {
    "geonameId": 893572,
    "name": "Chipesa",
    "latitude": -18.411,
    "longitude": 31.68517,
    "category": "Mountain",
    "subcategory": "Mountain",
    "featured": false,
    "priority": 50
  },
  {
    "geonameId": 7386628,
    "name": "Chipfiko Dam",
    "latitude": -17.58212,
    "longitude": 32.4165,
    "category": "Lake",
    "subcategory": "Reservoir",
    "featured": false,
    "priority": 50
  },
  {
    "geonameId": 893564,
    "name": "Chipfuti",
    "latitude": -19.56667,
    "longitude": 32.58333,
    "category": "Mountain",
    "subcategory": "Mountain",
    "featured": false,
    "priority": 50
  },
  {
    "geonameId": 893557,
    "name": "Chipindaumwe",
    "latitude": -19.35,
    "longitude": 32.61667,
    "category": "Mountain",
    "subcategory": "Mountain",
    "featured": false,
    "priority": 50
  },
  {
    "geonameId": 893554,
    "name": "Chipindirwe",
    "latitude": -19.53333,
    "longitude": 32.3,
    "category": "Mountain",
    "subcategory": "Mountain",
    "featured": false,
    "priority": 50
  },
  {
    "geonameId": 893549,
    "name": "Chipinge",
    "latitude": -20.18833,
    "longitude": 32.62365,
    "category": "City",
    "subcategory": "City",
    "featured": false,
    "priority": 50
  },
  {
    "geonameId": 7350667,
    "name": "Chipokoteke Dam",
    "latitude": -16.54753,
    "longitude": 31.7237,
    "category": "Lake",
    "subcategory": "Reservoir",
    "featured": false,
    "priority": 50
  },
  {
    "geonameId": 893519,
    "name": "Chips",
    "latitude": -18.5,
    "longitude": 32.61667,
    "category": "Mountain",
    "subcategory": "Mountain",
    "featured": false,
    "priority": 50
  },
  {
    "geonameId": 893510,
    "name": "Chipungu Falls",
    "latitude": -18.46382,
    "longitude": 32.75852,
    "category": "Waterfall",
    "subcategory": "Waterfall",
    "featured": false,
    "priority": 50
  },
  {
    "geonameId": 7325347,
    "name": "Chiputica Dam",
    "latitude": -20.03879,
    "longitude": 32.13639,
    "category": "Lake",
    "subcategory": "Reservoir",
    "featured": false,
    "priority": 50
  },
  {
    "geonameId": 893505,
    "name": "Chirambahomwe",
    "latitude": -19.15,
    "longitude": 32.38333,
    "category": "Mountain",
    "subcategory": "Mountain",
    "featured": false,
    "priority": 50
  },
  {
    "geonameId": 893504,
    "name": "Chirambakadoma",
    "latitude": -15.98333,
    "longitude": 29.93333,
    "category": "Mountain",
    "subcategory": "Mountain",
    "featured": false,
    "priority": 50
  },
  {
    "geonameId": 894374,
    "name": "Chirambapota",
    "latitude": -20.0728,
    "longitude": 31.58249,
    "category": "Mountain",
    "subcategory": "Mountain",
    "featured": false,
    "priority": 50
  },
  {
    "geonameId": 893500,
    "name": "Chiramin Dam",
    "latitude": -20.86667,
    "longitude": 30.41667,
    "category": "Lake",
    "subcategory": "Reservoir",
    "featured": false,
    "priority": 50
  },
  {
    "geonameId": 893485,
    "name": "Chiredzi",
    "latitude": -21.05,
    "longitude": 31.66667,
    "category": "City",
    "subcategory": "City",
    "featured": false,
    "priority": 50
  },
  {
    "geonameId": 894226,
    "name": "Chiremba",
    "latitude": -20.10782,
    "longitude": 32.01474,
    "category": "Mountain",
    "subcategory": "Mountain",
    "featured": false,
    "priority": 50
  },
  {
    "geonameId": 893116,
    "name": "Chirgwa",
    "latitude": -17.29338,
    "longitude": 32.81895,
    "category": "Mountain",
    "subcategory": "Mountain",
    "featured": false,
    "priority": 50
  },
  {
    "geonameId": 893468,
    "name": "Chiri",
    "latitude": -18.2,
    "longitude": 32.96667,
    "category": "Mountain",
    "subcategory": "Mountain",
    "featured": false,
    "priority": 50
  },
  {
    "geonameId": 893465,
    "name": "Chiridza",
    "latitude": -16.37056,
    "longitude": 31.65257,
    "category": "Mountain",
    "subcategory": "Mountain",
    "featured": false,
    "priority": 50
  },
  {
    "geonameId": 893458,
    "name": "Chirimanyimo",
    "latitude": -17.84699,
    "longitude": 32.79392,
    "category": "Mountain",
    "subcategory": "Mountain",
    "featured": false,
    "priority": 50
  },
  {
    "geonameId": 893453,
    "name": "Chirimutsitu",
    "latitude": -18.66267,
    "longitude": 32.25,
    "category": "Mountain",
    "subcategory": "Mountain",
    "featured": false,
    "priority": 50
  },
  {
    "geonameId": 893450,
    "name": "Chirinda",
    "latitude": -19.23333,
    "longitude": 32.23333,
    "category": "Mountain",
    "subcategory": "Mountain",
    "featured": false,
    "priority": 50
  },
  {
    "geonameId": 893447,
    "name": "Chirinde",
    "latitude": -16.28333,
    "longitude": 28.83333,
    "category": "Island",
    "subcategory": "Island",
    "featured": false,
    "priority": 50
  },
  {
    "geonameId": 893427,
    "name": "Chironga",
    "latitude": -18.50332,
    "longitude": 31.98967,
    "category": "Mountain",
    "subcategory": "Mountain",
    "featured": false,
    "priority": 50
  },
  {
    "geonameId": 893418,
    "name": "Chirorwe",
    "latitude": -19.86811,
    "longitude": 31.93045,
    "category": "Mountain",
    "subcategory": "Mountain",
    "featured": false,
    "priority": 50
  },
  {
    "geonameId": 7324321,
    "name": "Chiruka Dam",
    "latitude": -16.61714,
    "longitude": 30.49387,
    "category": "Lake",
    "subcategory": "Reservoir",
    "featured": false,
    "priority": 50
  },
  {
    "geonameId": 7347415,
    "name": "Chirumba Dam",
    "latitude": -20.07404,
    "longitude": 31.62655,
    "category": "Lake",
    "subcategory": "Reservoir",
    "featured": false,
    "priority": 50
  },
  {
    "geonameId": 893404,
    "name": "Chirumbira",
    "latitude": -17.05,
    "longitude": 28.61667,
    "category": "Mountain",
    "subcategory": "Mountain",
    "featured": false,
    "priority": 50
  },
  {
    "geonameId": 893388,
    "name": "Chirviriga Falls",
    "latitude": -21.3,
    "longitude": 31.91667,
    "category": "Waterfall",
    "subcategory": "Waterfall",
    "featured": false,
    "priority": 50
  },
  {
    "geonameId": 7416098,
    "name": "Chirwe Falls",
    "latitude": -18.25171,
    "longitude": 32.83214,
    "category": "Waterfall",
    "subcategory": "Waterfall",
    "featured": false,
    "priority": 50
  },
  {
    "geonameId": 893372,
    "name": "Chisasati Island",
    "latitude": -17.86787,
    "longitude": 27.22485,
    "category": "Island",
    "subcategory": "Island",
    "featured": false,
    "priority": 50
  },
  {
    "geonameId": 893370,
    "name": "Chisava",
    "latitude": -20.42684,
    "longitude": 30.54019,
    "category": "Mountain",
    "subcategory": "Mountain",
    "featured": false,
    "priority": 50
  },
  {
    "geonameId": 893359,
    "name": "Chishakwe",
    "latitude": -19.18333,
    "longitude": 32.66667,
    "category": "Mountain",
    "subcategory": "Mountain",
    "featured": false,
    "priority": 50
  },
  {
    "geonameId": 893360,
    "name": "Chishayavhudzi",
    "latitude": -16.97876,
    "longitude": 31.07275,
    "category": "Mountain",
    "subcategory": "Mountain",
    "featured": false,
    "priority": 50
  },
  {
    "geonameId": 893345,
    "name": "Chishuwi",
    "latitude": -19.25,
    "longitude": 32.21667,
    "category": "Mountain",
    "subcategory": "Mountain",
    "featured": false,
    "priority": 50
  },
  {
    "geonameId": 7523773,
    "name": "Chitamba Dam",
    "latitude": -20.55932,
    "longitude": 28.42536,
    "category": "Lake",
    "subcategory": "Reservoir",
    "featured": false,
    "priority": 50
  },
  {
    "geonameId": 893295,
    "name": "Chitarire",
    "latitude": -17.7994,
    "longitude": 27.49392,
    "category": "Mountain",
    "subcategory": "Mountain",
    "featured": false,
    "priority": 50
  },
  {
    "geonameId": 893289,
    "name": "Chitemamuro",
    "latitude": -19.61667,
    "longitude": 32.83333,
    "category": "Mountain",
    "subcategory": "Mountain",
    "featured": false,
    "priority": 50
  },
  {
    "geonameId": 893279,
    "name": "Chitenge",
    "latitude": -17.26029,
    "longitude": 32.00909,
    "category": "Mountain",
    "subcategory": "Mountain",
    "featured": false,
    "priority": 50
  },
  {
    "geonameId": 893260,
    "name": "Chito",
    "latitude": -19.1,
    "longitude": 32.58333,
    "category": "Mountain",
    "subcategory": "Mountain",
    "featured": false,
    "priority": 50
  },
  {
    "geonameId": 893259,
    "name": "Chitobwe Dam",
    "latitude": -19.37996,
    "longitude": 31.75048,
    "category": "Lake",
    "subcategory": "Reservoir",
    "featured": false,
    "priority": 50
  },
  {
    "geonameId": 893254,
    "name": "Chitomba",
    "latitude": -16.91667,
    "longitude": 32.75,
    "category": "Mountain",
    "subcategory": "Mountain",
    "featured": false,
    "priority": 50
  },
  {
    "geonameId": 893247,
    "name": "Chitonzva",
    "latitude": -16.91282,
    "longitude": 31.0568,
    "category": "Mountain",
    "subcategory": "Mountain",
    "featured": false,
    "priority": 50
  },
  {
    "geonameId": 7386584,
    "name": "Chitora Dam",
    "latitude": -17.40638,
    "longitude": 32.18278,
    "category": "Lake",
    "subcategory": "Reservoir",
    "featured": false,
    "priority": 50
  },
  {
    "geonameId": 893233,
    "name": "Chitove Falls",
    "latitude": -21.31667,
    "longitude": 32.25,
    "category": "Waterfall",
    "subcategory": "Waterfall",
    "featured": false,
    "priority": 50
  },
  {
    "geonameId": 893223,
    "name": "Chitsatsa",
    "latitude": -19.43333,
    "longitude": 32.71667,
    "category": "Mountain",
    "subcategory": "Mountain",
    "featured": false,
    "priority": 50
  },
  {
    "geonameId": 7350665,
    "name": "Chitsatu Dam",
    "latitude": -16.51457,
    "longitude": 31.79503,
    "category": "Lake",
    "subcategory": "Reservoir",
    "featured": false,
    "priority": 50
  },
  {
    "geonameId": 1106542,
    "name": "Chitungwiza",
    "latitude": -18.01274,
    "longitude": 31.07555,
    "category": "City",
    "subcategory": "City",
    "featured": false,
    "priority": 50
  },
  {
    "geonameId": 893207,
    "name": "Chiumburukwa",
    "latitude": -17.00581,
    "longitude": 31.38001,
    "category": "Mountain",
    "subcategory": "Mountain",
    "featured": false,
    "priority": 50
  },
  {
    "geonameId": 893199,
    "name": "Chiuya",
    "latitude": -19.2,
    "longitude": 32.66667,
    "category": "Mountain",
    "subcategory": "Mountain",
    "featured": false,
    "priority": 50
  },
  {
    "geonameId": 893197,
    "name": "Chivabi",
    "latitude": -19.96883,
    "longitude": 31.73189,
    "category": "Mountain",
    "subcategory": "Mountain",
    "featured": false,
    "priority": 50
  },
  {
    "geonameId": 7346787,
    "name": "Chivake Dam",
    "latitude": -17.70675,
    "longitude": 31.75083,
    "category": "Lake",
    "subcategory": "Reservoir",
    "featured": false,
    "priority": 50
  },
  {
    "geonameId": 893186,
    "name": "Chivaraidze",
    "latitude": -19.16667,
    "longitude": 32.36667,
    "category": "Mountain",
    "subcategory": "Mountain",
    "featured": false,
    "priority": 50
  },
  {
    "geonameId": 893172,
    "name": "Chivhu",
    "latitude": -19.02112,
    "longitude": 30.89218,
    "category": "City",
    "subcategory": "City",
    "featured": false,
    "priority": 50
  },
  {
    "geonameId": 893168,
    "name": "Chivirira Falls",
    "latitude": -21.2,
    "longitude": 32.3,
    "category": "Waterfall",
    "subcategory": "Waterfall",
    "featured": false,
    "priority": 50
  },
  {
    "geonameId": 893160,
    "name": "Chivumburu",
    "latitude": -21.33333,
    "longitude": 31.26667,
    "category": "Mountain",
    "subcategory": "Mountain",
    "featured": false,
    "priority": 50
  },
  {
    "geonameId": 893155,
    "name": "Chivuti",
    "latitude": -18.43051,
    "longitude": 32.24401,
    "category": "Mountain",
    "subcategory": "Mountain",
    "featured": false,
    "priority": 50
  },
  {
    "geonameId": 7371150,
    "name": "Chiwane Dam",
    "latitude": -16.86267,
    "longitude": 29.31571,
    "category": "Lake",
    "subcategory": "Reservoir",
    "featured": false,
    "priority": 50
  },
  {
    "geonameId": 893139,
    "name": "Chiwara Dam",
    "latitude": -16.75861,
    "longitude": 29.43947,
    "category": "Lake",
    "subcategory": "Reservoir",
    "featured": false,
    "priority": 50
  },
  {
    "geonameId": 893129,
    "name": "Chiwe",
    "latitude": -16.87539,
    "longitude": 30.54284,
    "category": "Mountain",
    "subcategory": "Mountain",
    "featured": false,
    "priority": 50
  },
  {
    "geonameId": 893126,
    "name": "Chiwenga Dam",
    "latitude": -16.76883,
    "longitude": 31.7843,
    "category": "Lake",
    "subcategory": "Reservoir",
    "featured": false,
    "priority": 50
  },
  {
    "geonameId": 893111,
    "name": "Chiwira",
    "latitude": -18.47733,
    "longitude": 32.42466,
    "category": "Mountain",
    "subcategory": "Mountain",
    "featured": false,
    "priority": 50
  },
  {
    "geonameId": 893088,
    "name": "Chizarira",
    "latitude": -17.7574,
    "longitude": 27.60505,
    "category": "Mountain",
    "subcategory": "Mountain",
    "featured": false,
    "priority": 50
  },
  {
    "geonameId": 10242554,
    "name": "Chizarira National Park",
    "latitude": -17.75,
    "longitude": 28.16667,
    "category": "Park",
    "subcategory": "Park",
    "featured": false,
    "priority": 50
  },
  {
    "geonameId": 893073,
    "name": "Chizunzu",
    "latitude": -19.6,
    "longitude": 32.75,
    "category": "Mountain",
    "subcategory": "Mountain",
    "featured": false,
    "priority": 50
  },
  {
    "geonameId": 880893,
    "name": "Chizyungulukwa Island",
    "latitude": -17.79856,
    "longitude": 27.16847,
    "category": "Island",
    "subcategory": "Island",
    "featured": false,
    "priority": 50
  },
  {
    "geonameId": 893046,
    "name": "Chomukonde",
    "latitude": -20.77038,
    "longitude": 30.85957,
    "category": "Mountain",
    "subcategory": "Mountain",
    "featured": false,
    "priority": 50
  },
  {
    "geonameId": 893051,
    "name": "Chomukoto",
    "latitude": -20.74622,
    "longitude": 30.03892,
    "category": "Mountain",
    "subcategory": "Mountain",
    "featured": false,
    "priority": 50
  },
  {
    "geonameId": 893027,
    "name": "Chongoma Dam",
    "latitude": -16.58333,
    "longitude": 31.96667,
    "category": "Lake",
    "subcategory": "Reservoir",
    "featured": false,
    "priority": 50
  },
  {
    "geonameId": 893018,
    "name": "Chovakaranga Dam",
    "latitude": -16.72996,
    "longitude": 31.81691,
    "category": "Lake",
    "subcategory": "Reservoir",
    "featured": false,
    "priority": 50
  },
  {
    "geonameId": 7374447,
    "name": "Christmas Island",
    "latitude": -17.14341,
    "longitude": 27.81966,
    "category": "Island",
    "subcategory": "Island",
    "featured": false,
    "priority": 50
  },
  {
    "geonameId": 893010,
    "name": "Christmas Pass",
    "latitude": -18.91667,
    "longitude": 32.63333,
    "category": "Mountain",
    "subcategory": "Mountain Pass",
    "featured": false,
    "priority": 50
  },
  {
    "geonameId": 893000,
    "name": "Chundu Island",
    "latitude": -17.8,
    "longitude": 25.66667,
    "category": "Island",
    "subcategory": "Island",
    "featured": false,
    "priority": 50
  },
  {
    "geonameId": 892946,
    "name": "Cleveland Dam",
    "latitude": -17.83791,
    "longitude": 31.15112,
    "category": "Lake",
    "subcategory": "Reservoir",
    "featured": false,
    "priority": 50
  },
  {
    "geonameId": 7325163,
    "name": "Compound Dam",
    "latitude": -21.30679,
    "longitude": 30.27576,
    "category": "Lake",
    "subcategory": "Reservoir",
    "featured": false,
    "priority": 50
  },
  {
    "geonameId": 892804,
    "name": "Cotopaxi",
    "latitude": -20.18588,
    "longitude": 30.77075,
    "category": "Mountain",
    "subcategory": "Mountain",
    "featured": false,
    "priority": 50
  },
  {
    "geonameId": 7351710,
    "name": "Cowley",
    "latitude": -16.94051,
    "longitude": 31.301,
    "category": "Lake",
    "subcategory": "Lake",
    "featured": false,
    "priority": 50
  },
  {
    "geonameId": 892770,
    "name": "Criterion Dam",
    "latitude": -20.28333,
    "longitude": 28.61667,
    "category": "Lake",
    "subcategory": "Reservoir",
    "featured": false,
    "priority": 50
  },
  {
    "geonameId": 892683,
    "name": "Damba Dam",
    "latitude": -19.13333,
    "longitude": 29.31667,
    "category": "Lake",
    "subcategory": "Reservoir",
    "featured": false,
    "priority": 50
  },
  {
    "geonameId": 892678,
    "name": "Dambanzara",
    "latitude": -16.83345,
    "longitude": 31.22251,
    "category": "Mountain",
    "subcategory": "Mountain",
    "featured": false,
    "priority": 50
  },
  {
    "geonameId": 892665,
    "name": "Dana",
    "latitude": -18.52916,
    "longitude": 32.18502,
    "category": "Mountain",
    "subcategory": "Mountain",
    "featured": false,
    "priority": 50
  },
  {
    "geonameId": 892632,
    "name": "Dangamvura",
    "latitude": -19.01731,
    "longitude": 32.61683,
    "category": "Mountain",
    "subcategory": "Mountain",
    "featured": false,
    "priority": 50
  },
  {
    "geonameId": 892628,
    "name": "Dangamvuri",
    "latitude": -18.73834,
    "longitude": 31.59868,
    "category": "Mountain",
    "subcategory": "Mountain",
    "featured": false,
    "priority": 50
  },
  {
    "geonameId": 892625,
    "name": "Dangare",
    "latitude": -19.06667,
    "longitude": 32.65,
    "category": "Mountain",
    "subcategory": "Mountain",
    "featured": false,
    "priority": 50
  },
  {
    "geonameId": 892615,
    "name": "Danza Dam",
    "latitude": -16.78033,
    "longitude": 31.95156,
    "category": "Lake",
    "subcategory": "Reservoir",
    "featured": false,
    "priority": 50
  },
  {
    "geonameId": 892595,
    "name": "Dassie Island",
    "latitude": -17.88333,
    "longitude": 30.8,
    "category": "Island",
    "subcategory": "Island",
    "featured": false,
    "priority": 50
  },
  {
    "geonameId": 892585,
    "name": "Davora",
    "latitude": -20.1349,
    "longitude": 32.72268,
    "category": "Mountain",
    "subcategory": "Mountain",
    "featured": false,
    "priority": 50
  },
  {
    "geonameId": 892549,
    "name": "Deka Dam",
    "latitude": -19.99089,
    "longitude": 28.84406,
    "category": "Lake",
    "subcategory": "Reservoir",
    "featured": false,
    "priority": 50
  },
  {
    "geonameId": 892522,
    "name": "Dema",
    "latitude": -19.48333,
    "longitude": 32.28333,
    "category": "Mountain",
    "subcategory": "Mountain",
    "featured": false,
    "priority": 50
  },
  {
    "geonameId": 892518,
    "name": "Demba",
    "latitude": -20.40012,
    "longitude": 31.58826,
    "category": "Mountain",
    "subcategory": "Mountain",
    "featured": false,
    "priority": 50
  },
  {
    "geonameId": 892508,
    "name": "Demera",
    "latitude": -18.23333,
    "longitude": 32.75,
    "category": "Mountain",
    "subcategory": "Mountain",
    "featured": false,
    "priority": 50
  },
  {
    "geonameId": 892492,
    "name": "Denda",
    "latitude": -19.25,
    "longitude": 32.75,
    "category": "Mountain",
    "subcategory": "Mountain",
    "featured": false,
    "priority": 50
  },
  {
    "geonameId": 7371001,
    "name": "Denga Dam",
    "latitude": -20.10421,
    "longitude": 30.40449,
    "category": "Lake",
    "subcategory": "Reservoir",
    "featured": false,
    "priority": 50
  },
  {
    "geonameId": 892475,
    "name": "Densva",
    "latitude": -18.80517,
    "longitude": 32.07117,
    "category": "Mountain",
    "subcategory": "Mountain",
    "featured": false,
    "priority": 50
  },
  {
    "geonameId": 892437,
    "name": "Deteema Dam",
    "latitude": -18.66667,
    "longitude": 26.15,
    "category": "Lake",
    "subcategory": "Reservoir",
    "featured": false,
    "priority": 50
  },
  {
    "geonameId": 9958202,
    "name": "Devil's Cataract",
    "latitude": -17.92276,
    "longitude": 25.84754,
    "category": "Waterfall",
    "subcategory": "Waterfall",
    "featured": false,
    "priority": 50
  },
  {
    "geonameId": 7336761,
    "name": "Dikitira Dam",
    "latitude": -17.00138,
    "longitude": 31.51711,
    "category": "Lake",
    "subcategory": "Reservoir",
    "featured": false,
    "priority": 50
  },
  {
    "geonameId": 892349,
    "name": "Dimba",
    "latitude": -18.05,
    "longitude": 31.51667,
    "category": "Mountain",
    "subcategory": "Mountain",
    "featured": false,
    "priority": 50
  },
  {
    "geonameId": 892343,
    "name": "Dindi Dam",
    "latitude": -16.88333,
    "longitude": 32.1,
    "category": "Lake",
    "subcategory": "Reservoir",
    "featured": false,
    "priority": 50
  },
  {
    "geonameId": 892337,
    "name": "Dindiri",
    "latitude": -19.11667,
    "longitude": 32.16667,
    "category": "Mountain",
    "subcategory": "Mountain",
    "featured": false,
    "priority": 50
  },
  {
    "geonameId": 892299,
    "name": "Dokodoko",
    "latitude": -19.66667,
    "longitude": 32.51667,
    "category": "Mountain",
    "subcategory": "Mountain",
    "featured": false,
    "priority": 50
  },
  {
    "geonameId": 7371148,
    "name": "Dombo Dam",
    "latitude": -16.88913,
    "longitude": 29.39234,
    "category": "Lake",
    "subcategory": "Reservoir",
    "featured": false,
    "priority": 50
  },
  {
    "geonameId": 892264,
    "name": "Dombo-Re-Manyawa",
    "latitude": -17.93297,
    "longitude": 32.83598,
    "category": "Mountain",
    "subcategory": "Mountain",
    "featured": false,
    "priority": 50
  },
  {
    "geonameId": 892280,
    "name": "Domboshava",
    "latitude": -20.43153,
    "longitude": 30.47052,
    "category": "Mountain",
    "subcategory": "Mountain",
    "featured": false,
    "priority": 50
  },
  {
    "geonameId": 892278,
    "name": "Dombowiro",
    "latitude": -16.96775,
    "longitude": 31.2657,
    "category": "Mountain",
    "subcategory": "Mountain",
    "featured": false,
    "priority": 50
  },
  {
    "geonameId": 892223,
    "name": "Dondori",
    "latitude": -17.00556,
    "longitude": 31.29833,
    "category": "Mountain",
    "subcategory": "Mountain",
    "featured": false,
    "priority": 50
  },
  {
    "geonameId": 892220,
    "name": "Donga Dam",
    "latitude": -16.51354,
    "longitude": 31.68466,
    "category": "Lake",
    "subcategory": "Reservoir",
    "featured": false,
    "priority": 50
  },
  {
    "geonameId": 892205,
    "name": "Donodzi",
    "latitude": -19.93658,
    "longitude": 31.79753,
    "category": "Mountain",
    "subcategory": "Mountain",
    "featured": false,
    "priority": 50
  },
  {
    "geonameId": 892164,
    "name": "Doroguru",
    "latitude": -20.27287,
    "longitude": 31.05285,
    "category": "Mountain",
    "subcategory": "Mountain",
    "featured": false,
    "priority": 50
  },
  {
    "geonameId": 892122,
    "name": "Dove Dam",
    "latitude": -20.08514,
    "longitude": 31.89938,
    "category": "Lake",
    "subcategory": "Reservoir",
    "featured": false,
    "priority": 50
  },
  {
    "geonameId": 892410,
    "name": "Dovuli",
    "latitude": -20.2266,
    "longitude": 30.83146,
    "category": "Mountain",
    "subcategory": "Mountain",
    "featured": false,
    "priority": 50
  },
  {
    "geonameId": 7386648,
    "name": "Duku Dam",
    "latitude": -17.6188,
    "longitude": 32.43382,
    "category": "Lake",
    "subcategory": "Reservoir",
    "featured": false,
    "priority": 50
  },
  {
    "geonameId": 892061,
    "name": "Dula",
    "latitude": -20.51667,
    "longitude": 28.71667,
    "category": "Mountain",
    "subcategory": "Mountain",
    "featured": false,
    "priority": 50
  },
  {
    "geonameId": 892041,
    "name": "Dumbinikwa Dam",
    "latitude": -19.76679,
    "longitude": 32.04843,
    "category": "Lake",
    "subcategory": "Reservoir",
    "featured": false,
    "priority": 50
  },
  {
    "geonameId": 892036,
    "name": "Dumbwe Falls",
    "latitude": -21.31667,
    "longitude": 32.1,
    "category": "Waterfall",
    "subcategory": "Waterfall",
    "featured": false,
    "priority": 50
  },
  {
    "geonameId": 892011,
    "name": "Dungu Dam",
    "latitude": -19.90228,
    "longitude": 31.58586,
    "category": "Lake",
    "subcategory": "Reservoir",
    "featured": false,
    "priority": 50
  },
  {
    "geonameId": 7370736,
    "name": "Duru Dam",
    "latitude": -20.72823,
    "longitude": 31.69375,
    "category": "Lake",
    "subcategory": "Reservoir",
    "featured": false,
    "priority": 50
  },
  {
    "geonameId": 891963,
    "name": "Dutchmans Pool Dam",
    "latitude": -18.86667,
    "longitude": 29.86667,
    "category": "Lake",
    "subcategory": "Reservoir",
    "featured": false,
    "priority": 50
  },
  {
    "geonameId": 7394306,
    "name": "Dzamabande Dam",
    "latitude": -19.80366,
    "longitude": 30.13363,
    "category": "Lake",
    "subcategory": "Reservoir",
    "featured": false,
    "priority": 50
  },
  {
    "geonameId": 891938,
    "name": "Dzibadziba Dam",
    "latitude": -18.94888,
    "longitude": 28.09251,
    "category": "Lake",
    "subcategory": "Reservoir",
    "featured": false,
    "priority": 50
  },
  {
    "geonameId": 891934,
    "name": "Dzike",
    "latitude": -19.8,
    "longitude": 32.56667,
    "category": "Mountain",
    "subcategory": "Peak",
    "featured": false,
    "priority": 50
  },
  {
    "geonameId": 891915,
    "name": "Dzwire",
    "latitude": -16.75,
    "longitude": 32.75,
    "category": "Mountain",
    "subcategory": "Mountain",
    "featured": false,
    "priority": 50
  },
  {
    "geonameId": 7389073,
    "name": "Egangeni Dam",
    "latitude": -18.85447,
    "longitude": 28.39982,
    "category": "Lake",
    "subcategory": "Reservoir",
    "featured": false,
    "priority": 50
  },
  {
    "geonameId": 7389442,
    "name": "Egodini Dam",
    "latitude": -18.91429,
    "longitude": 28.39142,
    "category": "Lake",
    "subcategory": "Reservoir",
    "featured": false,
    "priority": 50
  },
  {
    "geonameId": 891838,
    "name": "Ejenja",
    "latitude": -18.74351,
    "longitude": 32.54167,
    "category": "Mountain",
    "subcategory": "Mountain",
    "featured": false,
    "priority": 50
  },
  {
    "geonameId": 7374446,
    "name": "Elephant Island",
    "latitude": -17.14341,
    "longitude": 27.83058,
    "category": "Island",
    "subcategory": "Island",
    "featured": false,
    "priority": 50
  },
  {
    "geonameId": 891779,
    "name": "Embalabala",
    "latitude": -20.36667,
    "longitude": 29.06667,
    "category": "Mountain",
    "subcategory": "Peak",
    "featured": false,
    "priority": 50
  },
  {
    "geonameId": 891706,
    "name": "Esamavikana Dam",
    "latitude": -18.71667,
    "longitude": 28.36667,
    "category": "Lake",
    "subcategory": "Reservoir",
    "featured": false,
    "priority": 50
  },
  {
    "geonameId": 891704,
    "name": "Esegatshali Dam",
    "latitude": -18.72792,
    "longitude": 28.32818,
    "category": "Lake",
    "subcategory": "Reservoir",
    "featured": false,
    "priority": 50
  },
  {
    "geonameId": 891703,
    "name": "Esegwaai Dam",
    "latitude": -18.91667,
    "longitude": 28.38333,
    "category": "Lake",
    "subcategory": "Reservoir",
    "featured": false,
    "priority": 50
  },
  {
    "geonameId": 891698,
    "name": "Esikanduna Dam",
    "latitude": -18.86667,
    "longitude": 28.4,
    "category": "Lake",
    "subcategory": "Reservoir",
    "featured": false,
    "priority": 50
  },
  {
    "geonameId": 7370767,
    "name": "Essanby Dam",
    "latitude": -20.91662,
    "longitude": 31.80176,
    "category": "Lake",
    "subcategory": "Reservoir",
    "featured": false,
    "priority": 50
  },
  {
    "geonameId": 891677,
    "name": "Essongwenya Dam",
    "latitude": -19.25,
    "longitude": 29.41667,
    "category": "Lake",
    "subcategory": "Reservoir",
    "featured": false,
    "priority": 50
  },
  {
    "geonameId": 891642,
    "name": "Ewanrigg National Park",
    "latitude": -17.69077,
    "longitude": 31.33127,
    "category": "Park",
    "subcategory": "Park",
    "featured": false,
    "priority": 50
  },
  {
    "geonameId": 7395318,
    "name": "Exchange Dam",
    "latitude": -18.81786,
    "longitude": 29.10349,
    "category": "Lake",
    "subcategory": "Reservoir",
    "featured": false,
    "priority": 50
  },
  {
    "geonameId": 891590,
    "name": "Fairview",
    "latitude": -19.95,
    "longitude": 32.65,
    "category": "Mountain",
    "subcategory": "Peak",
    "featured": false,
    "priority": 50
  },
  {
    "geonameId": 891502,
    "name": "Fingo Dam",
    "latitude": -19.97672,
    "longitude": 28.90108,
    "category": "Lake",
    "subcategory": "Reservoir",
    "featured": false,
    "priority": 50
  },
  {
    "geonameId": 891445,
    "name": "Formona Dam",
    "latitude": -19.8266,
    "longitude": 28.89699,
    "category": "Lake",
    "subcategory": "Reservoir",
    "featured": false,
    "priority": 50
  },
  {
    "geonameId": 891370,
    "name": "Fumure",
    "latitude": -20.62004,
    "longitude": 31.25686,
    "category": "Mountain",
    "subcategory": "Mountain",
    "featured": false,
    "priority": 50
  },
  {
    "geonameId": 7322251,
    "name": "Fundisi Dam",
    "latitude": -19.94707,
    "longitude": 28.65299,
    "category": "Lake",
    "subcategory": "Reservoir",
    "featured": false,
    "priority": 50
  },
  {
    "geonameId": 891340,
    "name": "Gabeni Dam",
    "latitude": -19.38333,
    "longitude": 29.46667,
    "category": "Lake",
    "subcategory": "Reservoir",
    "featured": false,
    "priority": 50
  },
  {
    "geonameId": 891324,
    "name": "Gaha",
    "latitude": -21.01667,
    "longitude": 29.81667,
    "category": "Mountain",
    "subcategory": "Mountain",
    "featured": false,
    "priority": 50
  },
  {
    "geonameId": 891281,
    "name": "Gandamasunga",
    "latitude": -18.77033,
    "longitude": 31.547,
    "category": "Mountain",
    "subcategory": "Mountain",
    "featured": false,
    "priority": 50
  },
  {
    "geonameId": 891273,
    "name": "Gandauta",
    "latitude": -20.26438,
    "longitude": 31.61005,
    "category": "Mountain",
    "subcategory": "Mountain",
    "featured": false,
    "priority": 50
  },
  {
    "geonameId": 891272,
    "name": "Gandavaroyi Falls",
    "latitude": -17.28333,
    "longitude": 29.13333,
    "category": "Waterfall",
    "subcategory": "Waterfall",
    "featured": false,
    "priority": 50
  },
  {
    "geonameId": 891270,
    "name": "Gandayi",
    "latitude": -19.2,
    "longitude": 32.55,
    "category": "Mountain",
    "subcategory": "Mountain",
    "featured": false,
    "priority": 50
  },
  {
    "geonameId": 891262,
    "name": "Gangare",
    "latitude": -19.90301,
    "longitude": 31.82599,
    "category": "Mountain",
    "subcategory": "Mountain",
    "featured": false,
    "priority": 50
  },
  {
    "geonameId": 7465035,
    "name": "Gariya Dam",
    "latitude": -19.74141,
    "longitude": 27.17447,
    "category": "Lake",
    "subcategory": "Reservoir",
    "featured": false,
    "priority": 50
  },
  {
    "geonameId": 7416749,
    "name": "Garrezi Falls",
    "latitude": -18.28292,
    "longitude": 32.87022,
    "category": "Waterfall",
    "subcategory": "Waterfall",
    "featured": false,
    "priority": 50
  },
  {
    "geonameId": 891212,
    "name": "Gato",
    "latitude": -19.31667,
    "longitude": 32.18333,
    "category": "Mountain",
    "subcategory": "Mountain",
    "featured": false,
    "priority": 50
  },
  {
    "geonameId": 891213,
    "name": "Gatu",
    "latitude": -17.19117,
    "longitude": 32.2929,
    "category": "Mountain",
    "subcategory": "Mountain",
    "featured": false,
    "priority": 50
  },
  {
    "geonameId": 891160,
    "name": "Ghato",
    "latitude": -19.01414,
    "longitude": 31.95241,
    "category": "Mountain",
    "subcategory": "Mountain",
    "featured": false,
    "priority": 50
  },
  {
    "geonameId": 1106501,
    "name": "Ghenje",
    "latitude": -17.44861,
    "longitude": 31.27889,
    "category": "Mountain",
    "subcategory": "Mountain",
    "featured": false,
    "priority": 50
  },
  {
    "geonameId": 7389130,
    "name": "Ginvilitshe Dam",
    "latitude": -18.85871,
    "longitude": 28.4204,
    "category": "Lake",
    "subcategory": "Reservoir",
    "featured": false,
    "priority": 50
  },
  {
    "geonameId": 891099,
    "name": "Glendale",
    "latitude": -17.35514,
    "longitude": 31.06718,
    "category": "City",
    "subcategory": "City",
    "featured": false,
    "priority": 50
  },
  {
    "geonameId": 1106421,
    "name": "Gletwyn",
    "latitude": -17.75778,
    "longitude": 31.15278,
    "category": "Lake",
    "subcategory": "Reservoir",
    "featured": false,
    "priority": 50
  },
  {
    "geonameId": 891024,
    "name": "Goba Falls",
    "latitude": -18.63717,
    "longitude": 31.774,
    "category": "Waterfall",
    "subcategory": "Waterfall",
    "featured": false,
    "priority": 50
  },
  {
    "geonameId": 891007,
    "name": "Godzo Dam",
    "latitude": -19.9,
    "longitude": 27.81667,
    "category": "Lake",
    "subcategory": "Reservoir",
    "featured": false,
    "priority": 50
  },
  {
    "geonameId": 890983,
    "name": "Gokwe",
    "latitude": -18.20476,
    "longitude": 28.9349,
    "category": "City",
    "subcategory": "City",
    "featured": false,
    "priority": 50
  },
  {
    "geonameId": 890951,
    "name": "Gombe",
    "latitude": -19.26311,
    "longitude": 31.49423,
    "category": "Mountain",
    "subcategory": "Mountain",
    "featured": false,
    "priority": 50
  },
  {
    "geonameId": 890945,
    "name": "Gombekombe",
    "latitude": -16.94338,
    "longitude": 31.11907,
    "category": "Mountain",
    "subcategory": "Mountain",
    "featured": false,
    "priority": 50
  },
  {
    "geonameId": 890940,
    "name": "Gomo Dam",
    "latitude": -19.68333,
    "longitude": 26.61667,
    "category": "Lake",
    "subcategory": "Reservoir",
    "featured": false,
    "priority": 50
  },
  {
    "geonameId": 890936,
    "name": "Gomoringanyani",
    "latitude": -18.81492,
    "longitude": 32.76144,
    "category": "Mountain",
    "subcategory": "Mountain",
    "featured": false,
    "priority": 50
  },
  {
    "geonameId": 890928,
    "name": "Gona",
    "latitude": -20.43189,
    "longitude": 31.68478,
    "category": "Mountain",
    "subcategory": "Mountain",
    "featured": false,
    "priority": 50
  },
  {
    "geonameId": 890924,
    "name": "Gonarurgwa",
    "latitude": -20.51667,
    "longitude": 31.6,
    "category": "Mountain",
    "subcategory": "Mountain",
    "featured": false,
    "priority": 50
  },
  {
    "geonameId": 890919,
    "name": "Gondo",
    "latitude": -18.59833,
    "longitude": 32.60366,
    "category": "Mountain",
    "subcategory": "Mountain",
    "featured": false,
    "priority": 50
  },
  {
    "geonameId": 890915,
    "name": "Gondora",
    "latitude": -20.61631,
    "longitude": 31.35805,
    "category": "Mountain",
    "subcategory": "Mountain",
    "featured": false,
    "priority": 50
  },
  {
    "geonameId": 890904,
    "name": "Gongwe",
    "latitude": -20.14436,
    "longitude": 30.00974,
    "category": "Mountain",
    "subcategory": "Mountain",
    "featured": false,
    "priority": 50
  },
  {
    "geonameId": 7394106,
    "name": "Gonye Dam",
    "latitude": -19.71876,
    "longitude": 30.18119,
    "category": "Lake",
    "subcategory": "Reservoir",
    "featured": false,
    "priority": 50
  },
  {
    "geonameId": 7320721,
    "name": "Goodwood Dam",
    "latitude": -19.27368,
    "longitude": 28.5479,
    "category": "Lake",
    "subcategory": "Reservoir",
    "featured": false,
    "priority": 50
  },
  {
    "geonameId": 890866,
    "name": "Gora Dam",
    "latitude": -16.9,
    "longitude": 32.13333,
    "category": "Lake",
    "subcategory": "Reservoir",
    "featured": false,
    "priority": 50
  },
  {
    "geonameId": 890824,
    "name": "Gotomwe Dam",
    "latitude": -19.75,
    "longitude": 32.23333,
    "category": "Lake",
    "subcategory": "Reservoir",
    "featured": false,
    "priority": 50
  },
  {
    "geonameId": 7523890,
    "name": "Governors Dam",
    "latitude": -20.3756,
    "longitude": 27.93537,
    "category": "Lake",
    "subcategory": "Reservoir",
    "featured": false,
    "priority": 50
  },
  {
    "geonameId": 7370290,
    "name": "Gudo Dam",
    "latitude": -20.44284,
    "longitude": 31.82554,
    "category": "Lake",
    "subcategory": "Reservoir",
    "featured": false,
    "priority": 50
  },
  {
    "geonameId": 890677,
    "name": "Guhudza",
    "latitude": -20.61005,
    "longitude": 30.70265,
    "category": "Mountain",
    "subcategory": "Mountain",
    "featured": false,
    "priority": 50
  },
  {
    "geonameId": 7416121,
    "name": "Gulliver Dam",
    "latitude": -18.28794,
    "longitude": 32.78675,
    "category": "Lake",
    "subcategory": "Reservoir",
    "featured": false,
    "priority": 50
  },
  {
    "geonameId": 890650,
    "name": "Gumanye",
    "latitude": -20.33333,
    "longitude": 30.48333,
    "category": "Mountain",
    "subcategory": "Mountain",
    "featured": false,
    "priority": 50
  },
  {
    "geonameId": 890641,
    "name": "Gumukwe",
    "latitude": -20.58333,
    "longitude": 29.98333,
    "category": "Mountain",
    "subcategory": "Mountain",
    "featured": false,
    "priority": 50
  },
  {
    "geonameId": 7348337,
    "name": "Gunundwe Dam",
    "latitude": -20.00129,
    "longitude": 32.05854,
    "category": "Lake",
    "subcategory": "Reservoir",
    "featured": false,
    "priority": 50
  },
  {
    "geonameId": 890603,
    "name": "Gurungwe Gap",
    "latitude": -16.8,
    "longitude": 30.88333,
    "category": "Mountain",
    "subcategory": "Mountain Pass",
    "featured": false,
    "priority": 50
  },
  {
    "geonameId": 890583,
    "name": "Guunhe",
    "latitude": -19.55,
    "longitude": 32.71667,
    "category": "Mountain",
    "subcategory": "Mountain",
    "featured": false,
    "priority": 50
  },
  {
    "geonameId": 890579,
    "name": "Guvi",
    "latitude": -20.3982,
    "longitude": 31.80084,
    "category": "Mountain",
    "subcategory": "Mountain",
    "featured": false,
    "priority": 50
  },
  {
    "geonameId": 890574,
    "name": "Guwe",
    "latitude": -19.90493,
    "longitude": 31.84411,
    "category": "Mountain",
    "subcategory": "Mountain",
    "featured": false,
    "priority": 50
  },
  {
    "geonameId": 890572,
    "name": "Guwe Dam",
    "latitude": -19.21559,
    "longitude": 28.95716,
    "category": "Lake",
    "subcategory": "Reservoir",
    "featured": false,
    "priority": 50
  },
  {
    "geonameId": 1106556,
    "name": "Guyu Dam",
    "latitude": -17.1612,
    "longitude": 31.63564,
    "category": "Lake",
    "subcategory": "Reservoir",
    "featured": false,
    "priority": 50
  },
  {
    "geonameId": 890527,
    "name": "Gwamaravuka",
    "latitude": -20.77876,
    "longitude": 30.78225,
    "category": "Mountain",
    "subcategory": "Mountain",
    "featured": false,
    "priority": 50
  },
  {
    "geonameId": 890516,
    "name": "Gwanda",
    "latitude": -20.93622,
    "longitude": 29.00698,
    "category": "City",
    "subcategory": "Regional Capital",
    "featured": false,
    "priority": 50
  },
  {
    "geonameId": 890509,
    "name": "Gwangwadza",
    "latitude": -18.77517,
    "longitude": 32.50267,
    "category": "Mountain",
    "subcategory": "Mountain",
    "featured": false,
    "priority": 50
  },
  {
    "geonameId": 7506535,
    "name": "Gwanhugwi",
    "latitude": -20.57685,
    "longitude": 29.98175,
    "category": "Mountain",
    "subcategory": "Mountain",
    "featured": false,
    "priority": 50
  },
  {
    "geonameId": 890472,
    "name": "Gwehanga Dam",
    "latitude": -20.75,
    "longitude": 30.18333,
    "category": "Lake",
    "subcategory": "Reservoir",
    "featured": false,
    "priority": 50
  },
  {
    "geonameId": 890460,
    "name": "Gwelutshena Dam",
    "latitude": -18.65493,
    "longitude": 28.69981,
    "category": "Lake",
    "subcategory": "Reservoir",
    "featured": false,
    "priority": 50
  },
  {
    "geonameId": 890435,
    "name": "Gwenoro Dam",
    "latitude": -19.75,
    "longitude": 29.86667,
    "category": "Lake",
    "subcategory": "Reservoir",
    "featured": false,
    "priority": 50
  },
  {
    "geonameId": 890431,
    "name": "Gwenya",
    "latitude": -20.13725,
    "longitude": 30.69079,
    "category": "Mountain",
    "subcategory": "Mountain",
    "featured": false,
    "priority": 50
  },
  {
    "geonameId": 890422,
    "name": "Gweru",
    "latitude": -19.45,
    "longitude": 29.81667,
    "category": "City",
    "subcategory": "Regional Capital",
    "featured": false,
    "priority": 50
  },
  {
    "geonameId": 890407,
    "name": "Gwidza",
    "latitude": -18.637,
    "longitude": 32.41967,
    "category": "Mountain",
    "subcategory": "Mountain",
    "featured": false,
    "priority": 50
  },
  {
    "geonameId": 890331,
    "name": "Hana Dam",
    "latitude": -20.1,
    "longitude": 27.65,
    "category": "Lake",
    "subcategory": "Reservoir",
    "featured": false,
    "priority": 50
  },
  {
    "geonameId": 890317,
    "name": "Hangayi Dam",
    "latitude": -16.76649,
    "longitude": 31.9908,
    "category": "Lake",
    "subcategory": "Reservoir",
    "featured": false,
    "priority": 50
  },
  {
    "geonameId": 890309,
    "name": "Hanyanya",
    "latitude": -20.52052,
    "longitude": 31.57292,
    "category": "Mountain",
    "subcategory": "Mountain",
    "featured": false,
    "priority": 50
  },
  {
    "geonameId": 890299,
    "name": "Harare",
    "latitude": -17.82772,
    "longitude": 31.05337,
    "category": "City",
    "subcategory": "Capital",
    "featured": false,
    "priority": 50
  },
  {
    "geonameId": 13132735,
    "name": "Harare Western Suburbs",
    "latitude": -17.8415,
    "longitude": 30.87674,
    "category": "City",
    "subcategory": "City",
    "featured": false,
    "priority": 50
  },
  {
    "geonameId": 890256,
    "name": "Hawesa",
    "latitude": -18.081,
    "longitude": 32.8935,
    "category": "Mountain",
    "subcategory": "Mountain",
    "featured": false,
    "priority": 50
  },
  {
    "geonameId": 890212,
    "name": "Hendriks Pass",
    "latitude": -20.66667,
    "longitude": 28.35,
    "category": "Mountain",
    "subcategory": "Mountain Pass",
    "featured": false,
    "priority": 50
  },
  {
    "geonameId": 890141,
    "name": "Himalaya",
    "latitude": -19.38333,
    "longitude": 32.78333,
    "category": "Mountain",
    "subcategory": "Mountain",
    "featured": false,
    "priority": 50
  },
  {
    "geonameId": 890138,
    "name": "Hippo Dam",
    "latitude": -19.46029,
    "longitude": 29.10505,
    "category": "Lake",
    "subcategory": "Reservoir",
    "featured": false,
    "priority": 50
  },
  {
    "geonameId": 890126,
    "name": "Hlawe Dam",
    "latitude": -19.06667,
    "longitude": 28.4,
    "category": "Lake",
    "subcategory": "Reservoir",
    "featured": false,
    "priority": 50
  },
  {
    "geonameId": 890105,
    "name": "Hoko Range",
    "latitude": -19.9,
    "longitude": 29.73333,
    "category": "Mountain",
    "subcategory": "Mountain",
    "featured": false,
    "priority": 50
  },
  {
    "geonameId": 7393903,
    "name": "Holy Cross Dam",
    "latitude": -19.56583,
    "longitude": 30.55717,
    "category": "Lake",
    "subcategory": "Reservoir",
    "featured": false,
    "priority": 50
  },
  {
    "geonameId": 890006,
    "name": "Hondondo",
    "latitude": -20.06813,
    "longitude": 31.39865,
    "category": "Mountain",
    "subcategory": "Mountain",
    "featured": false,
    "priority": 50
  },
  {
    "geonameId": 890060,
    "name": "Honzo",
    "latitude": -18.5965,
    "longitude": 32.6905,
    "category": "Mountain",
    "subcategory": "Mountain",
    "featured": false,
    "priority": 50
  },
  {
    "geonameId": 889986,
    "name": "Hulleys Dam",
    "latitude": -20.33333,
    "longitude": 27.8,
    "category": "Lake",
    "subcategory": "Reservoir",
    "featured": false,
    "priority": 50
  },
  {
    "geonameId": 7454343,
    "name": "Hunjane Dam",
    "latitude": -19.74108,
    "longitude": 31.82233,
    "category": "Lake",
    "subcategory": "Reservoir",
    "featured": false,
    "priority": 50
  },
  {
    "geonameId": 889950,
    "name": "Husheni",
    "latitude": -19.05,
    "longitude": 32.53333,
    "category": "Mountain",
    "subcategory": "Mountain",
    "featured": false,
    "priority": 50
  },
  {
    "geonameId": 889942,
    "name": "Hwange",
    "latitude": -18.36446,
    "longitude": 26.49877,
    "category": "City",
    "subcategory": "City",
    "featured": false,
    "priority": 50
  },
  {
    "geonameId": 889940,
    "name": "Hwange National Park",
    "latitude": -19.16667,
    "longitude": 26.5,
    "category": "Park",
    "subcategory": "Park",
    "featured": false,
    "priority": 50
  },
  {
    "geonameId": 889938,
    "name": "Hwikwi",
    "latitude": -20.61667,
    "longitude": 30.38333,
    "category": "Mountain",
    "subcategory": "Mountain",
    "featured": false,
    "priority": 50
  },
  {
    "geonameId": 1106481,
    "name": "Hyde Dam",
    "latitude": -17.04417,
    "longitude": 31.20917,
    "category": "Lake",
    "subcategory": "Reservoir",
    "featured": false,
    "priority": 50
  },
  {
    "geonameId": 889936,
    "name": "Hydro Island",
    "latitude": -17.9,
    "longitude": 30.8,
    "category": "Island",
    "subcategory": "Island",
    "featured": false,
    "priority": 50
  },
  {
    "geonameId": 889869,
    "name": "Inandu",
    "latitude": -18.01667,
    "longitude": 31.75,
    "category": "Mountain",
    "subcategory": "Mountain",
    "featured": false,
    "priority": 50
  },
  {
    "geonameId": 889865,
    "name": "Indafamnene",
    "latitude": -16.25,
    "longitude": 28.83333,
    "category": "Island",
    "subcategory": "Island",
    "featured": false,
    "priority": 50
  },
  {
    "geonameId": 889857,
    "name": "Indzera",
    "latitude": -18.34199,
    "longitude": 32.80366,
    "category": "Mountain",
    "subcategory": "Mountain",
    "featured": false,
    "priority": 50
  },
  {
    "geonameId": 7319128,
    "name": "Insiza Dam",
    "latitude": -20.33166,
    "longitude": 29.25494,
    "category": "Lake",
    "subcategory": "Reservoir",
    "featured": false,
    "priority": 50
  },
  {
    "geonameId": 889743,
    "name": "Inyangani",
    "latitude": -18.2955,
    "longitude": 32.84184,
    "category": "Mountain",
    "subcategory": "Mountain",
    "featured": false,
    "priority": 50
  },
  {
    "geonameId": 7416122,
    "name": "Inyangombe Falls",
    "latitude": -18.28028,
    "longitude": 32.67476,
    "category": "Waterfall",
    "subcategory": "Waterfall",
    "featured": false,
    "priority": 50
  },
  {
    "geonameId": 7319127,
    "name": "Inyankuni Dam",
    "latitude": -20.34284,
    "longitude": 29.11529,
    "category": "Lake",
    "subcategory": "Reservoir",
    "featured": false,
    "priority": 50
  },
  {
    "geonameId": 889723,
    "name": "Inyati",
    "latitude": -19.67563,
    "longitude": 28.84687,
    "category": "City",
    "subcategory": "City",
    "featured": false,
    "priority": 50
  },
  {
    "geonameId": 889659,
    "name": "Isuwe",
    "latitude": -18.222,
    "longitude": 32.98867,
    "category": "Mountain",
    "subcategory": "Mountain",
    "featured": false,
    "priority": 50
  },
  {
    "geonameId": 889600,
    "name": "Jemembi",
    "latitude": -21.55,
    "longitude": 29.76667,
    "category": "Mountain",
    "subcategory": "Peak",
    "featured": false,
    "priority": 50
  },
  {
    "geonameId": 889599,
    "name": "Jemwe Dam",
    "latitude": -19.68333,
    "longitude": 31.98333,
    "category": "Lake",
    "subcategory": "Reservoir",
    "featured": false,
    "priority": 50
  },
  {
    "geonameId": 889587,
    "name": "Jenya",
    "latitude": -18.7625,
    "longitude": 32.52383,
    "category": "Mountain",
    "subcategory": "Mountain",
    "featured": false,
    "priority": 50
  },
  {
    "geonameId": 7386580,
    "name": "Jerenje Dam",
    "latitude": -17.43404,
    "longitude": 32.24016,
    "category": "Lake",
    "subcategory": "Reservoir",
    "featured": false,
    "priority": 50
  },
  {
    "geonameId": 889549,
    "name": "Jiradema",
    "latitude": -19.26667,
    "longitude": 32.21667,
    "category": "Mountain",
    "subcategory": "Mountain",
    "featured": false,
    "priority": 50
  },
  {
    "geonameId": 889542,
    "name": "Jiwa",
    "latitude": -16.48333,
    "longitude": 32.11667,
    "category": "Mountain",
    "subcategory": "Mountain",
    "featured": false,
    "priority": 50
  },
  {
    "geonameId": 7394814,
    "name": "John Mac Lake",
    "latitude": -18.45332,
    "longitude": 29.8878,
    "category": "Lake",
    "subcategory": "Lake",
    "featured": false,
    "priority": 50
  },
  {
    "geonameId": 889466,
    "name": "Kabusaba Island",
    "latitude": -17.53899,
    "longitude": 27.45577,
    "category": "Island",
    "subcategory": "Island",
    "featured": false,
    "priority": 50
  },
  {
    "geonameId": 888788,
    "name": "Kadiahwana Dam",
    "latitude": -16.69567,
    "longitude": 31.97708,
    "category": "Lake",
    "subcategory": "Reservoir",
    "featured": false,
    "priority": 50
  },
  {
    "geonameId": 889453,
    "name": "Kadoma",
    "latitude": -18.33328,
    "longitude": 29.91534,
    "category": "City",
    "subcategory": "City",
    "featured": false,
    "priority": 50
  },
  {
    "geonameId": 7322246,
    "name": "Kahlu Dam",
    "latitude": -19.96957,
    "longitude": 28.7983,
    "category": "Lake",
    "subcategory": "Reservoir",
    "featured": false,
    "priority": 50
  },
  {
    "geonameId": 7387034,
    "name": "Kaitano Dam",
    "latitude": -17.17426,
    "longitude": 32.38922,
    "category": "Lake",
    "subcategory": "Reservoir",
    "featured": false,
    "priority": 50
  },
  {
    "geonameId": 7350661,
    "name": "Kakan Dam",
    "latitude": -16.53237,
    "longitude": 32.03007,
    "category": "Lake",
    "subcategory": "Reservoir",
    "featured": false,
    "priority": 50
  },
  {
    "geonameId": 889400,
    "name": "Kamana Island",
    "latitude": -17.86763,
    "longitude": 27.19464,
    "category": "Island",
    "subcategory": "Island",
    "featured": false,
    "priority": 50
  },
  {
    "geonameId": 889388,
    "name": "Kamativi Dam",
    "latitude": -18.32359,
    "longitude": 27.04555,
    "category": "Lake",
    "subcategory": "Reservoir",
    "featured": false,
    "priority": 50
  },
  {
    "geonameId": 7374530,
    "name": "Kamawenderere Island",
    "latitude": -17.86097,
    "longitude": 27.16462,
    "category": "Island",
    "subcategory": "Island",
    "featured": false,
    "priority": 50
  },
  {
    "geonameId": 889366,
    "name": "Kampaka Island",
    "latitude": -17.50644,
    "longitude": 27.44247,
    "category": "Island",
    "subcategory": "Island",
    "featured": false,
    "priority": 50
  },
  {
    "geonameId": 889333,
    "name": "Kandahar Island",
    "latitude": -17.86667,
    "longitude": 25.8,
    "category": "Island",
    "subcategory": "Island",
    "featured": false,
    "priority": 50
  },
  {
    "geonameId": 7350917,
    "name": "Kangaire Dam",
    "latitude": -16.69187,
    "longitude": 31.82991,
    "category": "Lake",
    "subcategory": "Reservoir",
    "featured": false,
    "priority": 50
  },
  {
    "geonameId": 889313,
    "name": "Kangamani Island",
    "latitude": -17.42016,
    "longitude": 27.55349,
    "category": "Island",
    "subcategory": "Island",
    "featured": false,
    "priority": 50
  },
  {
    "geonameId": 889301,
    "name": "Kanonga Island",
    "latitude": -17.94976,
    "longitude": 27.06799,
    "category": "Island",
    "subcategory": "Island",
    "featured": false,
    "priority": 50
  },
  {
    "geonameId": 7386597,
    "name": "Kanyongoro Dam",
    "latitude": -17.50658,
    "longitude": 32.31967,
    "category": "Lake",
    "subcategory": "Reservoir",
    "featured": false,
    "priority": 50
  },
  {
    "geonameId": 889269,
    "name": "Kanyoto",
    "latitude": -17.16854,
    "longitude": 31.05226,
    "category": "Mountain",
    "subcategory": "Mountain",
    "featured": false,
    "priority": 50
  },
  {
    "geonameId": 889266,
    "name": "Kanzarungwe",
    "latitude": -18.28333,
    "longitude": 31.8,
    "category": "Mountain",
    "subcategory": "Mountain",
    "featured": false,
    "priority": 50
  },
  {
    "geonameId": 7386404,
    "name": "Kapandora Dam",
    "latitude": -17.36271,
    "longitude": 32.47147,
    "category": "Lake",
    "subcategory": "Reservoir",
    "featured": false,
    "priority": 50
  },
  {
    "geonameId": 889235,
    "name": "Kapiringache",
    "latitude": -16.29074,
    "longitude": 30.15301,
    "category": "Mountain",
    "subcategory": "Mountain",
    "featured": false,
    "priority": 50
  },
  {
    "geonameId": 889215,
    "name": "Kariba",
    "latitude": -16.51667,
    "longitude": 28.8,
    "category": "City",
    "subcategory": "City",
    "featured": false,
    "priority": 50
  },
  {
    "geonameId": 7384896,
    "name": "Karimazondo Dam",
    "latitude": -17.15269,
    "longitude": 32.30114,
    "category": "Lake",
    "subcategory": "Reservoir",
    "featured": false,
    "priority": 50
  },
  {
    "geonameId": 889191,
    "name": "Karoi",
    "latitude": -16.80993,
    "longitude": 29.69247,
    "category": "City",
    "subcategory": "City",
    "featured": false,
    "priority": 50
  },
  {
    "geonameId": 889185,
    "name": "Karoi Dam",
    "latitude": -16.81955,
    "longitude": 29.70253,
    "category": "Lake",
    "subcategory": "Reservoir",
    "featured": false,
    "priority": 50
  },
  {
    "geonameId": 889152,
    "name": "Kasenzi Dam",
    "latitude": -16.58333,
    "longitude": 32.21667,
    "category": "Lake",
    "subcategory": "Reservoir",
    "featured": false,
    "priority": 50
  },
  {
    "geonameId": 7319605,
    "name": "Katasa Number 1 Dam",
    "latitude": -19.11927,
    "longitude": 28.7045,
    "category": "Lake",
    "subcategory": "Reservoir",
    "featured": false,
    "priority": 50
  },
  {
    "geonameId": 889096,
    "name": "Katowe Dam",
    "latitude": -16.66667,
    "longitude": 32.2,
    "category": "Lake",
    "subcategory": "Reservoir",
    "featured": false,
    "priority": 50
  },
  {
    "geonameId": 7384791,
    "name": "Katsande Dam",
    "latitude": -17.01796,
    "longitude": 32.50479,
    "category": "Lake",
    "subcategory": "Reservoir",
    "featured": false,
    "priority": 50
  },
  {
    "geonameId": 889094,
    "name": "Katsanga Dam",
    "latitude": -16.93333,
    "longitude": 29.45,
    "category": "Lake",
    "subcategory": "Reservoir",
    "featured": false,
    "priority": 50
  },
  {
    "geonameId": 889045,
    "name": "Kaziraranyama Island",
    "latitude": -17.77461,
    "longitude": 27.19435,
    "category": "Island",
    "subcategory": "Island",
    "featured": false,
    "priority": 50
  },
  {
    "geonameId": 10242556,
    "name": "Kazuma Pan National Park",
    "latitude": -18.36667,
    "longitude": 25.7,
    "category": "Park",
    "subcategory": "Park",
    "featured": false,
    "priority": 50
  },
  {
    "geonameId": 888970,
    "name": "Kebvunde Dam",
    "latitude": -16.8627,
    "longitude": 29.39079,
    "category": "Lake",
    "subcategory": "Reservoir",
    "featured": false,
    "priority": 50
  },
  {
    "geonameId": 888995,
    "name": "Kent Estate Dam",
    "latitude": -17.98333,
    "longitude": 30.71667,
    "category": "Lake",
    "subcategory": "Reservoir",
    "featured": false,
    "priority": 50
  },
  {
    "geonameId": 888962,
    "name": "Khami Dam",
    "latitude": -20.15278,
    "longitude": 28.43083,
    "category": "Lake",
    "subcategory": "Reservoir",
    "featured": false,
    "priority": 50
  },
  {
    "geonameId": 888961,
    "name": "Khami Railway Dam",
    "latitude": -20.28512,
    "longitude": 28.4742,
    "category": "Lake",
    "subcategory": "Reservoir",
    "featured": false,
    "priority": 50
  },
  {
    "geonameId": 888933,
    "name": "Killin",
    "latitude": -19.85,
    "longitude": 32.83333,
    "category": "Mountain",
    "subcategory": "Mountain",
    "featured": false,
    "priority": 50
  },
  {
    "geonameId": 888857,
    "name": "Kokeza Dam",
    "latitude": -16.75637,
    "longitude": 31.55565,
    "category": "Lake",
    "subcategory": "Reservoir",
    "featured": false,
    "priority": 50
  },
  {
    "geonameId": 888853,
    "name": "Komba",
    "latitude": -17.98333,
    "longitude": 30.63333,
    "category": "Lake",
    "subcategory": "Reservoir",
    "featured": false,
    "priority": 50
  },
  {
    "geonameId": 888803,
    "name": "Kozi Island",
    "latitude": -17.60241,
    "longitude": 27.33971,
    "category": "Island",
    "subcategory": "Island",
    "featured": false,
    "priority": 50
  },
  {
    "geonameId": 888785,
    "name": "Kudu Dam",
    "latitude": -19.43562,
    "longitude": 29.08153,
    "category": "Lake",
    "subcategory": "Reservoir",
    "featured": false,
    "priority": 50
  },
  {
    "geonameId": 7374452,
    "name": "Kudu Island",
    "latitude": -17.18761,
    "longitude": 27.68757,
    "category": "Island",
    "subcategory": "Island",
    "featured": false,
    "priority": 50
  },
  {
    "geonameId": 888777,
    "name": "Kufonya Dam",
    "latitude": -17.98333,
    "longitude": 29.5,
    "category": "Lake",
    "subcategory": "Reservoir",
    "featured": false,
    "priority": 50
  },
  {
    "geonameId": 888776,
    "name": "Kufunha",
    "latitude": -18.52349,
    "longitude": 32.06665,
    "category": "Mountain",
    "subcategory": "Mountain",
    "featured": false,
    "priority": 50
  },
  {
    "geonameId": 888728,
    "name": "Kuwengwa Dam",
    "latitude": -19.5,
    "longitude": 31.85,
    "category": "Lake",
    "subcategory": "Reservoir",
    "featured": false,
    "priority": 50
  },
  {
    "geonameId": 888726,
    "name": "Kuwunzau",
    "latitude": -18.68483,
    "longitude": 32.85599,
    "category": "Mountain",
    "subcategory": "Mountain",
    "featured": false,
    "priority": 50
  },
  {
    "geonameId": 888710,
    "name": "Kwekwe",
    "latitude": -18.92809,
    "longitude": 29.81486,
    "category": "City",
    "subcategory": "City",
    "featured": false,
    "priority": 50
  },
  {
    "geonameId": 888696,
    "name": "Kwetchi Dam",
    "latitude": -17,
    "longitude": 29.45,
    "category": "Lake",
    "subcategory": "Reservoir",
    "featured": false,
    "priority": 50
  },
  {
    "geonameId": 888687,
    "name": "Kyle Recreational Park",
    "latitude": -20.21062,
    "longitude": 31.02132,
    "category": "Park",
    "subcategory": "Park",
    "featured": false,
    "priority": 50
  },
  {
    "geonameId": 895748,
    "name": "Lake Alice",
    "latitude": -19.72868,
    "longitude": 28.94368,
    "category": "Lake",
    "subcategory": "Reservoir",
    "featured": false,
    "priority": 50
  },
  {
    "geonameId": 888671,
    "name": "Lake Alice Dam",
    "latitude": -19.03333,
    "longitude": 28.21667,
    "category": "Lake",
    "subcategory": "Reservoir",
    "featured": false,
    "priority": 50
  },
  {
    "geonameId": 912835,
    "name": "Lake Kariba",
    "latitude": -16.93727,
    "longitude": 27.97531,
    "category": "Lake",
    "subcategory": "Reservoir",
    "featured": false,
    "priority": 50
  },
  {
    "geonameId": 888102,
    "name": "Lake MacDougall",
    "latitude": -20.59644,
    "longitude": 31.60193,
    "category": "Lake",
    "subcategory": "Reservoir",
    "featured": false,
    "priority": 50
  },
  {
    "geonameId": 7909811,
    "name": "Lake Manyame",
    "latitude": -17.82747,
    "longitude": 30.5928,
    "category": "Lake",
    "subcategory": "Lake",
    "featured": false,
    "priority": 50
  },
  {
    "geonameId": 7523776,
    "name": "Lake Matopos Recreational Park",
    "latitude": -20.40897,
    "longitude": 28.51432,
    "category": "Park",
    "subcategory": "Park",
    "featured": false,
    "priority": 50
  },
  {
    "geonameId": 886254,
    "name": "Lake McIlwaine",
    "latitude": -17.9,
    "longitude": 30.8,
    "category": "Lake",
    "subcategory": "Reservoir",
    "featured": false,
    "priority": 50
  },
  {
    "geonameId": 6942014,
    "name": "Lake Mutirikwe",
    "latitude": -20.24892,
    "longitude": 31.03326,
    "category": "Lake",
    "subcategory": "Lake",
    "featured": false,
    "priority": 50
  },
  {
    "geonameId": 888689,
    "name": "Lake Mutirikwi",
    "latitude": -20.22752,
    "longitude": 30.99892,
    "category": "Lake",
    "subcategory": "Reservoir",
    "featured": false,
    "priority": 50
  },
  {
    "geonameId": 888668,
    "name": "Lakeside Dam",
    "latitude": -20.19881,
    "longitude": 28.65824,
    "category": "Lake",
    "subcategory": "Reservoir",
    "featured": false,
    "priority": 50
  },
  {
    "geonameId": 888554,
    "name": "Leopard Dam",
    "latitude": -17.97493,
    "longitude": 28.99449,
    "category": "Lake",
    "subcategory": "Reservoir",
    "featured": false,
    "priority": 50
  },
  {
    "geonameId": 888497,
    "name": "Limpandi Dam",
    "latitude": -19.73333,
    "longitude": 26.58333,
    "category": "Lake",
    "subcategory": "Reservoir",
    "featured": false,
    "priority": 50
  },
  {
    "geonameId": 888459,
    "name": "Lions Head",
    "latitude": -18.472,
    "longitude": 32.16251,
    "category": "Mountain",
    "subcategory": "Mountain",
    "featured": false,
    "priority": 50
  },
  {
    "geonameId": 8534189,
    "name": "Little Makarati",
    "latitude": -18.51339,
    "longitude": 29.87102,
    "category": "Lake",
    "subcategory": "Lake",
    "featured": false,
    "priority": 50
  },
  {
    "geonameId": 888385,
    "name": "Lone Kopje",
    "latitude": -18.40139,
    "longitude": 30.1083,
    "category": "Mountain",
    "subcategory": "Mountain",
    "featured": false,
    "priority": 50
  },
  {
    "geonameId": 7324388,
    "name": "Lone Palm Pass",
    "latitude": -16.71567,
    "longitude": 30.9573,
    "category": "Mountain",
    "subcategory": "Mountain Pass",
    "featured": false,
    "priority": 50
  },
  {
    "geonameId": 7416594,
    "name": "Longlands Dam",
    "latitude": -18.10485,
    "longitude": 31.52837,
    "category": "Lake",
    "subcategory": "Reservoir",
    "featured": false,
    "priority": 50
  },
  {
    "geonameId": 888319,
    "name": "Lower Makawe Dam",
    "latitude": -20.81667,
    "longitude": 30.55,
    "category": "Lake",
    "subcategory": "Reservoir",
    "featured": false,
    "priority": 50
  },
  {
    "geonameId": 888317,
    "name": "Lower Mguza dam",
    "latitude": -20.03222,
    "longitude": 28.53556,
    "category": "Lake",
    "subcategory": "Reservoir",
    "featured": false,
    "priority": 50
  },
  {
    "geonameId": 7523821,
    "name": "Lower Mujeni Dam",
    "latitude": -20.84828,
    "longitude": 28.94942,
    "category": "Lake",
    "subcategory": "Reservoir",
    "featured": false,
    "priority": 50
  },
  {
    "geonameId": 888307,
    "name": "Lubanda Dam",
    "latitude": -19.38333,
    "longitude": 28.4,
    "category": "Lake",
    "subcategory": "Reservoir",
    "featured": false,
    "priority": 50
  },
  {
    "geonameId": 888266,
    "name": "Lukampa Dam",
    "latitude": -18.84607,
    "longitude": 28.48329,
    "category": "Lake",
    "subcategory": "Reservoir",
    "featured": false,
    "priority": 50
  },
  {
    "geonameId": 888261,
    "name": "Lukondi",
    "latitude": -16.44675,
    "longitude": 30.56402,
    "category": "Mountain",
    "subcategory": "Mountain",
    "featured": false,
    "priority": 50
  },
  {
    "geonameId": 888225,
    "name": "Lupane",
    "latitude": -18.93149,
    "longitude": 27.80696,
    "category": "City",
    "subcategory": "Regional Capital",
    "featured": false,
    "priority": 50
  },
  {
    "geonameId": 7523432,
    "name": "Lupindi Dam",
    "latitude": -19.73599,
    "longitude": 27.79973,
    "category": "Lake",
    "subcategory": "Reservoir",
    "featured": false,
    "priority": 50
  },
  {
    "geonameId": 888154,
    "name": "Mabada Dam",
    "latitude": -19.94363,
    "longitude": 28.86234,
    "category": "Lake",
    "subcategory": "Reservoir",
    "featured": false,
    "priority": 50
  },
  {
    "geonameId": 888147,
    "name": "Mabega Dam",
    "latitude": -17.72433,
    "longitude": 27.39137,
    "category": "Lake",
    "subcategory": "Reservoir",
    "featured": false,
    "priority": 50
  },
  {
    "geonameId": 888141,
    "name": "Mabezikwe",
    "latitude": -22.1,
    "longitude": 30.31667,
    "category": "Mountain",
    "subcategory": "Mountain",
    "featured": false,
    "priority": 50
  },
  {
    "geonameId": 7318919,
    "name": "Mabgwematema Dam",
    "latitude": -20.22079,
    "longitude": 29.92413,
    "category": "Lake",
    "subcategory": "Reservoir",
    "featured": false,
    "priority": 50
  },
  {
    "geonameId": 888092,
    "name": "Machecheni Dam",
    "latitude": -19.61835,
    "longitude": 32.04904,
    "category": "Lake",
    "subcategory": "Reservoir",
    "featured": false,
    "priority": 50
  },
  {
    "geonameId": 886599,
    "name": "Machekwe",
    "latitude": -19.65337,
    "longitude": 32.04843,
    "category": "Mountain",
    "subcategory": "Mountain",
    "featured": false,
    "priority": 50
  },
  {
    "geonameId": 888081,
    "name": "Machenjere",
    "latitude": -18.39694,
    "longitude": 32.36096,
    "category": "Mountain",
    "subcategory": "Mountain",
    "featured": false,
    "priority": 50
  },
  {
    "geonameId": 888066,
    "name": "Machusadziwa",
    "latitude": -16.48586,
    "longitude": 30.91907,
    "category": "Mountain",
    "subcategory": "Mountain",
    "featured": false,
    "priority": 50
  },
  {
    "geonameId": 887961,
    "name": "Magahane",
    "latitude": -19.94423,
    "longitude": 31.76282,
    "category": "Mountain",
    "subcategory": "Mountain",
    "featured": false,
    "priority": 50
  },
  {
    "geonameId": 887934,
    "name": "Magoga Dam",
    "latitude": -20.83333,
    "longitude": 30.6,
    "category": "Lake",
    "subcategory": "Reservoir",
    "featured": false,
    "priority": 50
  },
  {
    "geonameId": 887932,
    "name": "Magololo Dam",
    "latitude": -19.35337,
    "longitude": 28.52785,
    "category": "Lake",
    "subcategory": "Reservoir",
    "featured": false,
    "priority": 50
  },
  {
    "geonameId": 887914,
    "name": "Magudu Dam",
    "latitude": -16.93333,
    "longitude": 32.16667,
    "category": "Lake",
    "subcategory": "Reservoir",
    "featured": false,
    "priority": 50
  },
  {
    "geonameId": 7350913,
    "name": "Maguwo Dam",
    "latitude": -16.67551,
    "longitude": 32.07374,
    "category": "Lake",
    "subcategory": "Reservoir",
    "featured": false,
    "priority": 50
  },
  {
    "geonameId": 887889,
    "name": "Mahaba",
    "latitude": -16.4062,
    "longitude": 30.69687,
    "category": "Mountain",
    "subcategory": "Mountain",
    "featured": false,
    "priority": 50
  },
  {
    "geonameId": 885420,
    "name": "Mahatsha Dam",
    "latitude": -19.24823,
    "longitude": 28.48433,
    "category": "Lake",
    "subcategory": "Reservoir",
    "featured": false,
    "priority": 50
  },
  {
    "geonameId": 887864,
    "name": "Mahomohoma Dam",
    "latitude": -18.56314,
    "longitude": 28.48197,
    "category": "Lake",
    "subcategory": "Reservoir",
    "featured": false,
    "priority": 50
  },
  {
    "geonameId": 887862,
    "name": "Mahonje",
    "latitude": -16.85553,
    "longitude": 31.96546,
    "category": "Mountain",
    "subcategory": "Mountain",
    "featured": false,
    "priority": 50
  },
  {
    "geonameId": 7417875,
    "name": "Mahugara",
    "latitude": -18.79139,
    "longitude": 32.73994,
    "category": "Lake",
    "subcategory": "Reservoir",
    "featured": false,
    "priority": 50
  },
  {
    "geonameId": 887846,
    "name": "Mahwe Mashwa",
    "latitude": -19.73333,
    "longitude": 32.65,
    "category": "Mountain",
    "subcategory": "Mountain",
    "featured": false,
    "priority": 50
  },
  {
    "geonameId": 7465072,
    "name": "Maitengwe Dam",
    "latitude": -19.94615,
    "longitude": 27.08128,
    "category": "Lake",
    "subcategory": "Reservoir",
    "featured": false,
    "priority": 50
  },
  {
    "geonameId": 887812,
    "name": "Majuru",
    "latitude": -20.37431,
    "longitude": 31.61089,
    "category": "Mountain",
    "subcategory": "Mountain",
    "featured": false,
    "priority": 50
  },
  {
    "geonameId": 887794,
    "name": "Makambiru",
    "latitude": -19.9,
    "longitude": 32.56667,
    "category": "Mountain",
    "subcategory": "Mountain",
    "featured": false,
    "priority": 50
  },
  {
    "geonameId": 887783,
    "name": "Makanyiri Dam",
    "latitude": -16.8,
    "longitude": 29.43333,
    "category": "Lake",
    "subcategory": "Reservoir",
    "featured": false,
    "priority": 50
  },
  {
    "geonameId": 887769,
    "name": "Makari Dam",
    "latitude": -19.89771,
    "longitude": 31.75199,
    "category": "Lake",
    "subcategory": "Reservoir",
    "featured": false,
    "priority": 50
  },
  {
    "geonameId": 887758,
    "name": "Makate",
    "latitude": -19.53333,
    "longitude": 32.38333,
    "category": "Mountain",
    "subcategory": "Mountain",
    "featured": false,
    "priority": 50
  },
  {
    "geonameId": 887729,
    "name": "Makomwe",
    "latitude": -19.25,
    "longitude": 32.28333,
    "category": "Mountain",
    "subcategory": "Mountain",
    "featured": false,
    "priority": 50
  },
  {
    "geonameId": 887724,
    "name": "Makonde",
    "latitude": -20.61414,
    "longitude": 31.31655,
    "category": "Mountain",
    "subcategory": "Mountain",
    "featured": false,
    "priority": 50
  },
  {
    "geonameId": 887706,
    "name": "Makore",
    "latitude": -16.37172,
    "longitude": 30.45626,
    "category": "Mountain",
    "subcategory": "Mountain",
    "featured": false,
    "priority": 50
  },
  {
    "geonameId": 7385529,
    "name": "Makosa Dam",
    "latitude": -17.27502,
    "longitude": 32.48422,
    "category": "Lake",
    "subcategory": "Reservoir",
    "featured": false,
    "priority": 50
  },
  {
    "geonameId": 887691,
    "name": "Makovere Dam",
    "latitude": -20.66667,
    "longitude": 30.63333,
    "category": "Lake",
    "subcategory": "Reservoir",
    "featured": false,
    "priority": 50
  },
  {
    "geonameId": 887676,
    "name": "Makulambila Dam",
    "latitude": -19.28333,
    "longitude": 29.38333,
    "category": "Lake",
    "subcategory": "Reservoir",
    "featured": false,
    "priority": 50
  },
  {
    "geonameId": 887663,
    "name": "Makungu",
    "latitude": -20.38502,
    "longitude": 32.48014,
    "category": "Mountain",
    "subcategory": "Mountain",
    "featured": false,
    "priority": 50
  },
  {
    "geonameId": 887660,
    "name": "Makungwe",
    "latitude": -20.51667,
    "longitude": 30.06667,
    "category": "Mountain",
    "subcategory": "Mountain",
    "featured": false,
    "priority": 50
  },
  {
    "geonameId": 887658,
    "name": "Makunige",
    "latitude": -18.24404,
    "longitude": 32.05886,
    "category": "Mountain",
    "subcategory": "Mountain",
    "featured": false,
    "priority": 50
  },
  {
    "geonameId": 887650,
    "name": "Makuswe",
    "latitude": -19.3,
    "longitude": 32.2,
    "category": "Mountain",
    "subcategory": "Mountain",
    "featured": false,
    "priority": 50
  },
  {
    "geonameId": 887631,
    "name": "Makwanda Dam",
    "latitude": -18.77383,
    "longitude": 28.77797,
    "category": "Lake",
    "subcategory": "Reservoir",
    "featured": false,
    "priority": 50
  },
  {
    "geonameId": 7523832,
    "name": "Makwilila Dam",
    "latitude": -20.84075,
    "longitude": 28.82728,
    "category": "Lake",
    "subcategory": "Reservoir",
    "featured": false,
    "priority": 50
  },
  {
    "geonameId": 887611,
    "name": "Makwura",
    "latitude": -17.48333,
    "longitude": 28.71667,
    "category": "Mountain",
    "subcategory": "Peak",
    "featured": false,
    "priority": 50
  },
  {
    "geonameId": 887610,
    "name": "Makyakora",
    "latitude": -18.1,
    "longitude": 31.68333,
    "category": "Mountain",
    "subcategory": "Mountain",
    "featured": false,
    "priority": 50
  },
  {
    "geonameId": 887592,
    "name": "Malapati Dam",
    "latitude": -21.26818,
    "longitude": 30.04338,
    "category": "Lake",
    "subcategory": "Reservoir",
    "featured": false,
    "priority": 50
  },
  {
    "geonameId": 887589,
    "name": "Malapi Dam",
    "latitude": -22.15,
    "longitude": 30.88333,
    "category": "Lake",
    "subcategory": "Reservoir",
    "featured": false,
    "priority": 50
  },
  {
    "geonameId": 887575,
    "name": "Maleme Dam",
    "latitude": -20.55,
    "longitude": 28.5,
    "category": "Lake",
    "subcategory": "Reservoir",
    "featured": false,
    "priority": 50
  },
  {
    "geonameId": 887522,
    "name": "Mambaleza Island",
    "latitude": -17.56968,
    "longitude": 27.43045,
    "category": "Island",
    "subcategory": "Island",
    "featured": false,
    "priority": 50
  },
  {
    "geonameId": 887518,
    "name": "Mambanga",
    "latitude": -20.03586,
    "longitude": 31.62563,
    "category": "Mountain",
    "subcategory": "Mountain",
    "featured": false,
    "priority": 50
  },
  {
    "geonameId": 887507,
    "name": "Mamunga",
    "latitude": -16.91667,
    "longitude": 31.01667,
    "category": "Mountain",
    "subcategory": "Mountain",
    "featured": false,
    "priority": 50
  },
  {
    "geonameId": 879380,
    "name": "Mamvuramachene Dam",
    "latitude": -18.6023,
    "longitude": 29.36461,
    "category": "Lake",
    "subcategory": "Reservoir",
    "featured": false,
    "priority": 50
  },
  {
    "geonameId": 887500,
    "name": "Mamzurgwe",
    "latitude": -19.721,
    "longitude": 31.94675,
    "category": "Mountain",
    "subcategory": "Mountain",
    "featured": false,
    "priority": 50
  },
  {
    "geonameId": 887492,
    "name": "Manami",
    "latitude": -21.13333,
    "longitude": 29.11667,
    "category": "Mountain",
    "subcategory": "Mountain",
    "featured": false,
    "priority": 50
  },